     2.11           OBSERVATION DATA    G (GPS)             RINEX VERSION / TYPE
teqc  2019Feb25                         20250821 03:54:14UTCPGM / RUN BY / DATE
Linux 2.6.32-573.12.1.x86_64|x86_64|gcc -static|Linux 64|=+ COMMENT
BIT 2 OF LLI FLAGS DATA COLLECTED UNDER A/S CONDITION       COMMENT
35183560                                                    MARKER NAME
3560                                                        MARKER NUMBER
-Unknown-           -Unknown-                               OBSERVER / AGENCY
0220413518          TRIMBLE R7          2.32                REC # / TYPE / VERS
-Unknown-           TRM39105.00     NONE                    ANT # / TYPE
 -2371482.5903 -4596804.1784  3721000.1385                  APPROX POSITION XYZ
        0.0000        0.0000        0.0000                  ANTENNA: DELTA H/E/N
     1     1                                                WAVELENGTH FACT L1/2
     7    L1    L2    C1    P1    P2    S1    S2            # / TYPES OF OBSERV
    18                                                      LEAP SECONDS
 SNR is mapped to RINEX snr flag value [0-9]                COMMENT
  L1 & L2: min(max(int(snr_dBHz/6), 0), 9)                  COMMENT
  2025     8     7    21    57   30.0000000     GPS         TIME OF FIRST OBS
                                                            END OF HEADER
 25  8  7 21 57 30.0000000  0  4G03G31G28G32
   -160896.65656    -81948.14156  22510136.8984                   22510141.3754
        41.0004         38.0004
    -87907.29758    -41870.19558  20402350.1024                   20402349.9344
        49.7504         48.0004
     -7817.87558     -4447.71156  20890213.6564                   20890213.7624
        48.0004         38.0004
     47190.29357     26193.59456  22756944.6484                   22756947.8524
        46.2504         41.7504
 25  8  7 21 58  0.0000000  0  6G03G10G02G31G28G32
   -276797.37147   -172260.34446  22488081.7734                   22488085.9574
        42.5004         37.5004
     71041.52057     43914.67656  23385379.3594                   23385385.1334
        43.2504         36.0004
      1485.61357       977.73856  21474711.6414                   21474710.2774
        47.7504         37.2504
   -164308.55948   -101403.61747  20387811.5314                   20387811.0554
        50.2504         47.2504
    -13644.61748     -8988.04746  20889105.2664                   20889104.9804
        48.0004         37.7504
     84262.12547     55080.71546  22763999.5314                   22764002.0124
        45.5004         40.5004
 25  8  7 21 58 30.0000000  0  6G03G10G02G31G28G32
   -392427.33647   -262361.55546  22466077.9534                   22466082.3674
        42.7504         37.7504
    115770.61346     78768.36345  23393890.8204                   23393896.4844
        41.5004         33.2504
      3054.50848      2200.21146  21475010.4694                   21475008.8014
        48.0004         37.2504
   -239930.69948   -160329.91847  20373420.8984                   20373420.1024
        49.2504         47.5004
    -18720.36747    -12943.18746  20888139.0394                   20888138.9104
        47.0004         37.0004
    121582.38747     84161.39546  22771101.3524                   22771103.8204
        45.0004         40.0004
 25  8  7 21 59  0.0000000  0  6G03G10G02G31G28G32
   -507745.05547   -352219.44546  22444133.7424                   22444137.6724
        42.2504         38.0004
    160975.27047    113992.66846  23402494.2894                   23402498.8874
        45.2504         37.2504
      5340.08648      3981.12546  21475445.5784                   21475443.6024
        48.2504         37.2504
   -314731.87548   -218616.51647  20359186.8524                   20359186.0744
        49.2504         47.5004
    -23006.41448    -16282.96946  20887323.5394                   20887323.0594
        48.0004         38.2504
    159190.37547    113466.28146  22778258.0004                   22778260.3834
        45.7504         40.2504
 25  8  7 21 59 30.0000000  0  6G03G10G02G31G28G32
   -622738.52747   -441824.66846  22422251.1644                   22422254.8984
        42.2504         37.2504
    206665.41846    149595.11345  23411187.1644                   23411194.1294
        40.2504         34.0004
      8351.75447      6327.82846  21476018.6254                   21476016.8554
        47.5004         37.5004
   -388700.42248   -276254.30947  20345111.0634                   20345110.3444
        49.5004         47.5004
    -26493.65647    -19000.30546  20886660.1024                   20886659.9844
        47.0004         38.0004
    197095.72747    143002.87946  22785470.8134                   22785473.7344
        45.2504         40.7504
 25  8  7 22  0  0.0000000  0  6G03G10G02G31G28G32
   -737398.70747   -531170.18746  22400432.3524                   22400435.9734
        42.7504         37.5004
    252848.03147    185581.54345  23419976.9384                   23419981.2584
        44.0004         35.5004
     12095.91047      9245.30946  21476731.1724                   21476729.3554
        47.5004         36.7504
   -461827.44548   -333236.37147  20331194.9454                   20331194.6764
        50.0004         47.5004
    -29175.97347    -21090.42246  20886149.7664                   20886149.0354
        46.5004         37.2504
    235305.23047    172776.47746  22792741.8444                   22792744.0904
        45.2504         40.5004
 25  8  7 22  0 30.0000000  0  6G03G10G02G31G28G32
   -851720.52747   -620252.05146  22378677.1334                   22378680.9024
        42.5004         37.5004
    299526.60247    221954.18446  23428859.5004                   23428865.2664
        43.0004         36.0004
     16574.58248     12735.13346  21477583.4454                   21477581.8014
        48.0004         36.5004
   -534107.96948   -389558.82047  20317440.7274                   20317440.1724
        50.0004         47.5004
    -31051.12547    -22551.57846  20885792.6484                   20885792.2894
        46.7504         37.7504
    273821.68847    202789.26246  22800071.4614                   22800073.9844
        44.5004         40.5004
 25  8  7 22  1  0.0000000  0  7G03G10G04G02G31G28G32
   -965700.68447   -709067.67646  22356987.2894                   22356991.2544
        42.2504         38.0004
    346702.10546    258714.24645  23437836.7814                   23437840.4304
        41.5004         33.0004
   -275712.69556   -174016.71553  23813528.0474                   23813535.2664
        39.7504         22.0004
     21788.32447     16797.74246  21478575.8444                   21478573.8834
        47.7504         36.7504
   -605539.18448   -445219.47347  20303847.6484                   20303847.1484
        49.5004         47.5004
    -32118.83647    -23383.56246  20885589.5634                   20885589.2034
        46.0004         38.0004
    312646.03147    233041.95346  22807459.5944                   22807462.0004
        44.5004         40.5004
 25  8  7 22  1 30.0000000  0  7G03G10G04G02G31G28G32
  -1079351.17247   -797626.41446  22335360.2274                   22335363.6644
        42.7504         38.0004
    394360.76247    295850.66046  23446905.9304                   23446912.2154
        42.0004         37.0004
   -380788.48046   -255893.66443  23793532.8204                   23793539.8134
        40.0004         22.5004
     27722.32448     21421.59846  21479705.0784                   21479703.0784
        48.5004         36.5004
   -676133.43048   -500227.93747  20290414.2734                   20290413.4844
        49.7504         47.5004
    -32394.07847    -23598.03146  20885537.0474                   20885536.7464
        47.7504         37.2504
    351763.99647    263523.44146  22814903.7344                   22814906.1484
        44.5004         40.7504
 25  8  7 22  2  0.0000000  0  7G03G10G04G02G31G28G32
  -1192677.25447   -885932.37146  22313795.2034                   22313798.6914
        42.2504         37.5004
    442495.21147    333357.89545  23456065.8524                   23456069.8324
        42.0004         32.7504
   -485492.55546   -337480.98443  23773607.3984                   23773615.1094
        40.7504         22.5004
     34368.59047     26600.45746  21480969.8754                   21480967.9654
        47.5004         36.7504
   -745896.37548   -554588.64147  20277138.6024                   20277138.1134
        50.5004         47.5004
    -31885.09047    -23201.41446  20885633.5944                   20885633.5204
        47.5004         37.7504
    391168.03547    294227.84446  22822401.8204                   22822404.4964
        44.5004         40.2504
 25  8  7 22  2 30.0000000  0  7G03G10G04G02G31G28G32
  -1305685.44947   -973990.62546  22292289.9384                   22292293.6844
        42.0004         37.7504
    491097.03947    371229.26646  23465314.9774                   23465320.4384
        42.5004         36.5004
   -589832.98446   -418784.91443  23753751.9304                   23753759.6564
        40.5004         22.7504
     41717.45748     32326.80546  21482367.7814                   21482366.5474
        48.2504         36.7504
   -814834.79748   -608306.85247  20264020.1644                   20264019.4654
        49.2504         47.5004
    -30601.47747    -22201.18746  20885878.2504                   20885878.1054
        46.0004         37.5004
    430849.30947    325148.27346  22829952.8914                   22829955.2854
        45.0004         40.0004
 25  8  7 22  3  0.0000000  0  7G03G10G04G02G31G28G32
  -1418383.13347  -1061806.91446  22270845.0634                   22270848.2114
        42.5004         38.0004
    540156.68446    409457.40645  23474649.9614                   23474655.5664
        41.2504         33.0004
   -693818.64846   -499812.45343  23733964.3754                   23733971.3674
        40.5004         22.7504
     49758.82848     38592.76246  21483898.3204                   21483897.1024
        48.0004         37.2504
   -882956.55948   -661388.70747  20251057.0314                   20251056.2154
        50.0004         47.5004
    -28553.65247    -20605.47346  20886267.8204                   20886267.5984
        46.5004         37.2504
    470798.14847    356277.20346  22837555.2664                   22837557.6134
        45.0004         40.0004
 25  8  7 22  3 30.0000000  0  7G03G10G04G02G31G28G32
  -1530778.77746  -1149387.85246  22249455.9924                   22249459.7274
        41.5004         38.0004
    589663.77747    448034.22745  23484071.0704                   23484076.1764
        42.2504         34.5004
   -797459.51646   -580571.28543  23714241.9774                   23714248.5984
        40.7504         22.2504
     58481.14847     45389.32846  21485558.2894                   21485556.2704
        47.7504         37.0004
   -950270.26648   -713840.91447  20238247.5784                   20238247.2854
        50.0004         47.7504
    -25753.24247    -18423.32846  20886800.9614                   20886800.3364
        47.2504         37.5004
    511003.75847    387606.21146  22845206.0554                   22845208.5554
        44.2504         40.0004
 25  8  7 22  4  0.0000000  0  7G03G10G04G02G31G28G32
  -1642880.54747  -1236739.79346  22228124.3914                   22228127.5744
        42.0004         38.2504
    639607.94947    486951.60545  23493575.2194                   23493581.0704
        42.0004         34.2504
   -900765.27046   -661069.02344  23694583.4844                   23694589.9964
        41.0004         24.2504
     67873.28948     52707.83246  21487345.4144                   21487343.8134
        48.2504         37.2504
  -1016784.91448   -765670.47347  20225590.2734                   20225589.3324
        50.0004         47.5004
    -22211.51647    -15663.53546  20887474.9534                   20887474.5084
        47.0004         38.0004
    551455.68447    419127.15246  22852903.6644                   22852906.2704
        45.0004         39.7504
 25  8  7 22  4 30.0000000  0  7G03G10G04G02G31G28G32
  -1754695.36347  -1323868.13346  22206846.0554                   22206849.8204
        42.0004         38.5004
    689980.15646    526202.50445  23503160.3914                   23503166.1524
        41.2504         34.2504
  -1003744.48046   -741312.30943  23674986.6564                   23674993.4454
        40.5004         23.2504
     77925.29748     60540.52746  21489258.1024                   21489256.6994
        48.0004         37.0004
  -1082507.94148   -816883.18447  20213083.4614                   20213082.1844
        50.0004         47.7504
    -17938.57847    -12333.97346  20888287.7034                   20888287.2424
        47.0004         37.2504
    592144.59847    450832.76646  22860646.9844                   22860649.1914
        44.7504         39.7504
 25  8  7 22  5  0.0000000  0  7G03G10G04G02G31G28G32
  -1866229.00847  -1410777.37946  22185622.4614                   22185625.6094
        42.5004         38.5004
    740772.68046    565780.97345  23512826.4224                   23512831.8404
        41.5004         33.2504
  -1106404.33646   -821306.75043  23655451.5864                   23655457.1174
        41.0004         22.5004
     88628.49647     68880.64146  21491295.5314                   21491294.1254
        47.2504         37.2504
  -1147445.44148   -867483.80148  20200726.3444                   20200725.6174
        50.0004         48.0004
    -12943.32047     -8441.55946  20889238.3914                   20889237.9884
        45.7504         37.7504
    633062.55947    482716.85246  22868433.1724                   22868435.5234
        43.5004         39.5004
 25  8  7 22  5 30.0000000  0  7G03G10G04G02G31G28G32
  -1977488.70347  -1497473.15646  22164449.9924                   22164453.4734
        42.5004         38.7504
    791976.00447    605679.48045  23522570.3364                   23522576.5004
        42.0004         34.5004
  -1208753.69146   -901059.25843  23635975.3134                   23635980.9224
        41.0004         23.0004
     99972.23847     77719.86746  21493453.9144                   21493452.3324
        47.7504         37.0004
  -1211605.50048   -917478.61347  20188516.9614                   20188516.1524
        49.2504         47.7504
     -7236.28147     -3994.50446  20890324.2974                   20890324.1764
        46.2504         37.0004
    674199.91847    514771.89546  22876261.7664                   22876263.7234
        44.0004         39.2504
 25  8  7 22  6  0.0000000  0  7G03G10G04G02G31G28G32
  -2088479.44147  -1583959.34846  22143328.9064                   22143332.6134
        42.5004         38.7504
    843583.04346    645892.58645  23532391.3914                   23532396.0984
        41.7504         33.0004
  -1310799.14846   -980574.98043  23616555.5864                   23616562.2664
        41.0004         22.7504
    111948.54348     87052.02046  21495732.5314                   21495731.2774
        48.0004         37.0004
  -1274993.66048   -966871.94548  20176454.7194                   20176453.7424
        49.2504         48.0004
      -825.64147      1000.80946  20891544.3364                   20891544.1684
        46.5004         37.2504
    715549.40647    546992.25046  22884130.2114                   22884132.2734
        44.2504         39.2504
 25  8  7 22  6 30.0000000  0  7G03G10G04G02G31G28G32
  -2199208.60547  -1670241.73046  22122258.5004                   22122261.2234
        42.5004         39.7504
    895584.27346    686412.89845  23542285.6954                   23542292.0314
        40.7504         32.2504
  -1412549.66846  -1059860.87143  23597193.5784                   23597199.3094
        40.7504         23.2504
    124547.03547     96868.98046  21498129.9694                   21498129.0664
        47.7504         37.2504
  -1337617.88748  -1015670.01247  20164537.5314                   20164536.7194
        49.5004         47.7504
      6277.97347      6536.09446  20892895.8204                   20892895.6604
        46.5004         37.2504
    757101.34447    579370.33646  22892036.7344                   22892039.4884
        43.5004         39.7504
 25  8  7 22  7  0.0000000  0  7G03G10G04G02G31G28G32
   -734257.09447   -528720.98046  22401028.5634                   22401032.1334
        42.7504         39.5004
   2523391.10547   1954833.62145  23852048.4534                   23852054.5474
        43.0004         35.2504
     61411.95746     88680.88743  23877678.2814                   23877684.7074
        40.7504         22.7504
   1713179.46948   1334764.34446  21800437.1804                   21800435.3444
        48.2504         37.2504
    175938.64848    163724.73447  20452557.6484                   20452556.7504
        49.2504         47.7504
   1589486.35247   1240204.96546  21194170.6724                   21194170.1214
        46.5004         37.0004
   2374267.38347   1839499.67646  23199773.8834                   23199776.2544
        43.2504         39.5004
 25  8  7 22  7 30.0000000  0  7G03G10G04G02G31G28G32
   -844478.22747   -614607.48446  22380054.6804                   22380057.8524
        43.0004         39.5004
   2576158.97746   1995951.29345  23862089.5004                   23862094.4924
        40.2504         30.5004
    -39768.58646      9839.11343  23858424.2034                   23858430.1524
        40.7504         23.0004
   1726997.83647   1345531.85546  21803066.6644                   21803064.8164
        47.5004         36.7504
    114824.98048    116103.73047  20440927.8444                   20440927.0704
        49.5004         47.7504
   1597950.78147   1246800.62546  21195781.4384                   21195780.8634
        46.5004         37.0004
   2416202.09447   1872176.02746  23207753.3444                   23207756.0004
        43.5004         39.2504
 25  8  7 22  8  0.0000000  0  7G03G10G04G02G31G28G32
   -954450.68047   -700300.21946  22359127.2584                   22359130.5594
        43.7504         39.5004
   2629301.48847   2037360.88745  23872202.9844                   23872208.1254
        43.2504         35.5004
   -140672.00846    -68786.69543  23839223.3914                   23839228.9694
        41.5004         22.7504
   1741415.82848   1356766.60246  21805810.5474                   21805809.3054
        48.0004         37.0004
     54460.15648     69066.25047  20429441.3284                   20429440.0044
        48.5004         47.7504
   1607085.27747   1253918.42646  21197519.5634                   21197519.1134
        46.5004         36.7504
   2458319.34447   1904994.62146  23215768.4384                   23215770.4844
        43.7504         39.5004
 25  8  7 22  8 30.0000000  0  8G03G01G10G04G02G31G28G32
  -1064176.00847   -785800.37946  22338247.5944                   22338250.4774
        44.0004         40.2504
   1481502.91457   1163288.17255  21318939.4614                   21318939.7854
        45.7504         35.0004
   2682814.70746   2079059.30545  23882384.8204                   23882392.3364
        40.2504         33.5004
   -241301.41446   -147198.99243  23820073.9534                   23820079.4534
        40.5004         22.7504
   1756428.76247   1368464.94146  21808667.4534                   21808665.7624
        47.5004         36.7504
     -5158.27348     22610.36747  20418095.9454                   20418094.8554
        48.0004         47.7504
   1616884.92247   1261554.51246  21199384.1954                   21199383.5594
        46.5004         37.0004
   2500615.31347   1937952.47746  23223817.0554                   23223819.2464
        43.2504         39.5004
 25  8  7 22  9  0.0000000  0  9G03G01G10G04G02G25G31G28G32
  -1173654.53147   -871108.23446  22317414.0784                   22317417.2704
        43.2504         40.0004
   1434300.41047   1126507.00845  21309956.7664                   21309957.1914
        46.2504         35.5004
   2736696.41447   2121044.83245  23892639.5164                   23892644.3134
        42.5004         33.2504
   -341658.78546   -225399.32043  23800976.1884                   23800982.1604
        40.7504         22.7504
   1772033.05548   1380624.08245  21811636.6644                   21811635.0164
        48.0004         35.7504
   1066983.02755    839471.37954  24454890.7974                   24454894.7704
        35.2504         24.5004
    -64031.39848    -23264.74647  20406892.6174                   20406892.0354
        48.0004         47.7504
   1627345.92247   1269705.94546  21201374.8834                   21201374.9144
        46.5004         37.5004
   2543087.31347   1971047.50846  23231899.1094                   23231901.4344
        43.5004         38.7504
 25  8  7 22  9 30.0000000  0 10G03G01G10G04G26G02G25G31G28G32
  -1282888.94947   -956225.87146  22296627.5084                   22296630.5124
        43.5004         40.2504
   1387806.45747   1090277.96145  21301109.5704                   21301109.5124
        46.0004         35.5004
   2790941.30146   2163313.52045  23902962.3204                   23902968.0084
        41.5004         35.0004
   -441748.55546   -303391.11743  23781929.5164                   23781935.5204
        40.7504         22.5004
   -802104.60956   -579590.03554  24186743.1484                   24186752.7424
        37.0004         28.2504
   1788222.85947   1393239.46546  21814717.6954                   21814716.0704
        47.7504         36.2504
   1052454.10545    828150.14844  24452126.2034                   24452129.5554
        35.0004         25.0004
   -122162.56648    -68561.71948  20395830.5084                   20395829.9614
        48.5004         48.0004
   1638462.26247   1278368.03946  21203490.0474                   21203490.1604
        46.5004         37.2504
   2585730.34047   2004275.80146  23240013.5704                   23240016.0514
        43.7504         39.0004
 25  8  7 22 10  0.0000000  0 10G03G01G10G04G26G02G25G31G28G32
  -1391883.86747  -1041156.88746  22275885.9614                   22275889.5944
        43.2504         40.5004
   1342015.45747   1054596.66445  21292395.9454                   21292396.2074
        46.7504         34.7504
   2845542.76246   2205859.78545  23913352.2664                   23913359.0124
        40.5004         34.0004
   -541577.00446   -381179.31643  23762932.6414                   23762938.0354
        40.2504         23.2504
   -919222.79746   -670850.68445  24164456.2344                   24164466.2074
        38.5004         30.2504
   1804989.85248   1406304.60246  21817907.7664                   21817906.3554
        48.5004         37.5004
   1038596.25045    817351.82444  24449488.4064                   24449493.1954
        35.5004         26.0004
   -179557.80148   -113285.23048  20384908.8754                   20384907.7424
        48.7504         48.0004
   1650225.80547   1287534.44146  21205728.8594                   21205728.2074
        46.5004         36.5004
   2628537.46947   2037631.96146  23248159.5784                   23248162.1254
        43.0004         39.0004
 25  8  7 22 10 30.0000000  0 10G03G01G10G04G26G02G25G31G28G32
  -1500645.91047  -1125906.44546  22255188.9924                   22255193.0044
        44.0004         39.7504
   1296919.83647   1019457.23045  21283814.4384                   21283814.9104
        45.2504         35.7504
   2900491.55147   2248676.92245  23923809.6804                   23923814.3284
        43.5004         34.0004
   -641152.38346   -458770.30944  23743983.3204                   23743989.9964
        40.5004         24.2504
  -1036189.42246   -761993.22344  24142197.4224                   24142207.2194
        36.7504         27.7504
   1822324.49248   1419812.07446  21821206.9384                   21821205.6254
        48.0004         36.2504
   1025401.16845    807069.93844  24446977.5004                   24446981.9454
        35.5004         26.0004
   -236224.32848   -157440.92248  20374125.6724                   20374124.4804
        49.5004         48.0004
   1662626.45347   1297197.29746  21208088.5704                   21208088.2034
        46.5004         37.0004
   2671499.73047   2071109.00846  23256335.1804                   23256337.5434
        43.7504         38.5004
 25  8  7 22 11  0.0000000  0 10G03G01G10G04G26G02G25G31G28G32
  -1609176.91447  -1210475.96946  22234536.5474                   22234539.8834
        44.5004         40.5004
   1252516.75847    984857.43045  21275365.0084                   21275365.2464
        46.0004         34.7504
   2955783.71146   2291761.55944  23934330.2894                   23934336.6884
        38.2504         29.5004
   -740478.39846   -536166.99244  23725083.0164                   23725088.4964
        40.5004         25.5004
  -1153005.19946   -853018.21944  24119968.5704                   24119977.4734
        38.2504         29.7504
   1840221.33248   1433757.60546  21824612.5784                   21824611.0984
        48.0004         36.0004
   1012865.57045    797301.93044  24444592.0864                   24444596.3954
        35.5004         26.7504
   -292165.13748   -201031.11348  20363480.3054                   20363479.1024
        48.2504         48.0004
   1675658.81347   1307352.37946  21210568.5474                   21210567.8634
        47.0004         36.5004
   2714612.96947   2104703.70346  23264538.8834                   23264541.9304
        42.7504         38.5004
 25  8  7 22 11 30.0000000  0 10G03G01G10G04G26G02G25G31G28G32
  -1717478.91447  -1294867.04746  22213927.2344                   22213930.7304
        44.5004         40.5004
   1208803.20747    950794.92645  21267046.2114                   21267046.5004
        46.0004         35.5004
   3011414.75447   2335110.19546  23944917.5084                   23944923.4654
        43.2504         36.2504
   -839558.68446   -613372.21944  23706227.6724                   23706233.6844
        40.0004         25.5004
  -1269670.57446   -943926.04744  24097767.7584                   24097776.4104
        38.7504         29.7504
   1858675.12147   1448137.13746  21828124.3054                   21828122.9344
        47.7504         36.0004
   1000985.79745    788044.94944  24442331.1954                   24442335.7584
        35.7504         25.7504
   -347383.30948   -244058.21948  20352972.3984                   20352971.5164
        50.2504         48.0004
   1689317.35947   1317995.41046  21213167.7424                   21213167.0704
        47.0004         36.2504
   2757872.80147   2138412.61746  23272771.5164                   23272773.9454
        43.5004         38.5004
 25  8  7 22 12  0.0000000  0 10G03G01G10G04G26G02G25G31G28G32
  -1825556.46147  -1379083.23046  22193360.7664                   22193363.8674
        44.2504         40.7504
   1165773.53547    917265.31345  21258858.1644                   21258858.4574
        46.5004         35.2504
   3067377.76246   2378717.55545  23955566.3914                   23955572.4494
        39.5004         31.0004
   -938399.52346   -690390.84844  23687419.0394                   23687424.9414
        39.0004         25.2504
  -1386188.87546  -1034719.27745  24075595.1174                   24075603.5634
        39.2504         31.0004
   1877677.70347   1462944.28946  21831740.5474                   21831738.6684
        47.5004         36.2504
    989755.64845    779294.18044  24440194.4534                   24440198.8134
        35.0004         25.0004
   -401884.37548   -286526.53548  20342601.2974                   20342600.4064
        49.0004         48.0004
   1703594.00447   1329120.06646  21215884.6334                   21215884.1094
        47.0004         36.7504
   2801272.42647   2172230.47346  23281030.1094                   23281032.8914
        42.5004         39.0004
 25  8  7 22 12 30.0000000  0 10G03G01G10G04G26G02G25G31G28G32
  -1933411.77047  -1463126.23846  22172836.5234                   22172839.6214
        44.2504         40.7504
   1123424.38347    884265.97345  21250799.1954                   21250799.4884
        46.2504         35.0004
   3123668.28546   2422580.14145  23966279.0704                   23966284.5044
        41.7504         33.0004
  -1037004.93446   -767226.04744  23668655.1174                   23668660.6884
        40.0004         24.0004
  -1502561.09446  -1125398.67644  24053449.7114                   24053457.8834
        37.7504         29.5004
   1897223.53947   1478174.76646  21835460.0004                   21835458.2584
        47.2504         36.5004
    979171.31646    771046.60944  24438180.4534                   24438184.8984
        36.0004         26.0004
   -455671.35248   -328438.43048  20332366.1024                   20332365.4024
        49.2504         48.0004
   1718482.87947   1340721.79345  21218717.4924                   21218717.1564
        46.7504         35.7504
   2844807.16447   2206153.60546  23289314.7894                   23289316.7424
        43.7504         38.2504
 25  8  7 22 13  0.0000000  0 10G03G01G10G04G26G02G25G31G28G32
  -2041047.63347  -1546998.25046  22152353.9224                   22152357.2234
        44.2504         40.5004
   1081751.89547    851793.91045  21242869.1174                   21242869.3634
        46.5004         35.5004
   3180280.87546   2466693.67245  23977052.1334                   23977058.5084
        41.5004         35.2504
  -1135379.40246   -843881.27744  23649935.2734                   23649940.2424
        39.7504         24.7504
  -1618788.62146  -1215965.30945  24031331.6254                   24031340.9884
        38.0004         31.0004
   1917306.35948   1493823.66846  21839281.5164                   21839279.9264
        48.0004         36.5004
    969228.23445    763298.75044  24436287.9064                   24436292.7664
        35.5004         24.2504
   -508748.44948   -369797.16048  20322265.5394                   20322264.5864
        48.7504         48.0004
   1733977.61347   1352795.60546  21221666.5474                   21221665.8594
        47.0004         36.0004
   2888471.96547   2240178.08246  23297623.8984                   23297626.2344
        44.2504         38.5004
 25  8  7 22 13 30.0000000  0 10G03G01G10G04G26G02G25G31G28G32
  -2148465.40247  -1630700.32846  22131913.3524                   22131916.3754
        44.5004         40.5004
   1040753.55547    819847.16045  21235067.5164                   21235067.7384
        47.0004         35.5004
   3237212.04346   2511055.33645  23987884.9844                   23987891.6684
        39.5004         30.7504
  -1233526.16846   -920359.10244  23631257.5784                   23631263.5004
        40.0004         25.0004
  -1734871.52046  -1306419.23845  24009242.7274                   24009251.3954
        38.7504         31.7504
   1937921.39847   1509887.28146  21843204.5394                   21843202.8094
        47.2504         36.2504
    959923.34045    756048.17244  24434518.2584                   24434522.2114
        35.0004         24.0004
   -561118.21548   -410604.73448  20312299.8204                   20312298.9774
        49.0004         48.0004
   1750073.23847   1365337.64846  21224729.0164                   21224728.9574
        46.7504         36.7504
   2932263.14547   2274301.03146  23305956.9224                   23305959.3324
        43.5004         38.2504
 25  8  7 22 14  0.0000000  0 10G03G01G10G04G26G02G25G31G28G32
  -2255667.18047  -1714234.09846  22111513.2194                   22111516.2624
        45.0004         40.5004
   1000426.05547    788423.13345  21227393.2814                   21227394.1024
        46.2504         35.5004
   3294457.04347   2555661.71945  23998779.2814                   23998784.2894
        42.5004         31.7504
  -1331448.98846   -996662.39843  23612623.3054                   23612628.6844
        40.7504         22.7504
  -1850810.55946  -1396761.12545  23987180.0004                   23987187.7894
        40.0004         31.0004
   1959062.75447   1526361.01646  21847227.8674                   21847226.1884
        47.0004         36.0004
    951252.85946    749291.92244  24432867.7974                   24432872.2154
        36.2504         24.5004
   -612783.77748   -450863.58248  20302468.3674                   20302467.2704
        49.0004         48.0004
   1766763.94547   1378343.38346  21227904.8674                   21227904.6374
        47.0004         36.7504
   2976176.25447   2308519.00446  23314313.1644                   23314315.6254
        44.2504         38.5004
 25  8  7 22 14 30.0000000  0 10G03G01G10G04G26G02G25G31G28G32
  -2362654.85247  -1797601.03146  22091153.6954                   22091157.0984
        44.7504         41.0004
    960766.29747    757519.42646  21219846.8364                   21219846.8014
        46.2504         36.0004
   3352011.59446   2600509.25445  24009731.5314                   24009738.0434
        40.2504         32.5004
  -1429151.59046  -1072794.09844  23594031.7584                   23594036.8984
        39.7504         25.2504
  -1966606.39846  -1486991.37145  23965144.2734                   23965153.2704
        38.2504         30.0004
   1980725.35947   1543240.91446  21851349.8674                   21851348.6844
        47.7504         36.0004
    943212.94545    743027.04343  24431337.9064                   24431342.2734
        35.5004         23.5004
   -663748.57448   -490576.37548  20292770.2974                   20292768.9694
        49.5004         48.2504
   1784044.18047   1391808.50046  21231193.2344                   21231193.0004
        46.0004         36.2504
   3020207.02747   2342828.64846  23322692.2424                   23322694.8874
        43.5004         38.5004
 25  8  7 22 15  0.0000000  0 10G03G01G10G04G26G02G25G31G28G32
  -2469428.26647  -1880801.00446  22070835.7974                   22070838.3634
        44.5004         41.2504
    921773.12147    727135.14145  21212426.0704                   21212426.7774
        46.2504         35.7504
   3409873.42646   2645596.10945  24020742.7894                   24020748.8874
        40.5004         34.0004
  -1526635.67646  -1148755.53944  23575480.7814                   23575485.9224
        40.0004         24.0004
  -2082257.55946  -1577108.85945  23943137.4384                   23943145.1724
        41.0004         32.5004
   2002905.29747   1560523.92245  21855570.6804                   21855569.0744
        46.7504         35.0004
    935802.17245    737252.41044  24429927.2194                   24429931.5204
        34.7504         24.0004
   -714013.69948   -529743.96548  20283204.8674                   20283203.6484
        49.0004         48.2504
   1801910.41447   1405730.23046  21234593.4224                   21234593.1414
        47.0004         36.5004
   3064353.34047   2377228.33246  23331092.6254                   23331095.7664
        44.0004         37.2504
 25  8  7 22 15 30.0000000  0 10G03G01G10G04G26G02G25G31G28G32
  -2575988.68447  -1963835.01646  22050557.8524                   22050561.0234
        45.0004         41.0004
    883444.01647    697268.30945  21205132.5084                   21205133.0434
        46.7504         35.5004
   3468038.68846   2690919.50845  24031811.0084                   24031816.2854
        41.5004         30.0004
  -1623904.30146  -1224549.09444  23556970.7814                   23556976.0474
        40.0004         25.2504
  -2197763.97346  -1667113.61745  23921155.7894                   23921164.4924
        39.7504         32.5004
   2025598.19147   1578206.64546  21859888.7034                   21859887.5944
        47.2504         36.0004
    929017.12545    731965.36344  24428636.3284                   24428640.7464
        34.2504         25.5004
   -763581.55548   -568368.24248  20273772.4454                   20273771.3014
        48.7504         48.0004
   1820357.56647   1420104.62546  21238103.6644                   21238103.5434
        47.2504         36.5004
   3108611.46547   2411715.13746  23339515.2424                   23339517.5944
        43.7504         37.5004
 25  8  7 22 16  0.0000000  0 10G03G01G10G04G26G02G25G31G28G32
  -2682335.37947  -2046702.48846  22030320.5394                   22030323.5044
        44.0004         40.5004
    845778.38747    667918.46945  21197965.0944                   21197965.2704
        46.0004         35.5004
   3526505.69546   2736478.09045  24042937.5004                   24042943.5474
        41.5004         33.2504
  -1720958.50346  -1300175.54144  23538501.5234                   23538507.2194
        39.7504         25.0004
  -2313123.59846  -1757003.93745  23899203.2504                   23899211.7544
        39.0004         30.7504
   2048800.96147   1596286.67245  21864304.5864                   21864302.9344
        47.7504         35.5004
    922856.83645    727165.14144  24427464.2894                   24427468.5664
        34.7504         26.5004
   -812452.52748   -606449.48048  20264472.3674                   20264471.4024
        48.5004         48.2504
   1839382.73047   1434929.42646  21241724.4064                   21241723.8284
        47.0004         36.2504
   3152979.98447   2446287.96946  23347958.2344                   23347960.7664
        42.7504         38.2504
 25  8  7 22 16 30.0000000  0 10G03G01G10G04G26G02G25G31G28G32
  -2788468.54347  -2129403.57046  22010124.3444                   22010127.2734
        45.0004         40.7504
    808774.65247    639084.38745  21190923.4384                   21190923.6414
        46.7504         35.5004
   3585271.69546   2782269.51645  24054119.3674                   24054126.8094
        40.5004         32.0004
  -1817800.38746  -1375636.53944  23520073.8594                   23520079.3874
        40.5004         24.5004
  -2428335.40646  -1846779.12545  23877278.8134                   23877287.5554
        38.0004         31.7504
   2072509.59047   1614760.86745  21868816.1254                   21868814.5314
        47.7504         35.5004
    917319.08245    722850.00444  24426410.0864                   24426414.6024
        35.0004         25.2504
   -860628.45748   -643989.13348  20255304.7734                   20255303.5044
        49.5004         48.2504
   1858981.84847   1450201.45746  21245453.7194                   21245453.5204
        47.5004         36.2504
   3197456.25847   2480944.77346  23356421.9144                   23356424.3054
        43.0004         37.5004
 25  8  7 22 17  0.0000000  0 10G03G01G10G04G26G02G25G31G28G32
  -2894385.58247  -2211936.24246  21989969.0554                   21989971.7384
        45.2504         41.0004
    772433.95747    610766.96945  21184008.0084                   21184008.4844
        47.0004         35.0004
   3644336.75847   2828294.00445  24065360.0004                   24065366.2734
        42.0004         32.5004
  -1914429.25846  -1450931.56644  23501685.5784                   23501690.6644
        40.0004         26.0004
  -2543395.58046  -1936436.12845  23855383.3204                   23855392.4574
        38.2504         31.2504
   2096723.18447   1633628.54345  21873423.9384                   21873422.3554
        47.5004         35.5004
    912404.50045    719020.45344  24425474.6954                   24425479.2584
        34.2504         25.5004
   -908108.16048   -680986.26648  20246270.0234                   20246268.3164
        48.7504         48.0004
   1879153.71147   1465919.78546  21249292.3284                   21249292.1054
        47.7504         36.0004
   3242040.50447   2515685.71146  23364905.7274                   23364907.8914
        43.0004         37.5004
 25  8  7 22 17 30.0000000  0 10G03G01G10G04G26G02G25G31G28G32
  -3000087.71547  -2294301.45746  21969853.9454                   21969857.0664
        45.2504         41.0004
    736753.74648    582964.20345  21177217.9844                   21177218.8634
        48.0004         35.5004
   3703697.01246   2874548.60245  24076655.7194                   24076661.7894
        41.2504         30.2504
  -2010848.16046  -1526062.99244  23483337.8984                   23483342.5664
        39.7504         25.0004
  -2658303.93446  -2025974.84445  23833517.6954                   23833525.5084
        38.7504         31.5004
   2121437.05548   1652886.05945  21878127.0704                   21878125.3594
        48.0004         35.5004
    908109.90645    715674.03144  24424657.6254                   24424662.2384
        33.7504         25.7504
   -954894.25048   -717442.92248  20237366.9384                   20237365.7234
        49.5004         48.2504
   1899893.25847   1482080.47746  21253238.9454                   21253238.6054
        47.7504         36.0004
   3286729.17247   2550508.00846  23373410.1564                   23373412.5744
        43.2504         37.7504
 25  8  7 22 18  0.0000000  0 10G03G01G10G04G26G02G25G31G28G32
  -3105577.28947  -2376501.04346  21949780.2664                   21949782.7584
        45.2504         40.5004
    701730.12547    555673.07046  21170553.2974                   21170553.9734
        46.5004         36.0004
   3763347.62946   2921029.39545  24088006.5784                   24088014.7464
        39.5004         32.5004
  -2107061.31646  -1601034.07044  23465028.5314                   23465033.5274
        39.0004         24.5004
  -2773061.59046  -2115396.14145  23811679.7504                   23811687.3914
        39.0004         30.5004
   2146645.00848   1672528.56346  21882923.5704                   21882922.0164
        48.0004         36.2504
    904430.87945    712807.25444  24423958.0164                   24423961.9534
        33.5004         25.5004
  -1000990.57848   -753362.10248  20228594.8134                   20228594.0044
        49.5004         48.2504
   1921194.32047   1498678.71146  21257292.6024                   21257291.7704
        47.0004         36.2504
   3331517.57047   2585408.02346  23381932.9144                   23381935.5664
        44.2504         38.0004
 25  8  7 22 18 30.0000000  0 10G03G01G10G04G26G02G25G31G28G32
  -3210852.55547  -2458533.63746  21929746.9224                   21929749.8754
        46.0004         40.7504
    667363.40647    528893.80945  21164013.5944                   21164013.7074
        46.5004         35.5004
   3823287.75846   2967735.70345  24099414.3364                   24099420.5394
        41.5004         34.7504
  -2203068.87146  -1675844.96944  23446759.0084                   23446763.8404
        39.2504         26.0004
  -2887665.58246  -2204697.71545  23789870.9534                   23789879.1414
        39.5004         32.2504
   2172344.92248   1692554.40645  21887814.7114                   21887812.9924
        48.0004         35.5004
    901367.09845    710419.87143  24423374.8754                   24423379.0434
        34.5004         23.5004
  -1046396.85548   -788743.57448  20219954.0864                   20219953.0434
        49.7504         48.0004
   1943054.82448   1515712.86746  21261452.5004                   21261451.6724
        48.0004         36.0004
   3376405.14147   2620385.30946  23390475.0634                   23390477.2344
        44.5004         37.0004
 25  8  7 22 19  0.0000000  0 10G03G01G10G04G26G02G25G31G28G32
  -3315915.72747  -2540400.95746  21909753.9144                   21909756.5984
        45.7504         41.0004
    633649.86347    502623.51245  21157598.2034                   21157598.7154
        47.0004         35.2504
   3883512.51246   3014663.88344  24110874.1254                   24110880.0554
        39.0004         29.2504
  -2298874.89146  -1750498.80144  23428527.6414                   23428532.0044
        39.2504         25.7504
  -3002116.69546  -2293880.17245  23768091.2584                   23768099.1024
        38.5004         31.2504
   2198530.52747   1712958.71945  21892796.8754                   21892796.1254
        47.5004         35.5004
    898914.30945    708508.61744  24422907.8364                   24422912.3284
        33.0004         24.7504
  -1091116.97348   -823590.38348  20211444.1414                   20211443.0474
        49.7504         48.5004
   1965468.59448   1533178.14545  21265718.0234                   21265717.2344
        48.0004         35.7504
   3421387.29747   2655436.30946  23399034.1484                   23399037.2734
        44.2504         37.2504
 25  8  7 22 19 30.0000000  0 10G03G01G10G04G26G02G25G31G28G32
  -3420764.31247  -2622101.07446  21889801.7814                   21889804.6414
        44.2504         40.7504
    600590.35947    476862.85545  21151307.1334                   21151307.0704
        47.5004         35.5004
   3944021.82446   3061813.83245  24122388.6724                   24122395.5084
        40.0004         32.0004
  -2394478.88346  -1824995.24244  23410334.1564                   23410339.0944
        38.7504         25.2504
  -3116411.28946  -2382940.64845  23746341.3444                   23746350.2424
        38.2504         31.7504
   2225201.07047   1733740.90645  21897872.8674                   21897871.1454
        45.7504         35.7504
    897072.85945    707073.75044  24422558.1334                   24422561.9144
        33.5004         24.2504
  -1135149.99248   -857901.78948  20203065.3204                   20203063.7974
        48.7504         48.2504
   1988434.18047   1551073.39846  21270087.5554                   21270087.1884
        46.5004         36.2504
   3466464.14847   2690561.08646  23407612.6884                   23407614.6684
        43.7504         37.5004
 25  8  7 22 20  0.0000000  0 10G03G01G10G04G26G02G25G31G28G32
  -3525396.97347  -2703632.92646  21869890.5164                   21869893.4494
        45.5004         40.7504
    568184.68047    451611.67245  21145140.5944                   21145140.8674
        47.0004         35.5004
   4004814.34446   3109184.36745  24133957.3594                   24133964.4614
        40.7504         33.2504
  -2489881.43046  -1899334.69944  23392180.2034                   23392184.3364
        39.0004         24.5004
  -3230546.78546  -2471877.14145  23724622.2814                   23724630.4264
        38.2504         31.7504
   2252353.98047   1754898.96145  21903039.2664                   21903037.9264
        47.2504         35.2504
    895841.85945    706114.50444  24422323.6024                   24422327.4264
        32.7504         25.2504
  -1178496.14148   -891677.96948  20194816.5704                   20194815.9574
        48.7504         48.2504
   2011949.02048   1569396.64545  21274562.3054                   21274561.9924
        48.0004         35.7504
   3511634.72747   2725758.89146  23416207.3754                   23416210.4534
        43.0004         37.2504
 25  8  7 22 20 30.0000000  0 10G03G01G10G04G26G02G25G31G28G32
  -3629812.96547  -2784995.94946  21850021.5164                   21850024.0044
        44.2504         41.2504
    536431.91047    426869.24645  21139098.0864                   21139098.3134
        47.5004         35.0004
   4065888.14146   3156774.12145  24145579.7734                   24145586.1054
        40.5004         32.2504
  -2585083.65646  -1973518.07044  23374063.3444                   23374067.8014
        39.7504         24.2504
  -3344521.03146  -2560688.00045  23702933.1174                   23702941.1334
        40.0004         32.5004
   2279986.07847   1776430.40645  21908297.7814                   21908296.5204
        47.0004         34.5004
    895219.88745    705629.87944  24422205.2114                   24422208.9694
        33.5004         25.0004
  -1221156.34048   -924919.64548  20186698.4454                   20186697.2234
        49.5004         48.5004
   2036009.92248   1588145.39846  21279141.5084                   21279140.9774
        48.5004         36.2504
   3556897.43847   2761028.50046  23424821.2734                   23424823.8164
        42.5004         37.0004
 25  8  7 22 21  0.0000000  0 10G03G01G10G04G26G02G25G31G28G32
  -3734012.71547  -2866190.46946  21830192.8914                   21830195.2234
        44.5004         41.0004
    505330.00047    402633.98045  21133180.0474                   21133180.1414
        46.7504         35.7504
   4127240.16046   3204580.65244  24157254.3364                   24157260.7384
        37.5004         29.2504
  -2680087.94546  -2047547.21144  23355983.7734                   23355988.9494
        40.0004         25.2504
  -3458333.23046  -2649372.62945  23681275.5634                   23681283.1644
        39.5004         32.5004
   2308093.04347   1798331.87145  21913646.1804                   21913645.1254
        45.5004         35.0004
    895204.27345    705617.71544  24422202.0164                   24422206.1214
        33.0004         25.5004
  -1263132.88348   -957628.60948  20178710.8984                   20178709.3594
        49.5004         48.5004
   2060612.41847   1607316.16845  21283822.8524                   21283822.5314
        46.7504         35.7504
   3602249.46147   2796367.69146  23433451.4924                   23433454.2544
        43.5004         37.0004
 25  8  7 22 21 30.0000000  0 10G03G01G10G04G26G02G25G31G28G32
  -3837994.73847  -2947215.34046  21810405.0554                   21810408.1374
        45.0004         41.0004
    474878.68447    378905.68045  21127384.8444                   21127385.3094
        47.0004         34.5004
   4188869.15246   3252603.03145  24168982.4844                   24168989.6454
        39.2504         31.5004
  -2774894.85546  -2121422.55944  23337942.7274                   23337947.3914
        40.0004         25.0004
  -3571980.80946  -2737928.94145  23659648.2664                   23659656.2464
        38.2504         30.0004
   2336672.48047   1820601.50845  21919085.2194                   21919083.6374
        45.5004         35.0004
    895794.24245    706077.43044  24422314.0704                   24422318.7114
        33.0004         24.0004
  -1304425.92248   -989804.96948  20170852.5784                   20170851.4964
        49.7504         48.5004
   2085754.00847   1626907.01246  21288607.0164                   21288606.8634
        46.0004         36.5004
   3647689.90647   2831775.78946  23442098.6094                   23442101.3634
        43.0004         37.0004
 25  8  7 22 22  0.0000000  0 10G03G01G10G04G26G02G25G31G28G32
  -3941761.47747  -3028072.44946  21790659.4064                   21790661.8554
        44.7504         41.0004
    445073.81648    355681.10245  21121713.7034                   21121713.4614
        48.0004         35.7504
   4250769.93846   3300837.21545  24180762.0784                   24180768.8284
        39.7504         32.5004
  -2869508.72746  -2195147.48844  23319938.5314                   23319943.1374
        40.7504         24.5004
  -3685464.78146  -2826357.78945  23638053.3984                   23638061.1054
        38.7504         32.5004
   2365717.94547   1843234.27745  21924612.2034                   21924610.5474
        47.5004         35.5004
    896985.08645    707005.36743  24422540.4224                   24422544.9494
        33.5004         23.7504
  -1345039.36348  -1021451.78148  20163124.1484                   20163123.0594
        50.0004         48.2504
   2111428.28948   1646912.93845  21293492.5704                   21293492.1374
        48.5004         35.5004
   3693214.00447   2867249.05946  23450761.4694                   23450764.0904
        42.7504         36.5004
 25  8  7 22 22 30.0000000  0 10G03G01G10G04G26G02G25G31G28G32
  -4045309.40647  -3108759.06646  21770954.6024                   21770957.5234
        45.5004         41.2504
    415917.20347    332961.65645  21116165.0314                   21116165.3404
        47.7504         35.7504
   4312943.44546   3349283.84045  24192593.9614                   24192601.0204
        39.5004         32.7504
  -2963927.95746  -2268720.74644  23301970.5004                   23301975.7034
        40.0004         25.0004
  -3798780.37946  -2914655.44145  23616490.1644                   23616497.3554
        39.0004         33.0004
   2395229.22747   1866230.02745  21930227.7194                   21930226.2464
        46.5004         35.2504
    898778.04745    708402.47344  24422882.4224                   24422886.2344
        32.5004         26.0004
  -1384971.85248  -1052567.97348  20155525.5004                   20155523.8714
        50.0004         48.5004
   2137634.73047   1667333.53146  21298479.9144                   21298479.3244
        47.0004         36.2504
   3738822.99647   2902788.48046  23459440.6254                   23459443.6134
        44.0004         36.5004
 25  8  7 22 23  0.0000000  0 10G03G01G10G04G26G02G25G31G28G32
  -4148637.18747  -3189274.14146  21751291.6804                   21751294.5944
        46.0004         41.5004
    387408.30947    310746.92245  21110739.8984                   21110740.4144
        47.5004         35.5004
   4375388.11346   3397941.78944  24204476.4144                   24204483.1994
        38.5004         29.5004
  -3058153.29746  -2342142.92644  23284039.8594                   23284044.7704
        40.7504         25.0004
  -3911925.13746  -3002819.93045  23594959.4614                   23594967.0084
        38.0004         32.7504
   2425203.53947   1889586.56645  21935931.9304                   21935930.9734
        46.2504         35.2504
    901171.98845    710267.87144  24423337.9144                   24423341.7464
        32.7504         26.0004
  -1424223.82048  -1083153.89548  20148055.7734                   20148054.8014
        51.0004         48.5004
   2164370.48447   1688166.57845  21303567.6724                   21303566.5124
        46.0004         35.7504
   3784515.74647   2938393.16846  23468136.0864                   23468138.5904
        44.0004         36.0004
 25  8  7 22 23 30.0000000  0 10G03G01G10G04G26G02G25G31G28G32
  -4251744.41047  -3269617.34846  21731670.7974                   21731673.6524
        46.0004         41.5004
    359545.75047    289035.83246  21105438.0004                   21105438.5204
        47.0004         36.0004
   4438101.69146   3446809.33645  24216410.4844                   24216417.3674
        39.5004         30.0004
  -3152186.25446  -2415415.21144  23266146.0864                   23266151.1334
        40.7504         24.7504
  -4024897.20746  -3090849.90245  23573461.0554                   23573468.5554
        38.7504         32.2504
   2455637.37547   1913301.18845  21941723.0234                   21941721.9964
        46.5004         34.2504
    904164.90645    712600.00844  24423906.6484                   24423911.5784
        33.0004         25.7504
  -1462796.73048  -1113210.68048  20140715.8914                   20140714.7774
        50.2504         48.5004
   2191632.03947   1709409.34445  21308754.8364                   21308754.1954
        47.7504         35.5004
   3830290.42247   2974061.68446  23476846.6174                   23476849.2034
        43.5004         36.0004
 25  8  7 22 24  0.0000000  0 10G03G01G10G04G26G02G25G31G28G32
  -4354630.28547  -3349788.07046  21712092.8054                   21712095.4184
        46.0004         41.0004
    332328.47748    267827.56645  21100258.7814                   21100258.7274
        48.0004         35.5004
   4501082.12146   3495884.79345  24228395.4924                   24228402.7584
        39.0004         30.7504
  -3246028.09846  -2488538.57844  23248288.6174                   23248293.0784
        40.0004         25.7504
  -4137694.68446  -3178743.84845  23551995.7344                   23552003.8014
        38.7504         32.2504
   2486527.44147   1937371.30945  21947601.7194                   21947600.2274
        46.2504         35.0004
    907755.27345    715397.69144  24424590.2584                   24424594.8594
        33.0004         25.0004
  -1500691.79748  -1142739.27348  20133504.5784                   20133503.1724
        49.7504         48.5004
   2219416.00447   1731059.17645  21314042.1724                   21314041.6684
        47.2504         35.5004
   3876145.44147   3009792.81345  23485572.2814                   23485575.0744
        43.7504         35.7504
 25  8  7 22 24 30.0000000  0 10G03G01G10G04G26G02G25G31G28G32
  -4457292.72347  -3429784.69546  21692556.3524                   21692559.1684
        45.7504         41.0004
    305756.60247    247122.20345  21095202.7194                   21095202.4454
        46.5004         35.7504
   4564328.80146   3545167.68045  24240431.0164                   24240438.4964
        38.0004         31.0004
  -3339678.72346  -2561512.93044  23230467.1484                   23230471.8674
        39.5004         24.0004
  -4250314.36346  -3266499.19545  23530564.6954                   23530573.0744
        37.2504         32.2504
   2517872.05547   1961795.62145  21953566.4534                   21953564.8634
        45.5004         34.7504
    911942.75445    718660.67644  24425386.3594                   24425391.1054
        32.7504         25.2504
  -1537908.81648  -1171739.52348  20126422.4454                   20126421.1094
        49.5004         48.7504
   2247720.32847   1753114.48845  21319428.1724                   21319427.8054
        47.2504         35.5004
   3922080.47747   3045586.29746  23494313.5634                   23494316.0044
        43.7504         37.2504
 25  8  7 22 25  0.0000000  0 10G03G01G10G04G26G02G25G31G28G32
  -4559731.88347  -3509607.33246  21673062.6954                   21673065.4844
        46.5004         41.7504
    279828.13747    226918.19946  21090268.4454                   21090268.5514
        46.2504         36.2504
   4627838.66446   3594655.63744  24252517.1484                   24252524.2504
        37.2504         29.7504
  -3433140.32046  -2634339.98044  23212681.6804                   23212686.6954
        40.0004         26.2504
  -4362754.98846  -3354115.03945  23509168.1024                   23509175.8484
        38.5004         33.5004
   2549667.00847   1986570.85545  21959616.8444                   21959615.2734
        46.2504         35.2504
    916724.57845    722386.75444  24426298.3754                   24426301.2234
        33.0004         24.5004
  -1574449.80548  -1200213.00448  20119468.6884                   20119467.5434
        50.0004         48.5004
   2276540.73048   1775571.94545  21324912.6804                   21324912.1484
        48.0004         35.7504
   3968093.02047   3081440.18045  23503069.6644                   23503072.2774
        44.0004         35.7504
 25  8  7 22 25 30.0000000  0 10G03G01G10G04G26G02G25G31G28G32
  -4661946.33647  -3589254.87947  21653611.9304                   21653614.6564
        45.7504         42.0004
    254542.42647    207215.03546  21085456.5704                   21085456.8094
        47.0004         36.0004
   4691610.30546   3644347.63345  24264652.0394                   24264659.5434
        39.0004         30.5004
  -3526413.49646  -2707020.22344  23194932.5394                   23194936.9184
        40.7504         25.0004
  -4475014.02046  -3441589.39545  23487806.0314                   23487813.8014
        37.7504         32.0004
   2581909.69947   2011694.96145  21965752.3834                   21965750.8014
        46.0004         34.7504
    922099.76255    726575.20754  24427320.7584                   24427324.3404
        34.0004         26.0004
  -1610315.69548  -1228160.42648  20112643.6644                   20112642.2464
        50.5004         48.5004
   2305874.49247   1798429.41046  21330494.7504                   21330494.0634
        47.2504         36.5004
   4014182.10547   3117353.69545  23511839.9694                   23511842.7894
        43.2504         35.5004
 25  8  7 22 26  0.0000000  0 10G03G01G10G04G26G02G25G31G28G32
  -4763934.38747  -3668726.01646  21634203.9224                   21634206.5784
        45.7504         41.5004
