     2.11           OBSERVATION DATA    G (GPS)             RINEX VERSION / TYPE
teqc  2019Feb25                         20250821 04:04:47UTCPGM / RUN BY / DATE
Linux 2.6.32-573.12.1.x86_64|x86_64|gcc -static|Linux 64|=+ COMMENT
BIT 2 OF LLI FLAGS DATA COLLECTED UNDER A/S CONDITION       COMMENT
35183570                                                    MARKER NAME
3570                                                        MARKER NUMBER
-Unknown-           -Unknown-                               OBSERVER / AGENCY
0220413518          TRIMBLE R7          2.32                REC # / TYPE / VERS
-Unknown-           TRM39105.00     NONE                    ANT # / TYPE
 -2371482.9030 -4596804.4265  3720999.3375                  APPROX POSITION XYZ
        0.0000        0.0000        0.0000                  ANTENNA: DELTA H/E/N
     1     1                                                WAVELENGTH FACT L1/2
     7    L1    L2    C1    P1    P2    S1    S2            # / TYPES OF OBSERV
    18                                                      LEAP SECONDS
 SNR is mapped to RINEX snr flag value [0-9]                COMMENT
  L1 & L2: min(max(int(snr_dBHz/6), 0), 9)                  COMMENT
  2025     8     8     0     0   30.0000000     GPS         TIME OF FIRST OBS
                                                            END OF HEADER
 25  8  8  0  0 30.0000000  0 10G03G01G16G09G04G26G02G06G31G28
 -19508910.56258 -15158312.33258  20027493.8754                   20027495.2774
        48.0004         50.2504
   3787938.70357   2960499.87154  22957017.5394                   22957020.6024
        42.0004         28.5004
 -18565111.13757 -12998176.15654  22370728.5864                   22370728.5204
        43.7504         28.0004
  -8400051.98456  -6522269.76255  23847495.7664                   23847500.6764
        41.0004         34.2504
 -19916569.73857 -15478554.66055  21275147.2584                   21275147.6884
        47.0004         35.0004
 -20933550.17657 -16266402.46957  21555004.8134                   21555007.2664
        44.5004         42.0004
  11944084.52055   9306853.16453  24946516.9844                   24946525.6844
        35.0004         19.0004
  -3098254.35955  -2395104.42654  25093144.1564                   25093149.0664
        35.7504         24.5004
    481379.17657    401731.25457  21709850.1094                   21709848.7814
        46.0004         42.0004
  12401176.83656   9664890.66853  24450742.6334                   24450744.1134
        41.2504         22.5004
 25  8  8  0  1  0.0000000  0 10G03G01G16G09G04G26G02G06G31G28
 -19534957.84848 -15178608.92248  20022537.2894                   20022538.2704
        50.0004         50.5004
   3853068.85947   3011250.47744  22969411.5234                   22969414.8244
        42.5004         28.5004
 -18675703.31647 -13084351.75444  22349683.0634                   22349683.9454
        43.0004         27.2504
  -8499116.49246  -6599462.71945  23828644.3914                   23828649.1844
        41.2504         34.5004
 -19980415.99647 -15528304.95745  21262997.5634                   21262998.0704
        47.5004         35.0004
 -20963151.25047 -16289468.20347  21549372.2734                   21549374.3794
        46.7504         42.2504
  12009530.88745   9357849.87943  24958972.1414                   24958980.1994
        35.2504         19.0004
  -3170938.97345  -2451741.77344  25079311.5864                   25079317.0634
        35.2504         25.5004
    542581.30547    449421.19547  21721496.4144                   21721495.1414
        46.5004         42.0004
  12479106.51646   9725615.00443  24465571.9384                   24465573.3554
        41.0004         21.2504
 25  8  8  0  1 30.0000000  0 10G03G01G16G09G04G26G02G06G31G28
 -19560451.56648 -15198474.15648  20017686.2424                   20017687.0044
        49.7504         50.5004
   3918411.12147   3062166.37944  22981845.9454                   22981849.0124
        42.7504         27.5004
 -18785978.52347 -13170280.37544  22328698.4384                   22328699.0474
        43.0004         27.7504
  -8598161.64146  -6676640.61345  23809797.3594                   23809801.5634
        41.5004         34.5004
 -20044116.45747 -15577941.63745  21250875.9694                   21250876.4734
        47.2504         35.0004
 -20992139.19547 -16312056.18447  21543855.6174                   21543858.0004
        46.5004         42.2504
  12074878.62546   9408769.80543  24971407.2114                   24971415.8984
        36.5004         20.2504
  -3243151.27045  -2508011.07844  25065571.1644                   25065575.6334
        35.7504         27.0004
    604053.53547    497321.60546  21733194.1884                   21733192.9804
        45.7504         41.7504
  12557061.80146   9786359.30543  24480406.6094                   24480408.0084
        41.2504         21.5004
 25  8  8  0  2  0.0000000  0 10G03G01G16G09G04G26G02G06G31G28
 -19585391.52748 -15217907.89148  20012940.4144                   20012941.1914
        48.5004         50.5004
   3983961.52747   3113244.48044  22994319.3674                   22994322.6564
        42.7504         28.2504
 -18895934.69947 -13255960.37544  22307774.5864                   22307774.0234
        43.2504         28.0004
  -8697187.91846  -6753803.80945  23790952.3674                   23790956.7074
        41.2504         35.0004
 -20107671.55547 -15627465.05545  21238781.6884                   21238782.2584
        47.7504         34.7504
 -21020514.11347 -16334166.47747  21538456.0474                   21538458.7344
        45.7504         42.2504
  12140124.41046   9459610.25042  24983822.8524                   24983832.3364
        36.0004         17.7504
  -3314890.43746  -2563911.68744  25051919.2584                   25051924.1134
        36.2504         27.2504
    665792.95347    545430.21146  21744942.9384                   21744941.3134
        46.5004         41.5004
  12635040.15246   9847121.60943  24495245.7114                   24495246.9574
        41.0004         21.5004
 25  8  8  0  2 30.0000000  0 10G03G01G16G09G04G26G02G06G31G28
 -19609774.27748 -15236907.43448  20008300.5004                   20008301.4144
        49.0004         50.5004
   4049719.36346   3164484.19144  23006832.5634                   23006836.4144
        41.7504         28.0004
 -19005565.59847 -13341386.93744  22286912.3984                   22286912.4344
        43.0004         27.2504
  -8796192.62146  -6830950.18745  23772112.4144                   23772116.9184
        41.2504         35.0004
 -20171078.42647 -15676872.96145  21226715.9384                   21226716.1094
        47.7504         35.0004
 -21048272.91447 -16355796.67647  21533174.1954                   21533176.4264
        47.0004         42.2504
  12205268.47345   9510371.45743  24996219.8524                   24996229.4304
        35.5004         20.0004
  -3386152.50446  -2619440.56244  25038358.6334                   25038363.8484
        36.2504         26.0004
    727798.85947    593746.48046  21756742.2584                   21756740.8094
        45.7504         41.7504
  12713042.33646   9907902.46143  24510088.8754                   24510089.9454
        40.7504         21.2504
 25  8  8  0  3  0.0000000  0 10G03G01G16G09G04G26G02G06G31G28
 -19633600.05948 -15255472.97348  20003766.6174                   20003767.6954
        50.5004         50.5004
   4115680.53947   3215882.32444  23019385.6024                   23019388.5164
        42.2504         28.0004
 -19114868.93747 -13426558.25044  22266112.4144                   22266112.7194
        43.0004         27.7504
  -8895176.59446  -6908080.43045  23753276.7424                   23753280.8554
        41.0004         35.0004
 -20234337.77747 -15726165.93045  21214678.0474                   21214678.2734
        47.7504         35.5004
 -21075416.10247 -16376947.17647  21528008.8984                   21528011.0314
        45.0004         42.2504
  12270307.25845   9561050.66442  25008596.8754                   25008605.6644
        35.2504         16.7504
  -3456937.18745  -2674597.43044  25024888.9454                   25024893.8244
        35.7504         26.0004
    790067.93847    642267.80946  21768591.6804                   21768590.2624
        46.5004         41.5004
  12791065.49646   9968699.64543  24524936.6644                   24524937.3794
        40.5004         20.0004
 25  8  8  0  3 30.0000000  0 10G03G01G16G09G04G26G02G06G31G28
 -19656860.92648 -15273598.32048  19999340.0784                   19999341.3524
        49.7504         50.5004
   4181848.87547   3267441.90644  23031977.4454                   23031979.9964
        42.0004         27.7504
 -19223834.18047 -13511466.10544  22245377.0784                   22245377.8404
        43.0004         28.5004
  -8994132.64146  -6985188.90245  23734445.5164                   23734449.9614
        41.7504         34.7504
 -20297442.22347 -15775338.18745  21202669.6484                   21202669.7544
        47.5004         35.7504
 -21101936.11347 -16397612.09047  21522962.1804                   21522964.3754
        45.7504         42.2504
  12335245.10946   9611651.19143  25020954.4454                   25020963.6294
        37.2504         20.2504
  -3527235.83246  -2729375.58244  25011511.1334                   25011515.9304
        36.0004         25.2504
    852604.85247    690997.85246  21780492.0784                   21780490.5394
        47.0004         41.5004
  12869114.96546  10029517.34843  24539788.9454                   24539789.6524
        39.5004         21.5004
 25  8  8  0  4  0.0000000  0 10G03G01G16G09G04G26G02G06G31G28
 -19679557.01248 -15291283.57048  19995021.1884                   19995022.1374
        48.2504         50.5004
   4248220.26647   3319159.72344  23044606.7734                   23044609.9414
        42.5004         28.2504
 -19332458.93047 -13596108.64144  22224706.2734                   22224706.5084
        43.2504         28.0004
  -9093061.41846  -7062276.14545  23715620.1414                   23715624.3134
        41.0004         35.2504
 -20360392.33247 -15824390.18745  21190690.9454                   21190690.6914
        47.7504         34.7504
 -21127833.39547 -16417791.76647  21518033.6954                   21518036.2504
        44.5004         42.7504
  12400078.85246   9662170.56642  25033292.6954                   25033301.4964
        37.2504         17.7504
  -3597048.12146  -2783774.74244  24998226.5864                   24998231.5274
        36.0004         25.2504
    915405.69547    739933.54746  21792442.8134                   21792441.3324
        46.7504         41.5004
  12947188.08246  10090353.48843  24554645.6884                   24554646.9614
        41.0004         20.7504
 25  8  8  0  4 30.0000000  0 10G03G01G16G09G04G26G02G06G31G28
 -19701688.17648 -15308528.62948  19990809.7274                   19990811.0864
        48.2504         50.5004
   4314790.91447   3371032.74644  23057276.4924                   23057278.5664
        42.5004         26.7504
 -19440740.55547 -13680483.80544  22204101.1254                   22204100.5164
        42.7504         29.7504
  -9191963.40246  -7139342.49645  23696799.2734                   23696804.0944
        41.5004         34.7504
 -20423188.39147 -15873322.14145  21178740.7034                   21178741.2854
        47.5004         35.2504
 -21153108.08647 -16437486.30147  21513224.3284                   21513226.2114
        46.2504         42.5004
  12464805.40246   9712606.46143  25045609.2734                   25045619.2344
        36.7504         19.7504
  -3666373.40245  -2837794.42244  24985034.7664                   24985039.0864
        35.7504         27.0004
    978467.64147    789072.70746  21804443.2344                   21804441.5704
        45.2504         41.5004
  13025282.39546  10151206.13743  24569506.4694                   24569507.3754
        40.5004         18.5004
 25  8  8  0  5  0.0000000  0 10G03G01G16G09G04G26G02G06G31G28
 -19723252.71548 -15325332.15648  19986706.1804                   19986707.3164
        49.0004         50.5004
   4381558.50847   3423059.30144  23069980.8054                   23069983.8984
        42.0004         27.7504
 -19548674.65647 -13764588.18044  22183562.1024                   22183561.3834
        43.5004         28.5004
  -9290837.43746  -7216387.08645  23677984.6254                   23677989.1254
        41.2504         35.5004
 -20485829.15647 -15922133.10245  21166820.5784                   21166820.6174
        47.7504         35.2504
 -21177758.88347 -16456694.68747  21508533.2114                   21508535.6334
        46.0004         42.5004
  12529423.09846   9762957.49243  25057905.9694                   25057915.8984
        36.2504         19.0004
  -3735209.39546  -2891432.80544  24971935.7814                   24971940.2934
        36.5004         25.5004
   1041788.62147    838413.70747  21816492.7194                   21816491.4804
        46.7504         42.0004
  13103397.11746  10212074.68843  24584371.3444                   24584372.4304
        40.0004         18.5004
 25  8  8  0  5 30.0000000  0 10G03G01G16G09G04G26G02G06G31G28
 -19744251.38748 -15341694.74648  19982710.3364                   19982711.1054
        48.2504         50.5004
   4448518.43446   3475235.68844  23082722.8524                   23082726.1174
        41.5004         28.2504
 -19656259.34847 -13848420.28544  22163089.1094                   22163089.3754
        42.0004         29.0004
  -9389684.85546  -7293410.93446  23659173.7894                   23659178.6054
        41.0004         36.0004
 -20548315.77747 -15970823.93445  21154929.4924                   21154929.7274
        47.5004         35.2504
 -21201786.88747 -16475417.78947  21503961.0314                   21503963.1764
        45.0004         42.5004
  12593927.83246   9813220.57043  25070181.2584                   25070190.9224
        37.5004         20.0004
  -3803556.20346  -2944690.04344  24958929.4534                   24958934.3324
        36.0004         25.5004
   1105364.58647    887953.39546  21828590.2194                   21828589.4734
        46.2504         41.5004
  13181528.96146  10272956.56643  24599239.4924                   24599240.6294
        39.5004         18.2504
 25  8  8  0  6  0.0000000  0 10G03G01G16G09G04G26G02G06G31G28
 -19764682.84048 -15357615.35248  19978822.2814                   19978823.4494
        48.5004         50.5004
   4515668.10946   3527559.94144  23095501.0944                   23095504.4774
        41.5004         27.7504
 -19763490.61347 -13931977.02044  22142683.2274                   22142683.2194
        42.5004         28.5004
  -9488504.71546  -7370413.30946  23640369.0704                   23640373.6454
        41.0004         36.2504
 -20610647.21548 -16019393.85545  21143068.4064                   21143068.7034
        48.0004         35.2504
 -21225191.04347 -16493654.77047  21499507.0004                   21499509.6254
        45.0004         42.7504
  12658317.82846   9863394.17643  25082434.3754                   25082444.3914
        36.7504         21.5004
  -3871411.91046  -2997564.61344  24946016.3054                   24946021.9494
        36.0004         25.5004
   1169193.75447    937690.38346  21840736.9694                   21840735.5164
        46.2504         41.5004
  13259676.95346  10333851.07043  24614110.7974                   24614111.9024
        39.7504         19.2504
 25  8  8  0  6 30.0000000  0 10G03G01G16G09G04G26G02G06G31G28
 -19784547.84848 -15373094.57448  19975042.0864                   19975043.1214
        48.5004         50.5004
   4583002.81346   3580028.36344  23108314.5474                   23108317.8324
        41.5004         27.7504
 -19870367.01647 -14015257.21144  22122345.4454                   22122345.6174
        43.7504         29.5004
  -9587298.30146  -7447395.19546  23621568.9694                   23621573.5944
        41.5004         36.0004
 -20672824.62547 -16067843.75045  21131236.3054                   21131236.4264
        47.5004         35.5004
 -21247972.56247 -16511406.58247  21495172.0314                   21495174.5664
        46.2504         42.5004
  12722589.22546   9913475.42443  25094664.9534                   25094675.3244
        38.7504         20.5004
  -3938776.68746  -3050056.59444  24933197.4614                   24933202.5824
        36.0004         27.2504
   1233271.92647    987621.41046  21852930.8524                   21852929.3714
        46.0004         40.7504
  13337837.82446  10394755.56643  24628984.2584                   24628985.6294
        39.2504         19.0004
 25  8  8  0  7  0.0000000  0 10G03G01G16G09G04G26G02G06G31G28
 -19803843.70748 -15388130.30148  19971369.9774                   19971371.1524
        49.5004         50.5004
   4650521.43847   3632640.09044  23121163.2664                   23121166.6174
        42.5004         28.5004
 -19976882.87947 -14098256.48044  22102076.2194                   22102075.7894
        43.7504         29.5004
  -9686063.42646  -7524354.91045  23602774.4384                   23602779.1724
        41.5004         35.7504
 -20734845.62147 -16116171.77045  21119434.2424                   21119434.7154
        47.7504         35.5004
 -21270129.05947 -16528671.36347  21490955.6254                   21490958.3094
        45.5004         42.7504
  12786741.58246   9963463.88143  25106873.1334                   25106883.4184
        38.2504         21.2504
  -4005647.25846  -3102163.50444  24920471.5704                   24920476.9614
        37.2504         26.5004
   1297598.84447   1037746.26246  21865171.4924                   21865170.1994
        46.5004         41.2504
  13416011.89146  10455670.35243  24643859.8754                   24643861.6604
        39.5004         19.2504
 25  8  8  0  7 30.0000000  0 10G03G01G16G09G04G26G02G06G31G28
 -19822572.62548 -15402724.26648  19967806.3524                   19967807.3054
        49.5004         50.2504
   4718217.95347   3685390.43844  23134046.4614                   23134048.6884
        42.2504         28.0004
 -20083037.51647 -14180974.24244  22081875.0474                   22081875.3714
        43.0004         29.2504
  -9784802.70346  -7601294.47346  23583985.4774                   23583989.1024
        41.5004         36.0004
 -20796712.63348 -16164379.79745  21107661.2894                   21107661.9104
        48.5004         35.7504
 -21291663.18047 -16545451.17247  21486857.7344                   21486860.7774
        45.7504         42.5004
  12850769.56346  10013355.43443  25119057.6954                   25119068.3484
        38.7504         20.2504
  -4072025.29746  -3153886.60944  24907840.8134                   24907846.0554
        37.0004         26.0004
   1362168.94547   1088060.60246  21877458.9304                   21877457.8794
        47.0004         41.0004
  13494194.60246  10516591.88743  24658737.9304                   24658739.2814
        39.0004         19.0004
 25  8  8  0  8  0.0000000  0 10G03G01G16G09G04G26G02G06G31G28
 -19840733.19548 -15416875.35548  19964350.1724                   19964351.5354
        48.0004         50.5004
   4786089.88747   3738277.48844  23146961.1334                   23146964.8594
        42.2504         27.7504
 -20188826.94947 -14263407.47745  22061744.3364                   22061743.9494
        43.2504         30.5004
  -9883515.08647  -7678213.08645  23565201.3134                   23565205.3984
        42.2504         35.7504
 -20858424.58248 -16212466.98845  21095917.7424                   21095918.1524
        48.5004         35.5004
 -21312573.80547 -16561745.14147  21482878.5394                   21482881.2034
        44.5004         42.5004
  12914671.39546  10063148.66843  25131218.6414                   25131228.7774
        38.7504         22.0004
  -4137908.84846  -3205224.41044  24895303.7034                   24895308.9024
        36.7504         26.7504
   1426980.00847   1138562.69946  21889792.0864                   21889790.9924
        46.0004         41.2504
  13572385.05546  10577519.43442  24673617.1644                   24673618.7544
        39.2504         17.7504
 25  8  8  0  8 30.0000000  0 10G03G01G16G09G04G26G02G06G31G28
 -19858324.68048 -15430583.00048  19961003.0084                   19961004.3754
        48.0004         50.2504
   4854134.21947   3791298.87144  23159909.5554                   23159913.2624
        42.0004         27.7504
 -20294247.92247 -14345553.56644  22041683.1804                   22041683.6294
        44.0004         29.2504
  -9982200.26646  -7755110.48846  23546421.5864                   23546425.7424
        41.2504         36.5004
 -20919980.91448 -16260432.92245  21084204.2424                   21084204.2464
        48.0004         35.5004
 -21332860.71147 -16577553.10547  21479018.3444                   21479020.6804
        44.5004         42.7504
  12978445.01246  10112842.02043  25143353.8204                   25143364.5664
        38.0004         21.0004
  -4203296.62146  -3256175.89144  24882860.7114                   24882866.0704
        37.2504         26.5004
   1492029.91447   1189250.91046  21902170.5314                   21902169.3714
        47.0004         41.5004
  13650581.69946  10638451.79742  24688497.3204                   24688499.0434
        38.7504         17.7504
 25  8  8  0  9  0.0000000  0 10G03G01G16G09G04G26G02G06G31G28
 -19875347.35548 -15443847.42648  19957763.6884                   19957764.4694
        48.7504         50.2504
   4922346.88346   3844451.39844  23172890.9304                   23172893.6254
        41.5004         27.0004
 -20399297.95347 -14427410.62945  22021692.9224                   22021692.7814
        44.0004         30.0004
 -10080858.80946  -7831987.12545  23527647.1094                   23527651.2624
        41.5004         35.5004
 -20981382.16048 -16308278.01645  21072519.7894                   21072519.8914
        48.2504         35.0004
 -21352524.49647 -16592875.51247  21475276.6414                   21475278.8364
        44.7504         42.7504
  13042087.01246  10162432.82043  25155465.0554                   25155475.6764
        40.0004         22.0004
  -4268188.29346  -3306740.79344  24870512.9844                   24870517.6294
        37.5004         25.5004
   1557315.14547   1240122.48846  21914594.2344                   21914593.0554
        46.0004         41.5004
  13728782.00046  10699387.03142  24703379.0704                   24703380.3874
        38.5004         17.7504
 25  8  8  0  9 30.0000000  0 10G03G01G16G09G04G26G02G06G31G28
 -19891800.12148 -15456667.76248  19954632.4844                   19954633.5554
        48.5004         50.2504
   4990725.21147   3897733.02344  23185902.8594                   23185905.9734
        42.0004         27.0004
 -20503973.20747 -14508975.64544  22001773.5944                   22001773.1484
        43.5004         29.7504
 -10179489.95746  -7908842.43045  23508878.2974                   23508882.3674
        41.2504         35.5004
 -21042627.28948 -16356001.45745  21060865.2424                   21060865.2704
        48.0004         35.5004
 -21371564.45347 -16607711.82847  21471653.4614                   21471655.5944
        44.5004         42.7504
  13105595.39846  10211919.50043  25167550.8444                   25167561.7074
        38.5004         21.2504
  -4332581.94946  -3356917.66044  24858259.4224                   24858263.7154
        37.2504         27.0004
   1622833.80547   1291175.95746  21927061.7344                   21927060.5434
        46.0004         40.7504
  13806984.83246  10760324.23842  24718260.3754                   24718262.1684
        37.5004         17.2504
 25  8  8  0 10  0.0000000  0 10G03G01G16G09G04G26G02G06G31G28
 -19907681.68448 -15469043.00048  19951610.5704                   19951611.6094
        50.0004         50.2504
   5059266.71546   3951141.83644  23198945.2424                   23198949.0204
        41.7504         26.5004
 -20608269.40647 -14590245.29345  21981926.2274                   21981926.5784
        43.7504         30.0004
 -10278092.77346  -7985675.64145  23490114.7664                   23490118.8714
        41.0004         35.5004
 -21103715.20748 -16403602.39545  21049240.8284                   21049240.5634
        48.0004         35.0004
 -21389979.72347 -16622061.37147  21468149.1884                   21468151.4264
        45.5004         43.0004
  13168968.60946  10261300.87943  25179610.4064                   25179621.3164
        38.2504         20.2504
  -4396475.98846  -3406705.19944  24846100.5864                   24846104.7734
        37.5004         25.7504
   1688584.01247   1342409.85546  21939573.8364                   21939572.5274
        46.2504         41.0004
  13885189.26246  10821262.70743  24733141.8594                   24733143.1684
        37.5004         18.2504
 25  8  8  0 10 30.0000000  0 10G03G01G16G09G04G26G02G06G31G28
 -19922991.90248 -15480973.03948  19948696.9844                   19948698.2624
        50.0004         50.2504
   5127967.87947   4004674.99244  23212019.0704                   23212023.2114
        42.0004         27.5004
 -20712183.70347 -14671217.35944  21962152.3984                   21962152.9384
        44.7504         28.7504
 -10376667.27046  -8062486.79345  23471356.3674                   23471360.6024
        41.0004         35.5004
 -21164645.91448 -16451080.82845  21037646.1414                   21037646.0434
        48.2504         35.5004
 -21407770.56247 -16635924.34847  21464763.4694                   21464765.7074
        45.2504         42.7504
  13232203.85246  10310574.72743  25191644.0474                   25191654.9104
        39.0004         21.0004
  -4459869.53546  -3456102.73044  24834035.9614                   24834041.6914
        37.2504         26.7504
   1754562.78947   1393821.85546  21952129.3444                   21952127.9574
        46.7504         40.5004
  13963393.34045  10882200.87542  24748023.7034                   24748024.8284
        35.7504         17.7504
 25  8  8  0 11  0.0000000  0 10G03G01G16G09G04G26G06G07G31G28
 -19937729.91048 -15492457.20348  19945892.2424                   19945893.2194
        49.7504         50.2504
   5196825.92246   4058330.37944  23225122.8834                   23225125.8404
        40.5004         25.5004
 -20815712.71947 -14751889.21145  21942451.4454                   21942451.0354
        44.2504         30.5004
 -10475212.87546  -8139275.42245  23452604.3364                   23452608.2194
        40.5004         35.5004
 -21225418.59847 -16498436.12945  21026080.9224                   21026081.1054
        47.7504         35.5004
 -21424936.57047 -16649300.44147  21461496.7664                   21461499.1644
        46.7504         43.0004
  -4522761.23446  -3505109.22744  24822069.1954                   24822073.4534
        38.0004         26.5004
   -146675.15656    -92027.11754  25252986.9534                   25252996.8324
        38.2504         29.5004
   1820768.14147   1445410.41046  21964727.4144                   21964726.6214
        46.2504         40.7504
  14041595.73445  10943137.80542  24762905.1954                   24762906.1644
        35.7504         17.2504
 25  8  8  0 11 30.0000000  0 10G03G01G16G09G04G26G06G07G31G28
 -19951893.44948 -15503493.71948  19943197.1884                   19943198.4694
        48.7504         50.2504
   5265839.33247   4112106.88744  23238255.6174                   23238259.2894
        42.2504         26.5004
 -20918851.31647 -14832256.84845  21922824.2894                   21922824.7464
        45.0004         30.5004
 -10573727.53946  -8216039.93746  23433857.2664                   23433860.9454
        41.2504         36.5004
 -21286031.03947 -16545666.56245  21014546.6094                   21014547.1024
        47.7504         35.2504
 -21441475.85547 -16662188.18447  21458349.6564                   21458351.4264
        44.7504         43.0004
  -4585148.08646  -3553722.34044  24810196.8284                   24810201.6604
        37.5004         26.7504
   -253238.52346   -175062.99644  25232707.6954                   25232718.2464
        39.0004         29.7504
   1887199.24647   1497174.87546  21977369.3054                   21977368.0274
        46.5004         40.5004
  14119796.61746  11004073.48042  24777786.5784                   24777787.9384
        36.5004         17.2504
 25  8  8  0 12  0.0000000  0 10G03G01G16G09G04G26G06G07G31G28
 -19965476.63748 -15514078.02048  19940612.4924                   19940613.7894
        49.2504         50.0004
   5335010.46147   4166006.21944  23251419.7114                   23251422.2894
        42.2504         24.5004
 -21021590.58247 -14912313.31644  21903273.6414                   21903273.4344
        45.2504         29.2504
 -10672205.51646  -8292775.86745  23415117.3524                   23415120.8054
        40.0004         35.7504
 -21346477.43048 -16592767.60246  21003044.1954                   21003044.2854
        48.2504         36.0004
 -21457383.00847 -16674583.34847  21455322.5864                   21455324.6254
        46.0004         43.2504
  -4647023.63346  -3601937.00844  24798422.4694                   24798426.9454
        37.0004         26.2504
   -359654.00046   -257983.65245  25212457.6644                   25212467.2664
        38.7504         30.0004
   1953858.79347   1549117.34846  21990053.7034                   21990052.8914
        45.2504         39.7504
  14197999.89145  11065011.03942  24792668.1804                   24792669.7814
        35.0004         16.7504
 25  8  8  0 12 30.0000000  0 10G03G01G16G09G04G26G06G07G31G28
 -19978477.49648 -15524208.55948  19938138.5314                   19938139.4614
        49.2504         50.2504
   5404337.63346   4220027.25844  23264610.6644                   23264614.9964
        40.7504         24.5004
 -21123926.11347 -14992055.17645  21883799.5314                   21883799.4804
        45.0004         30.2504
 -10770645.00846  -8369481.79745  23396384.6884                   23396388.2934
        41.0004         35.0004
 -21406755.75448 -16639737.68445  20991573.7734                   20991573.6454
        48.2504         35.7504
 -21472656.48447 -16686484.74247  21452416.0394                   21452418.4494
        45.5004         43.2504
  -4708385.43446  -3649751.35544  24786746.1484                   24786750.6724
        38.2504         24.7504
   -465918.87546   -340786.97345  25192235.6174                   25192245.2704
        39.2504         30.2504
   2020746.31647   1601237.46146  22002782.3444                   22002780.7974
        45.7504         40.0004
  14276205.34045  11125950.34042  24807549.3834                   24807552.2034
        35.0004         17.2504
 25  8  8  0 13  0.0000000  0 10G03G01G16G09G04G26G06G07G31G28
 -19990896.91048 -15533886.02048  19935775.0314                   19935776.1884
        48.7504         50.2504
   5473816.38347   4274166.31344  23277832.9224                   23277836.7894
        42.0004         25.5004
 -21225855.47747 -15071480.53945  21864403.2194                   21864403.4774
        44.5004         30.5004
 -10869046.97746  -8446158.48446  23377659.3754                   23377663.2304
        40.2504         36.2504
 -21466866.86748 -16686577.47745  20980134.6414                   20980134.7544
        48.5004         35.5004
 -21487297.59447 -16697893.37947  21449629.9144                   21449632.4184
        45.0004         43.2504
  -4769233.57046  -3697165.44144  24775166.5474                   24775171.3754
        37.0004         25.5004
   -572033.75046   -423473.38344  25172041.6724                   25172051.6484
        38.0004         28.2504
   2087857.60547   1653531.94546  22015553.0704                   22015551.6644
        46.0004         40.2504
  14354410.25445  11186889.14142  24822431.3364                   24822433.9494
        34.0004         16.2504
 25  8  8  0 13 30.0000000  0 10G03G01G16G09G04G26G06G07G31G28
 -20002737.90648 -15543112.77048  19933522.0004                   19933522.8554
        49.0004         50.2504
   5543440.11346   4328418.36744  23291082.7344                   23291085.3874
        41.5004         24.7504
 -21327379.24247 -15150589.85945  21845083.9304                   21845083.7234
        44.5004         30.5004
 -10967414.62146  -8522808.42646  23358940.5784                   23358943.8164
        39.0004         36.7504
 -21526813.79348 -16733289.32046  20968727.5164                   20968727.7194
        48.5004         36.0004
 -21501309.85547 -16708812.00847  21446963.1804                   21446965.8674
        45.0004         43.5004
  -4829570.62946  -3744181.31244  24763684.4384                   24763689.1134
        37.5004         27.0004
   -678001.43746   -506045.13344  25151878.0004                   25151885.9964
        39.5004         29.7504
   2155186.88347   1705996.27746  22028365.8594                   22028364.7304
        45.0004         40.0004
  14432609.48045  11247823.56642  24837312.5474                   24837314.8404
        34.0004         16.7504
 25  8  8  0 14  0.0000000  0 10G03G01G16G09G04G26G06G07G31G28
 -20014004.98048 -15551892.30148  19931377.5084                   19931378.9304
        50.5004         50.2504
   5613200.79346   4382777.14844  23304357.4384                   23304360.5664
        41.7504         26.5004
 -21428498.92647 -15229384.32045  21825841.6644                   21825841.3594
        45.5004         31.2504
 -11065752.41846  -8599435.10946  23340226.9924                   23340231.1054
        39.5004         36.0004
 -21586600.86348 -16779876.60546  20957350.1094                   20957350.0204
        48.0004         36.2504
 -21514698.17647 -16719244.44947  21444415.7974                   21444417.8404
        46.2504         43.7504
  -4889400.46946  -3790801.92644  24752300.1564                   24752304.4104
        37.0004         26.5004
   -783825.91446   -588505.27744  25131739.0474                   25131747.9534
        38.7504         29.7504
   2222726.60247   1758624.60546  22041217.7584                   22041216.4734
        46.0004         39.7504
  14510796.72345  11308748.65642  24852191.4384                   24852194.0234
        34.2504         16.2504
 25  8  8  0 14 30.0000000  0 10G03G01G16G09G04G26G06G07G31G28
 -20024696.70748 -15560223.51648  19929343.2034                   19929344.0784
        50.0004         50.0004
   5683096.32846   4437240.98444  23317657.4064                   23317661.9494
        41.0004         26.2504
 -21529210.16447 -15307860.49645  21806676.2894                   21806676.1724
        44.0004         30.7504
 -11164059.04746  -8676037.49645  23321519.7034                   23321523.7624
        38.2504         35.5004
 -21646226.53947 -16826338.13346  20946003.5554                   20946003.6684
        47.5004         36.0004
 -21527461.60247 -16729189.96547  21441986.8524                   21441988.9534
        46.0004         43.5004
  -4948720.96146  -3837025.63744  24741011.5234                   24741015.4024
        37.7504         27.2504
   -889505.00046   -670852.07845  25111628.6724                   25111637.6214
        38.5004         30.0004
   2290475.41847   1811415.86746  22054109.8984                   22054109.1484
        46.7504         40.2504
  14588971.44145  11369663.93842  24867067.3054                   24867070.3794
        33.5004         17.2504
 25  8  8  0 15  0.0000000  0 10G03G01G16G09G04G26G06G07G31G28
 -20034812.37548 -15568105.85248  19927417.8914                   19927419.0124
        49.0004         50.2504
   5753123.91847   4491807.70344  23330983.8834                   23330987.9064
        42.0004         25.2504
 -21629509.48047 -15386015.70745  21787590.4774                   21787589.8284
        44.2504         30.5004
 -11262333.75046  -8752615.02346  23302818.5004                   23302822.0004
        39.0004         36.2504
 -21705690.03947 -16872673.28945  20934688.4304                   20934688.4104
        47.5004         35.5004
 -21539599.89547 -16738648.35247  21439676.9614                   21439679.0664
        46.0004         43.5004
  -5007530.86346  -3882851.50844  24729820.4384                   24729824.7704
        37.2504         25.0004
   -995037.84046   -753084.97345  25091545.9844                   25091555.5314
        38.7504         30.2504
   2358431.28947   1864368.45746  22067041.3594                   22067040.5824
        46.0004         40.5004
  14667132.45345  11430568.57042  24881941.2034                   24881944.2774
        33.5004         16.2504
 25  8  8  0 15 30.0000000  0 10G03G01G16G09G04G26G06G07G31G28
 -20044352.64148 -15575539.82448  19925602.6954                   19925603.7854
        49.7504         50.0004
   5823279.48447   4546474.13344  23344334.9694                   23344338.5434
        43.0004         26.0004
 -21729394.55147 -15463848.12545  21768583.1174                   21768582.4574
        44.7504         30.7504
 -11360577.15646  -8829168.15246  23284123.3914                   23284126.8244
        39.5004         36.0004
 -21764991.79347 -16918882.40246  20923403.3674                   20923403.1334
        47.2504         36.0004
 -21551114.16847 -16747620.50447  21437486.0864                   21437487.9734
        46.2504         43.7504
  -5065830.17246  -3928279.51644  24718725.7194                   24718730.1884
        37.5004         24.5004
  -1100424.44146   -835203.92645  25071491.3134                   25071500.2504
        38.5004         30.5004
   2426590.69947   1917479.66046  22080011.6954                   22080010.9184
        46.0004         39.7504
  14745277.29745  11491460.60542  24896812.3364                   24896814.0124
        33.2504         15.5004
 25  8  8  0 16  0.0000000  0 10G03G01G16G09G04G26G06G07G31G28
 -20053317.72348 -15582525.60248  19923896.7894                   19923897.6094
        50.5004         50.0004
   5893559.33646   4601237.44944  23357708.2274                   23357712.2814
        41.5004         26.0004
 -21828862.52747 -15541355.53945  21749654.4064                   21749654.0314
        44.7504         32.0004
 -11458789.46146  -8905697.04746  23265433.9534                   23265438.0704
        39.2504         36.0004
 -21824131.84848 -16964965.52345  20912149.4304                   20912149.5164
        48.0004         35.5004
 -21562005.16447 -16756106.97747  21435413.6174                   21435415.9144
        47.0004         43.5004
  -5123618.56246  -3973309.40244  24707728.9144                   24707733.7544
        36.7504         26.0004
  -1205664.57046   -917208.80544  25051464.0084                   25051473.1954
        38.7504         29.0004
   2494950.71547   1970747.17246  22093020.6644                   22093019.3524
        45.7504         40.0004
  14823403.85945  11552338.38342  24911678.6724                   24911680.7814
        33.0004         16.2504
 25  8  8  0 16 30.0000000  0 10G03G01G16G09G04G26G06G07G31G28
 -20061709.76248 -15589064.85248  19922299.7114                   19922301.3404
        50.7504         50.2504
   5963957.92246   4656093.27044  23371104.6024                   23371109.3954
        41.5004         25.5004
 -21927912.71547 -15618537.39145  21730805.5944                   21730805.7304
        45.5004         32.0004
 -11556972.71146  -8982203.30146  23246750.5234                   23246753.9884
        39.7504         36.0004
 -21883112.05948 -17010924.09046  20900925.6174                   20900925.6214
        48.0004         36.2504
 -21572275.45747 -16764109.78947  21433458.8754                   21433461.1884
        47.5004         43.5004
  -5180897.48046  -4017942.29744  24696829.4304                   24696833.6294
        37.2504         27.0004
  -1310759.48846   -999100.51244  25031465.0554                   25031473.8364
        39.2504         29.2504
   2563506.50447   2024167.23046  22106066.4454                   22106065.2234
        46.5004         39.7504
  14901508.44145  11613199.04342  24926541.2584                   24926543.7584
        33.7504         17.2504
 25  8  8  0 17  0.0000000  0 10G03G01G16G09G04G26G06G07G31G28
 -20069525.85248 -15595155.31648  19920812.3524                   19920813.5984
        49.5004         50.2504
   6034474.81346   4711041.26244  23384524.3524                   23384527.6994
        40.5004         26.5004
 -22026539.49647 -15695389.32845  21712037.5864                   21712037.5044
        44.7504         31.2504
 -11655123.87946  -9058684.56245  23228072.2584                   23228076.1134
        40.2504         35.0004
 -21941929.30947 -17056755.68445  20889733.0864                   20889733.1214
        47.7504         35.5004
 -21581922.59847 -16771627.02047  21431623.3284                   21431625.6524
        45.7504         43.2504
  -5237663.42246  -4062175.47744  24686027.8674                   24686031.4064
        37.5004         26.5004
  -1415706.02346  -1080876.61744  25011494.4844                   25011502.8984
        38.2504         29.7504
   2632258.44547   2077740.14546  22119149.4304                   22119148.2194
        45.0004         40.0004
  14979591.96945  11674043.31342  24941400.6254                   24941402.4964
        34.2504         17.2504
 25  8  8  0 17 30.0000000  0 10G03G01G16G09G04G26G06G07G31G28
 -20076765.95348 -15600796.95348  19919434.8364                   19919435.9964
        50.0004         50.2504
   6105106.57846   4766078.79744  23397964.3134                   23397969.4494
        41.2504         26.0004
 -22124739.46547 -15771908.68445  21693350.6484                   21693350.2154
        44.2504         32.2504
 -11753242.77846  -9135140.68645  23209401.7504                   23209404.8014
        39.7504         35.7504
 -22000583.22748 -17102460.00045  20878571.9064                   20878571.7384
        48.0004         35.5004
 -21590947.14147 -16778659.10947  21429906.3674                   21429908.3094
        45.7504         43.2504
  -5293915.76246  -4106008.44944  24675322.5314                   24675326.7934
        37.7504         25.5004
  -1520503.84446  -1162536.81244  24991551.2584                   24991560.0514
        39.0004         29.0004
   2701203.70347   2131463.68846  22132269.2034                   22132267.9494
        45.2504         40.2504
  15057652.95345  11734869.96542  24956254.2974                   24956257.0514
        34.0004         16.2504
 25  8  8  0 18  0.0000000  0 10G03G01G16G09G04G26G06G07G31G28
 -20083428.73048 -15605988.73448  19918166.8984                   19918168.1414
        50.0004         50.0004
   6175851.30546   4821204.30944  23411427.8914                   23411431.9454
        40.7504         25.5004
 -22222508.41047 -15848092.19145  21674745.5084                   21674745.7544
        44.5004         31.2504
 -11851327.94546  -9211570.53145  23190735.8834                   23190739.4264
        40.0004         35.7504
 -22059072.21947 -17148035.80546  20867441.6724                   20867441.5704
        47.0004         36.2504
 -21599348.15648 -16785205.34447  21428307.2814                   21428309.6564
        48.0004         43.2504
  -5349652.49246  -4149439.64844  24664716.1724                   24664720.5164
        37.2504         27.0004
  -1625150.73846  -1244079.41444  24971637.1254                   24971645.7934
        37.5004         26.7504
   2770340.88747   2185336.77746  22145425.3594                   22145424.7504
        44.5004         40.5004
  15135690.91445  11795678.73842  24971104.2344                   24971107.3444
        35.5004         16.2504
 25  8  8  0 18 30.0000000  0 10G03G01G16G09G04G26G06G07G31G28
 -20089513.14148 -15610729.83248  19917008.9694                   19917010.1604
        50.2504         50.2504
   6246706.75447   4876416.09844  23424911.5004                   23424914.8444
        42.0004         26.2504
 -22319842.66447 -15923936.95745  21656223.6414                   21656223.3404
        45.2504         32.0004
 -11949378.08246  -9287973.07846  23172077.3364                   23172080.8954
        39.0004         37.0004
 -22117394.80148 -17193481.94546  20856343.4774                   20856343.3054
        48.0004         36.0004
 -21607125.14147 -16791265.31247  21426827.4224                   21426829.9654
        47.2504         43.7504
  -5404871.89846  -4192467.73844  24654208.5704                   24654213.1724
        37.5004         27.0004
  -1729644.76246  -1325502.93744  24951752.3284                   24951761.0274
        37.5004         27.7504
   2839668.80547   2239358.49246  22158618.3754                   22158617.5164
        45.5004         39.7504
  15213705.45746  11856469.24642  24985950.4144                   24985953.0044
        36.2504         16.7504
 25  8  8  0 19  0.0000000  0 10G03G01G16G09G04G26G06G07G31G28
 -20095019.85548 -15615020.77748  19915961.1884                   19915962.2114
        50.0004         50.2504
   6317668.85246   4931711.03544  23438414.3754                   23438418.8554
        40.7504         27.0004
 -22416739.56247 -15999440.95345  21637784.6094                   21637784.5944
        44.7504         31.7504
 -12047393.65646  -9364348.69946  23153425.5314                   23153429.0234
        40.5004         37.0004
 -22175551.34448 -17238798.70345  20845276.3834                   20845275.8014
        48.0004         35.2504
 -21614279.25047 -16796839.93047  21425466.2504                   21425468.5824
        47.5004         43.2504
  -5459574.08246  -4235092.78144  24643799.3754                   24643803.1954
        37.5004         28.0004
  -1833986.23446  -1406807.57844  24931896.5314                   24931904.5554
        38.0004         27.5004
   2909183.96947   2293526.11346  22171846.7424                   22171845.6374
        46.0004         40.0004
  15291694.13345  11917239.58242  25000790.7114                   25000793.5084
        35.7504         17.2504
 25  8  8  0 19 30.0000000  0 10G03G01G16G09G04G26G06G07G31G28
 -20099951.29348 -15618863.45748  19915022.8204                   19915023.9384
        50.2504         50.0004
   6388732.02046   4987084.71544  23451937.0864                   23451942.1174
        39.7504         24.7504
 -22513198.59047 -16074603.73445  21619429.5474                   21619428.6174
        45.7504         30.7504
 -12145376.83646  -9440699.08646  23134780.2734                   23134783.4844
        39.7504         36.7504
 -22233543.85547 -17283987.63746  20834240.7584                   20834240.5124
        47.7504         36.0004
 -21620813.46147 -16801931.51247  21424222.7584                   21424224.7774
        47.5004         43.5004
  -5513760.90646  -4277316.25444  24633488.3134                   24633491.8954
        37.2504         27.2504
  -1938177.27746  -1487995.00444  24912069.4304                   24912077.2704
        38.0004         27.5004
   2978881.85547   2347836.11346  22185109.9614                   22185108.7894
        45.0004         39.7504
  15369653.00846  11977986.68842  25015626.2814                   25015628.7304
        36.2504         16.7504
 25  8  8  0 20  0.0000000  0 10G03G01G16G09G04G26G06G07G31G28
 -20104304.44948 -15622255.52748  19914194.1484                   19914195.1254
        50.5004         50.0004
   6459896.00846   5042536.92244  23465480.0554                   23465484.6684
        40.5004         25.5004
 -22609213.68047 -16149420.59445  21601157.8834                   21601157.5664
        44.2504         31.2504
 -12243324.25846  -9517021.62146  23116141.4144                   23116144.5944
        39.2504         37.0004
 -22291368.84447 -17329046.04746  20823237.2274                   20823236.8954
        47.5004         36.2504
 -21626725.25047 -16806538.08647  21423097.6094                   21423099.3324
        47.5004         43.7504
  -5567428.60246  -4319135.23044  24623275.0634                   24623279.0864
        36.7504         25.7504
  -2042213.82846  -1569062.04744  24892271.4694                   24892279.6644
        37.7504         27.2504
   3048762.42647   2402288.46146  22198407.5084                   22198406.4844
        45.5004         39.5004
  15447583.60946  12038711.79342  25030456.2274                   25030458.6604
        37.0004         17.7504
 25  8  8  0 20 30.0000000  0 10G03G01G16G09G04G26G06G07G31G28
 -20108078.69148 -15625196.50048  19913475.9454                   19913477.1804
        50.5004         50.0004
   6531158.24646   5098065.68844  23479040.5394                   23479045.3674
        40.5004         24.5004
 -22704781.32447 -16223888.80945  21582971.8594                   21582971.4304
        45.2504         31.7504
 -12341235.03546  -9593315.60946  23097509.0164                   23097512.5704
        40.2504         37.0004
 -22349025.21148 -17373973.05545  20812265.3984                   20812265.4024
        48.5004         35.5004
 -21632014.48447 -16810659.55947  21422090.7424                   21422093.1954
        47.5004         42.7504
  -5620575.93046  -4360548.69144  24613161.0234                   24613165.6994
        37.5004         26.0004
  -2146094.91846  -1650007.96144  24872503.5784                   24872511.3554
        38.0004         27.0004
   3118823.98047   2456881.83646  22211739.9844                   22211739.1454
        45.2504         39.7504
  15525484.89846  12099414.06642  25045281.0314                   25045283.0124
        36.0004         16.7504
 25  8  8  0 21  0.0000000  0 10G03G01G16G09G04G26G06G07G31G28
 -20111274.40648 -15627686.66448  19912867.9924                   19912869.2664
        50.2504         50.2504
   6602515.16846   5153668.26244  23492619.7034                   23492624.4534
        40.5004         26.0004
 -22799898.89547 -16298006.31645  21564871.7734                   21564870.8164
        44.0004         31.5004
 -12439109.13746  -9669581.01646  23078884.2424                   23078888.1374
        41.7504         36.5004
 -22406512.85947 -17418768.59446  20801325.6954                   20801325.9694
        47.7504         36.0004
 -21636682.09447 -16814296.64147  21421203.0314                   21421205.3594
        47.0004         43.0004
  -5673202.71146  -4401556.54344  24603147.0864                   24603150.8324
        37.5004         27.7504
  -2249819.94546  -1730832.27344  24852765.0784                   24852772.9344
        39.2504         28.0004
   3189063.80147   2511614.11746  22225106.0784                   22225105.1804
        45.7504         39.0004
  15603355.23046  12160092.17242  25060098.8364                   25060101.5664
        36.5004         17.7504
 25  8  8  0 21 30.0000000  0 10G03G01G16G09G04G26G06G07G31G28
 -20113893.48448 -15629727.50448  19912370.0634                   19912371.0004
        50.0004         50.2504
   6673961.72346   5209340.64844  23506215.5164                   23506220.4264
        39.5004         24.5004
 -22894564.93747 -16371771.98045  21546856.9384                   21546856.5434
        45.0004         31.2504
 -12536948.15646  -9745819.09846  23060266.2274                   23060269.6484
        41.2504         37.0004
 -22463833.16047 -17463433.73046  20790418.1024                   20790417.9064
        47.5004         36.5004
 -21640730.48047 -16817451.21547  21420432.6094                   21420434.5824
        46.5004         43.0004
  -5725310.15246  -4442159.71544  24593230.5864                   24593235.7384
        36.2504         28.0004
  -2353390.22946  -1811535.99744  24833055.4924                   24833063.5904
        38.0004         28.5004
   3259477.50047   2566481.89546  22238505.5864                   22238504.6294
        44.2504         39.2504
  15681191.11346  12220743.45742  25074910.4694                   25074912.3164
        36.5004         17.7504
 25  8  8  0 22  0.0000000  0 10G03G01G16G09G04G26G06G07G31G28
 -20115937.01248 -15631319.85948  19911980.8444                   19911981.7114
        50.0004         50.2504
   6745493.69146   5265079.59444  23519827.9384                   23519832.9454
        39.5004         25.7504
 -22988777.59047 -16445184.34445  21528929.2274                   21528928.2344
        45.2504         31.0004
 -12634752.69547  -9822030.30546  23041654.3524                   23041657.3484
        42.5004         37.0004
 -22520986.64147 -17507968.87946  20779542.1484                   20779542.3014
        47.5004         37.0004
 -21644161.28547 -16820124.55947  21419779.2734                   21419781.7234
        47.2504         42.5004
  -5776898.70346  -4482358.55544  24583414.1094                   24583418.7154
        37.7504         27.0004
  -2456806.05146  -1892119.36744  24813375.1954                   24813383.9384
        37.7504         28.2504
   3330061.55947   2621482.41846  22251937.3364                   22251936.3914
        45.0004         39.2504
  15758990.14846  12281366.05143  25089715.3674                   25089717.6174
        37.2504         19.0004
 25  8  8  0 22 30.0000000  0 10G03G01G16G09G04G26G06G07G31G28
 -20117403.22348 -15632462.36748  19911701.6884                   19911702.4064
        49.2504         50.0004
   6817109.77346   5320884.07843  23533455.8914                   23533461.0274
        39.0004         22.7504
 -23082532.04347 -16518239.66445  21511088.2664                   21511087.6604
        45.0004         32.0004
 -12732520.56247  -9898212.94946  23023049.6414                   23023052.7774
        42.2504         37.0004
 -22577970.90647 -17552372.17246  20768698.4694                   20768698.4184
        46.5004         36.0004
 -21646973.22747 -16822315.67247  21419244.2894                   21419246.6214
        47.5004         42.7504
  -5827965.96546  -4522151.18444  24573695.5704                   24573700.6094
        37.7504         28.0004
  -2560065.02746  -1972580.51644  24793725.9694                   24793733.8054
        39.0004         27.7504
   3400815.52047   2676615.32846  22265401.3364                   22265400.4924
        44.2504         39.5004
  15836752.70346  12341960.21542  25104512.5784                   25104514.5634
        37.5004         17.7504
 25  8  8  0 23  0.0000000  0 10G03G01G16G09G04G26G06G07G31G28
 -20118292.09848 -15633154.99648  19911532.8524                   19911533.5314
        49.5004         50.0004
   6888806.92246   5376751.73044  23547099.4144                   23547104.6484
        40.0004         24.5004
 -23175825.30947 -16590935.64145  21493335.2194                   21493334.0274
        44.7504         32.0004
 -12830251.26247  -9974366.64546  23004452.1254                   23004455.3594
        43.0004         37.0004
 -22634785.38747 -17596643.15646  20757886.9534                   20757886.9454
        47.0004         36.0004
 -21649166.90647 -16824025.03147  21418827.2344                   21418828.9264
        47.0004         42.7504
  -5878511.31946  -4561537.12144  24564078.3134                   24564082.1374
        38.0004         27.5004
  -2663166.35246  -2052918.87144  24774107.2194                   24774113.9494
        38.5004         28.0004
   3471737.49647   2731879.16446  22278897.3674                   22278896.3484
        44.5004         39.0004
  15914477.43446  12402524.85942  25119303.0784                   25119306.1454
        37.0004         17.2504
 25  8  8  0 23 30.0000000  0 10G03G01G16G09G04G26G06G07G31G28
 -20118603.59448 -15633397.72748  19911473.3204                   19911474.5354
        49.5004         50.0004
   6960582.07846   5432680.18844  23560758.4304                   23560763.6564
        40.0004         24.7504
 -23268654.09447 -16663269.66845  21475669.9924                   21475669.5474
        45.0004         31.7504
 -12927944.28147 -10050490.97746  22985861.4144                   22985864.8954
        42.5004         37.5004
 -22691429.36747 -17640781.29346  20747107.8754                   20747108.1764
        47.7504         36.2504
 -21650742.77747 -16825252.98447  21418527.2814                   21418529.8444
        46.0004         42.5004
  -5928533.99246  -4600515.79744  24554559.3444                   24554563.4264
        38.7504         28.0004
  -2766109.29346  -2133133.78544  24754517.2974                   24754524.5594
        38.0004         26.7504
   3542824.47347   2787271.55946  22292424.8444                   22292424.0004
        44.5004         39.0004
  15992163.09846  12463059.08642  25134086.4384                   25134088.6174
        38.0004         17.7504
 25  8  8  0 24  0.0000000  0 10G03G01G16G09G04G26G06G07G31G28
 -20118338.13348 -15633190.87548  19911523.7584                   19911524.9414
        48.2504         50.0004
   7032431.94546   5488666.81643  23574431.8444                   23574436.1684
        40.0004         23.7504
 -23361015.89847 -16735239.81645  21458094.2034                   21458093.6564
        45.7504         32.0004
 -13025599.45747 -10126585.83246  22967277.9224                   22967281.5984
        43.0004         37.2504
 -22747902.53547 -17684786.32046  20736361.4384                   20736361.0864
        46.5004         36.2504
 -21651701.77747 -16826000.25047  21418344.7974                   21418346.4384
        44.5004         42.5004
  -5978033.78946  -4639087.03144  24545139.1884                   24545143.6334
        38.2504         27.7504
  -2868893.43746  -2213224.96944  24734957.0704                   24734964.8634
        37.2504         26.2504
   3614074.06647   2842790.66846  22305983.3914                   22305982.3484
        44.5004         39.0004
  16069808.05946  12523561.60943  25148862.2974                   25148864.0044
        37.5004         18.5004
 25  8  8  0 24 30.0000000  0 10G03G01G16G09G04G26G06G07G31G28
 -20117494.30948 -15632533.35248  19911684.5864                   19911685.4064
        49.5004         50.0004
   7104354.79346   5544710.33644  23588117.8834                   23588122.7384
        40.0004         25.0004
 -23452905.72347 -16806842.19145  21440608.2584                   21440607.3754
        45.2504         31.7504
 -13123214.81647 -10202649.65646  22948702.9224                   22948706.1054
        42.5004         37.2504
 -22804202.84047 -17728656.66046  20725647.5084                   20725647.4104
        47.0004         36.0004
 -21652043.05147 -16826266.17247  21418279.9844                   21418281.9654
        46.0004         42.5004
  -6027008.71546  -4677249.26644  24535819.9304                   24535823.8204
        38.2504         28.5004
  -2971516.41846  -2293190.51644  24715428.7664                   24715436.2544
        37.7504         26.0004
   3685485.59447   2898435.96546  22319572.4534                   22319571.3484
        44.5004         38.7504
  16147412.44546  12584032.50843  25163629.5164                   25163631.7774
        37.7504         18.2504
 25  8  8  0 25  0.0000000  0 10G03G01G16G09G04G26G06G07G31G28
 -20116070.57848 -15631423.96148  19911955.2424                   19911956.8404
        48.7504         50.0004
   7176349.29746   5600809.67243  23601817.8674                   23601823.4304
        39.0004         23.2504
 -23544319.34447 -16878073.50445  21423212.5944                   21423212.2074
        45.5004         32.0004
 -13220788.25447 -10278680.82046  22930135.1644                   22930138.0944
        43.2504         37.5004
 -22860327.98447 -17772390.50446  20714967.6644                   20714967.1054
        45.5004         36.2504
