     2.11           OBSERVATION DATA    G (GPS)             RINEX VERSION / TYPE
teqc  2019Feb25     K Rivera            20250820 07:10:46UTCPGM / RUN BY / DATE
Linux 2.6.32-573.12.1.x86_64|x86_64|gcc -static|Linux 64|=+ COMMENT
teqc  2019Feb25                         20250820 07:10:41UTCCOMMENT
BIT 2 OF LLI FLAGS DATA COLLECTED UNDER A/S CONDITION       COMMENT
J701                                                        MARKER NAME
                                                            MARKER NUMBER
Katie Baraggiotta   University of California, Riverside     OBSERVER / AGENCY
0220413516          TRIMBLE R7          2.32                REC # / TYPE / VERS
1441040465          TRM57971.00                             ANT # / TYPE
 -2421225.6053 -4595396.6929  3690372.3820                  APPROX POSITION XYZ
        0.8306        0.0000        0.0000                  ANTENNA: DELTA H/E/N
     1     1                                                WAVELENGTH FACT L1/2
     7    L1    L2    C1    P1    P2    S1    S2            # / TYPES OF OBSERV
    18                                                      LEAP SECONDS
 SNR is mapped to RINEX snr flag value [0-9]                COMMENT
  L1 & L2: min(max(int(snr_dBHz/6), 0), 9)                  COMMENT
  2025     8     8     0     0   30.0000000     GPS         TIME OF FIRST OBS
                                                            END OF HEADER
 25  8  8  0  0 30.0000000  0 10G02G26G09G03G16G04G06G28G31G01
 -40413987.68456 -31443736.47353  24676488.3134                   24676494.1914
        36.0004         20.7504
 -44119624.38757 -34326255.90257  21364610.2424                   21364608.9844
        44.5004         44.0004
 -14303479.39156 -11106880.02355  23597335.8754                   23597337.4734
        41.0004         32.5004
 -59948773.61757 -46671811.64158  19802861.3444                   19802858.9774
        47.0004         51.2504
 -23858848.91057 -20618655.54354  22148499.4304                   22148497.0274
        42.7504         29.7504
 -48718232.22357 -37920031.25456  21048507.4454                   21048504.7814
        46.7504         36.2504
  -5584262.94156  -4272429.47755  24872777.4534                   24872778.5864
        40.2504         31.0004
 -43572583.07457 -33877709.19954  24285867.1724                   24285865.3594
        42.2504         26.0004
 -64863898.78957 -50490120.19557  21531340.4064                   21531336.1564
        46.5004         44.2504
 -56262387.66457 -43794066.65254  22685485.6724                   22685485.2974
        42.2504         28.2504
 25  8  8  0  1  0.0000000  0 10G02G26G09G03G16G04G06G28G31G01
 -38840135.32845 -30217358.41443  24975982.2274                   24975988.2544
        35.5004         20.2504
 -42640224.17247 -33173476.48447  21646130.3204                   21646129.4654
        46.0004         44.0004
 -12893499.01246 -10008193.89545  23865647.0004                   23865647.5784
        41.0004         34.5004
 -58467133.71948 -45517287.03548  20084807.7894                   20084805.7384
        48.0004         51.2504
 -22460432.25447 -19528980.09044  22414609.3054                   22414606.2624
        42.5004         29.5004
 -47272835.75047 -36793748.24246  21323557.3754                   21323554.4884
        47.7504         36.2504
  -4149646.34046  -3154546.37145  25145775.4924                   25145776.7154
        40.2504         31.2504
 -41986188.45347 -32641557.61744  24587748.3134                   24587745.9224
        42.2504         25.5004
 -63293705.07047 -49266592.64147  21830138.1254                   21830133.6604
        46.7504         44.2504
 -54689372.20346 -42568340.44944  22984820.3444                   22984820.0784
        40.7504         26.7504
 25  8  8  0  1 30.0000000  0 10G02G26G09G03G16G04G06G28G31G01
 -38841821.24646 -30218672.50843  24975661.4224                   24975667.4534
        37.5004         21.7504
 -42735659.10547 -33247841.34047  21627969.7344                   21627968.6214
        46.0004         44.2504
 -13058947.43746 -10137114.59446  23834162.4224                   23834163.6994
        41.5004         36.0004
 -58560391.03548 -45589955.07048  20067061.0704                   20067059.3754
        48.5004         51.2504
 -22637147.14147 -19666679.87545  22380981.1484                   22380978.7194
        43.5004         30.0004
 -47402743.43047 -36894974.96146  21298836.6334                   21298833.7624
        47.5004         36.0004
  -4290009.10246  -3263919.91845  25119065.4844                   25119067.0084
        40.5004         31.0004
 -41975215.32846 -32633007.22344  24589836.6094                   24589834.0204
        41.5004         25.5004
 -63298688.93747 -49270476.19947  21829190.0234                   21829185.4574
        47.0004         44.0004
 -54691583.83246 -42570063.95344  22984399.1804                   22984399.5664
        40.0004         27.0004
 25  8  8  0  2  0.0000000  0 10G02G26G09G03G16G04G06G28G31G01
 -38843631.39846 -30220083.40243  24975318.1094                   24975323.1954
        37.7504         21.0004
 -42830508.80547 -33321750.17247  21609920.3914                   21609919.5204
        44.5004         44.0004
 -13224402.50046 -10266040.47346  23802677.3594                   23802678.7624
        41.0004         36.2504
 -58653124.95747 -45662215.25848  20049414.8444                   20049412.6804
        47.0004         51.0004
 -22813568.37147 -19804150.83244  22347409.5704                   22347407.5594
        43.5004         29.7504
 -47532534.16847 -36996110.57045  21274138.5554                   21274135.4574
        47.0004         35.5004
  -4429928.55946  -3372948.03144  25092439.1414                   25092441.3634
        40.7504         29.7504
 -41964249.42246 -32624462.41843  24591923.4064                   24591921.0554
        40.5004         23.0004
 -63303436.04747 -49274175.26647  21828286.1884                   21828281.7304
        46.5004         44.0004
 -54693609.18446 -42571642.31244  22984014.2274                   22984014.3714
        41.5004         26.5004
 25  8  8  0  2 30.0000000  0 10G02G26G09G03G16G04G06G28G31G01
 -38845566.36346 -30221591.52743  24974949.3594                   24974955.4454
        37.0004         21.2504
 -42924771.06247 -33395201.24647  21591982.9224                   21591981.9494
        44.5004         44.2504
 -13389862.39846 -10394970.11346  23771191.9224                   23771192.7424
        40.7504         36.2504
 -58745332.89847 -45734065.58648  20031867.9774                   20031865.7974
        47.0004         51.2504
 -22989690.53547 -19941388.76644  22313894.3204                   22313891.9804
        43.5004         29.5004
 -47662205.98847 -37097153.49646  21249462.3524                   21249459.8674
        47.0004         36.2504
  -4569401.62546  -3481628.32045  25065898.5554                   25065899.9144
        40.2504         30.7504
 -41953290.78546 -32615923.30543  24594008.6334                   24594006.8594
        39.7504         22.2504
 -63307947.85947 -49277690.98447  21827428.1954                   21827423.5864
        46.5004         43.5004
 -54695449.75446 -42573076.68744  22983664.1334                   22983664.2974
        41.0004         28.0004
 25  8  8  0  3  0.0000000  0 10G02G26G09G03G16G04G06G28G31G01
 -38847622.59846 -30223194.19143  24974558.9694                   24974565.0944
        37.7504         20.0004
 -43018439.04347 -33468189.25047  21574158.1954                   21574157.2194
        45.2504         44.5004
 -13555320.66046 -10523898.47345  23739705.0554                   23739706.7664
        39.2504         35.2504
 -58837007.68047 -45805500.48048  20014423.0634                   20014421.1644
        47.7504         51.2504
 -23165504.00847 -20078386.15245  22280438.0864                   22280435.4064
        43.5004         30.0004
 -47791752.24647 -37198098.59446  21224810.8674                   21224807.6604
        47.0004         36.2504
  -4708420.59446  -3589954.75844  25039444.5004                   25039445.5554
        40.2504         29.0004
 -41942334.92646 -32607386.34443  24596093.3054                   24596091.4884
        39.0004         21.5004
 -63312220.34447 -49281020.21947  21826614.7114                   21826610.6054
        46.2504         43.5004
 -54697102.39147 -42574364.62145  22983350.2114                   22983349.9734
        42.7504         30.2504
 25  8  8  0  3 30.0000000  0 10G02G26G09G03G16G04G06G28G31G01
 -38849802.25046 -30224892.99643  24974144.8444                   24974149.9774
        38.2504         20.0004
 -43111511.91847 -33540713.53947  21556447.4384                   21556446.2234
        46.0004         44.5004
 -13720776.75446 -10652825.12945  23708219.7974                   23708221.4304
        39.7504         35.7504
 -58928148.07448 -45876518.95748  19997079.8984                   19997077.7304
        49.2504         51.2504
 -23341005.03147 -20215140.07444  22247041.2894                   22247038.2234
        44.0004         29.7504
 -47921172.34047 -37298945.37545  21200182.9924                   21200179.9304
        47.0004         35.7504
  -4846983.58646  -3697925.89544  25013075.3834                   25013077.5164
        40.0004         28.7504
 -41931383.27046 -32598852.69143  24598176.3914                   24598175.8984
        37.2504         20.0004
 -63316255.65647 -49284164.64147  21825847.0784                   21825842.7154
        46.0004         43.5004
 -54698569.93447 -42575508.31245  22983071.0944                   22983070.9654
        43.0004         31.2504
 25  8  8  0  4  0.0000000  0 10G02G26G09G03G16G04G06G28G31G01
 -38852105.46946 -30226688.07043  24973706.3444                   24973712.4344
        38.0004         19.2504
 -43203987.01247 -33612772.02047  21538849.6724                   21538849.1134
        46.2504         44.2504
 -13886228.21546 -10781748.17646  23676735.4454                   23676736.8244
        39.5004         36.0004
 -59018751.00048 -45947118.63748  19979838.6024                   19979836.6414
        48.7504         51.5004
 -23516187.98847 -20351646.16845  22213704.9694                   22213702.3014
        44.0004         30.0004
 -48050463.70747 -37399691.85546  21175579.4064                   21175576.4574
        47.0004         36.2504
  -4985087.04746  -3805538.97344  24986796.0004                   24986797.6524
        39.2504         27.5004
 -41920435.31646 -32590321.89143  24600260.7504                   24600259.1524
        37.0004         19.7504
 -63320054.49647 -49287124.80147  21825124.1884                   21825119.7774
        46.2504         43.5004
 -54699853.30547 -42576508.50845  22982827.3204                   22982827.0084
        42.5004         30.0004
 25  8  8  0  4 30.0000000  0 10G02G26G09G03G16G04G06G28G31G01
 -38854533.75846 -30228580.59443  24973245.3444                   24973250.2934
        39.0004         20.0004
 -43295862.91047 -33684363.60547  21521366.6254                   21521365.6644
        45.0004         44.2504
 -14051674.03446 -10910666.83246  23645252.1414                   23645253.3714
        40.2504         36.5004
 -59108814.75448 -46017298.17648  19962700.2664                   19962697.8364
        48.5004         51.2504
 -23691048.68747 -20487901.14545  22180429.8204                   22180427.2894
        44.5004         30.0004
 -48179625.15247 -37500337.10246  21151000.7664                   21150998.0044
        46.5004         36.0004
  -5122728.69546  -3912792.18044  24960603.6884                   24960605.1564
        40.0004         26.0004
 -41909491.91046 -32581794.61743  24602342.8914                   24602341.6604
        37.0004         19.5004
 -63323618.15647 -49289901.70347  21824446.3834                   21824441.6024
        47.5004         43.0004
 -54700954.83247 -42577366.99645  22982617.9614                   22982617.5474
        42.5004         30.0004
 25  8  8  0  5  0.0000000  0 10G02G26G09G03G16G04G06G28G31G01
 -38857090.30546 -30230573.05543  24972758.8984                   24972764.5234
        39.2504         19.0004
 -43387139.65247 -33755488.31647  21503996.4534                   21503995.7344
        45.0004         44.5004
 -14217114.45346 -11039581.30546  23613770.0784                   23613770.8984
        41.5004         36.7504
 -59198338.92647 -46087057.26648  19945664.1884                   19945661.7304
        47.7504         51.2504
 -23865584.09847 -20623902.65245  22147217.2814                   22147214.2424
        44.0004         30.0004
 -48308656.73847 -37600881.15246  21126446.7424                   21126444.0594
        46.7504         36.0004
  -5259907.53146  -4019684.76244  24934499.0004                   24934500.7504
        39.5004         25.0004
 -41898555.29346 -32573272.67243  24604424.4694                   24604422.4964
        39.0004         19.7504
 -63326950.05947 -49292498.00447  21823811.6174                   21823807.6024
        46.2504         42.7504
 -54701878.06647 -42578086.56244  22982442.0704                   22982441.6804
        42.0004         27.2504
 25  8  8  0  5 30.0000000  0 10G02G26G09G03G16G04G06G28G31G01
 -38859773.06646 -30232663.85243  24972247.6804                   24972254.6994
        39.0004         19.5004
 -43477812.51247 -33826142.46547  21486742.4304                   21486741.4734
        45.5004         44.7504
 -14382544.87947 -11168488.00446  23582289.7504                   23582290.2664
        42.5004         37.5004
 -59287318.39548 -46156391.91048  19928731.7894                   19928729.6684
        49.0004         51.5004
 -24039786.53547 -20759644.70345  22114067.4534                   22114064.6684
        44.2504         30.2504
 -48437553.82447 -37701320.40246  21101918.6804                   21101916.0204
        47.0004         36.2504
  -5396617.82846  -4126212.25044  24908484.2584                   24908484.7974
        38.7504         25.5004
 -41887622.79746 -32564753.90243  24606504.8594                   24606503.0824
        38.5004         20.0004
 -63330048.42647 -49294912.33647  21823222.2274                   21823218.1564
        46.7504         42.7504
 -54702621.81646 -42578666.27344  22982300.1804                   22982300.2424
        41.2504         27.5004
 25  8  8  0  6  0.0000000  0 10G02G26G09G03G16G04G06G28G31G01
 -38862590.14146 -30234859.35543  24971712.3524                   24971719.8554
        37.5004         19.5004
 -43567886.58647 -33896330.03147  21469601.5704                   21469601.1804
        45.5004         44.7504
 -14547970.59047 -11297391.04346  23550810.2344                   23550810.9454
        43.0004         37.2504
 -59375757.85948 -46225305.77348  19911902.1174                   19911900.1214
        48.0004         51.2504
 -24213658.00047 -20895128.85544  22080980.9064                   22080977.7584
        44.7504         29.7504
 -48566321.50047 -37801658.82046  21077414.8444                   21077412.2624
        47.5004         36.5004
  -5532863.74646  -4232377.89144  24882557.3594                   24882558.2114
        39.2504         25.0004
 -41876701.57446 -32556243.92643  24608583.4534                   24608581.1374
        39.0004         22.0004
 -63332921.12947 -49297150.84047  21822675.8984                   21822671.3954
        46.0004         42.7504
 -54703194.67646 -42579112.82044  22982191.0394                   22982191.2504
        40.5004         26.0004
 25  8  8  0  6 30.0000000  0 10G02G26G09G03G16G04G06G28G31G01
 -38865540.13746 -30237158.42242  24971150.8914                   24971157.8134
        38.0004         17.2504
 -43657357.77047 -33966047.80547  21452575.9774                   21452575.1054
        45.0004         44.5004
 -14713387.64547 -11426287.34846  23519332.0864                   23519333.0664
        43.2504         38.2504
 -59463652.77348 -46293795.31648  19895176.9064                   19895174.7154
        48.0004         51.2504
 -24387191.82047 -21030349.90245  22047958.2894                   22047955.1414
        44.0004         30.5004
 -48694955.68447 -37901893.21146  21052936.6484                   21052933.9614
        47.2504         36.5004
  -5668640.21146  -4338177.71144  24856720.1024                   24856721.0704
        38.5004         24.0004
 -41865789.61746 -32547741.20743  24610659.8364                   24610658.0274
        39.5004         22.0004
 -63335567.13347 -49299212.68047  21822172.4534                   21822167.4494
        45.5004         43.0004
 -54703596.20346 -42579425.87544  22982115.5004                   22982114.9844
        40.7504         26.0004
 25  8  8  0  7  0.0000000  0 10G02G26G09G03G16G04G06G28G31G01
 -38868626.70746 -30239563.94543  24970563.9144                   24970570.6804
        38.5004         19.0004
 -43746227.18747 -34035296.68047  21435664.4694                   21435664.0634
        45.7504         44.5004
 -14878797.28147 -11555177.86346  23487855.7974                   23487856.2624
        43.0004         37.5004
 -59551003.89548 -46361861.12548  19878554.3754                   19878552.0354
        48.7504         51.2504
 -24560385.74247 -21165306.09045  22015000.4534                   22014997.1254
        44.2504         30.5004
 -48823457.47347 -38002024.43746  21028483.6334                   21028480.5044
        46.7504         37.0004
  -5803947.37546  -4443611.84444  24830971.8834                   24830973.4494
        38.2504         25.7504
 -41854890.01246 -32539248.03544  24612733.7194                   24612732.3404
        40.2504         24.5004
 -63337990.16047 -49301100.77347  21821711.1174                   21821706.8714
        46.7504         42.5004
 -54703830.95346 -42579608.98044  22982071.0784                   22982070.8984
        41.2504         28.5004
 25  8  8  0  7 30.0000000  0 10G02G26G09G03G16G04G06G28G31G01
 -38871853.59846 -30242078.77342  24969950.3754                   24969957.1994
        38.2504         17.2504
 -43834495.70347 -34104077.32047  21418867.8204                   21418866.8014
        46.2504         44.7504
 -15044200.34447 -11684063.25446  23456380.0864                   23456381.2424
        42.5004         37.0004
 -59637811.58248 -46429503.47748  19862035.0554                   19862033.2544
        48.7504         51.0004
 -24733237.35947 -21299995.54345  21982107.6024                   21982104.5744
        44.2504         30.0004
 -48951827.57847 -38102053.06246  21004055.5004                   21004052.3204
        47.0004         36.5004
  -5938785.07046  -4548680.17244  24805312.2664                   24805314.6174
        38.7504         25.5004
 -41844005.52346 -32530766.69943  24614804.8134                   24614803.6994
        40.7504         23.0004
 -63340193.98447 -49302818.06247  21821291.6804                   21821287.6914
        46.7504         42.7504
 -54703903.18047 -42579665.44544  22982057.5084                   22982057.1024
        42.0004         29.0004
 25  8  8  0  8  0.0000000  0 10G02G26G09G03G16G04G06G28G31G01
 -38875222.84446 -30244704.53143  24969309.2274                   24969316.0474
        38.2504         18.5004
 -43922162.40647 -34172389.00447  21402185.2424                   21402184.2854
        44.7504         44.5004
 -15209596.07046 -11812942.92246  23424906.2504                   23424907.3914
        41.0004         36.5004
 -59724074.57047 -46496721.39148  19845620.2974                   19845617.7544
        47.7504         51.2504
 -24905742.81247 -21434415.26245  21949280.8914                   21949277.5634
        44.5004         30.0004
 -49080065.05547 -38201978.33646  20979652.9694                   20979650.1054
        47.7504         36.2504
  -6073151.36346  -4653381.15244  24779744.2424                   24779745.3794
        38.7504         26.5004
 -41833137.23446 -32522297.94943  24616873.0004                   24616871.7854
        40.0004         22.7504
 -63342180.98047 -49304366.39547  21820913.7734                   21820909.3874
        47.0004         43.0004
 -54703815.44547 -42579597.24645  22982074.4304                   22982073.9694
        42.5004         30.0004
 25  8  8  0  8 30.0000000  0 10G02G26G09G03G16G04G06G28G31G01
 -38878734.86745 -30247441.52043  24968641.0864                   24968648.2154
        35.2504         18.2504
 -44009225.53547 -34240230.38347  21385618.1334                   21385617.1994
        46.7504         44.5004
 -15374982.62146 -11941815.43445  23393434.2034                   23393435.2034
        39.7504         35.7504
 -59809790.57848 -46563513.07848  19829308.6254                   19829306.6214
        49.7504         51.2504
 -25077897.41447 -21568561.59445  21916520.7344                   21916517.6644
        44.0004         30.0004
 -49208167.94147 -38301798.73846  20955275.5634                   20955272.5044
        47.0004         36.2504
  -6207043.46146  -4757712.63744  24754265.1094                   24754266.0434
        38.5004         27.2504
 -41822285.27346 -32513841.96543  24618938.5314                   24618936.5204
        40.5004         21.7504
 -63343951.81647 -49305746.29347  21820576.4924                   21820572.3834
        46.5004         42.5004
 -54703569.37147 -42579405.66845  22982120.9694                   22982121.1914
        43.5004         30.5004
 25  8  8  0  9  0.0000000  0 10G02G26G09G03G16G04G06G28G31G01
 -38882393.09046 -30250292.43743  24967945.4144                   24967952.8484
        37.0004         19.5004
 -44095685.64147 -34307601.87147  21369165.3594                   21369163.7734
        45.5004         44.5004
 -15540360.55946 -12070681.21945  23361963.6564                   23361964.9844
        39.0004         35.0004
 -59894959.78548 -46629878.69548  19813101.6884                   19813099.3524
        48.5004         51.2504
 -25249698.53547 -21702432.48045  21883827.9454                   21883825.0984
        44.2504         30.0004
 -49336136.63347 -38401514.57046  20930924.1724                   20930920.8874
        47.2504         36.7504
  -6340460.96146  -4861674.30144  24728876.9924                   24728877.7584
        39.0004         27.5004
 -41811451.98446 -32505400.51243  24621000.3054                   24620998.9064
        40.5004         21.2504
 -63345509.91047 -49306960.41847  21820280.1414                   21820275.9964
        46.2504         43.0004
 -54703168.86347 -42579093.78144  22982197.5634                   22982197.6914
        43.0004         29.5004
 25  8  8  0  9 30.0000000  0 11G02G26G09G03G16G04G06G28G07G31G01
 -38886202.51646 -30253261.23443  24967221.0394                   24967228.2774
        37.2504         19.2504
 -44181545.00847 -34374505.25047  21352826.4304                   21352825.3094
        47.2504         44.5004
 -15705732.00046 -12199541.94146  23330494.1254                   23330495.2464
        39.2504         36.5004
 -59979583.98848 -46695819.62148  19796997.8674                   19796995.7504
        49.5004         51.2504
 -25421145.30947 -21836027.26245  21851202.8524                   21851199.3674
        43.5004         30.2504
 -49463973.20747 -38501127.44946  20906597.4924                   20906594.3714
        47.7504         36.7504
  -6473405.03946  -4965267.09444  24703578.5394                   24703579.4774
        39.2504         28.7504
 -41800641.50846 -32496976.82843  24623056.6094                   24623055.9654
        39.5004         21.2504
   1336666.38356   1082392.08654  25103384.9224                   25103393.0044
        37.0004         25.2504
 -63346860.15647 -49308012.59447  21820023.7344                   21820019.1994
        47.0004         42.7504
 -54702619.58246 -42578665.96544  22982302.1174                   22982302.4264
        41.7504         28.5004
 25  8  8  0 10  0.0000000  0 11G02G26G09G03G16G04G06G28G07G31G01
 -37314746.55546 -29028750.46943  25266259.1414                   25266266.8014
        38.5004         19.2504
 -42691381.97747 -33213339.22747  21636395.0164                   21636394.0044
        46.2504         44.5004
 -14295672.54346 -11100794.17646  23598819.6414                   23598820.6914
        41.7504         36.7504
 -58488241.08648 -45533734.24248  20080791.1254                   20080789.1804
        48.0004         51.2504
 -24016809.84447 -20741739.77345  22118438.7664                   22118435.9614
        43.7504         30.0004
 -48016254.27747 -37373034.74646  21182089.1094                   21182086.1214
        47.2504         36.7504
  -5030451.47746  -3840887.68444  24978163.5394                   24978164.5864
        39.2504         28.7504
 -40214437.12546 -31260973.48843  24924902.1484                   24924900.6414
        38.5004         20.2504
   2737603.67646   2174031.98845  25369975.3834                   25369981.8914
        39.5004         30.7504
 -61772586.41047 -48081305.80947  22119597.8674                   22119593.1844
        46.7504         43.0004
 -53126506.00846 -41350525.71544  23282226.3674                   23282227.2934
        41.7504         28.0004
 25  8  8  0 10 30.0000000  0 11G02G26G09G03G16G04G06G28G07G31G01
 -37318875.39546 -29031968.09843  25265473.5704                   25265481.3204
        37.5004         19.5004
 -42776049.60547 -33279313.98047  21620283.3754                   21620282.3404
        47.2504         44.5004
 -14461040.41047 -11229652.12946  23567351.5704                   23567352.2664
        42.2504         37.2504
 -58571783.65248 -45598832.33648  20064893.5394                   20064891.5514
        49.2504         51.2504
 -24187547.77047 -20874782.19944  22085948.2424                   22085945.0434
        43.7504         29.7504
 -48143835.53947 -37472448.68446  21157811.2114                   21157807.8594
        47.2504         37.0004
  -5162455.36346  -3943747.83644  24953044.1414                   24953044.8674
        39.0004         29.7504
 -40203687.30546 -31252597.04343  24926947.9534                   24926946.1454
        38.7504         19.0004
   2563226.34446   2038154.03144  25336792.2734                   25336798.2424
        37.7504         28.0004
 -61773538.82847 -48082047.98447  22119417.1024                   22119412.3594
        46.2504         43.0004
 -53125678.75846 -41349881.29344  23282384.2664                   23282384.5354
        41.0004         27.7504
 25  8  8  0 11  0.0000000  0 11G02G26G09G03G16G04G06G28G07G31G01
 -37323169.73846 -29035314.71943  25264657.4534                   25264664.4654
        38.2504         19.0004
 -42860123.43447 -33344826.04347  21604284.8754                   21604283.6764
        46.5004         44.5004
 -14626408.26247 -11358510.09046  23535882.8444                   23535883.4144
        42.0004         37.0004
 -58654786.70348 -45663510.03548  20049098.6024                   20049096.7344
        49.5004         51.2504
 -24357928.77747 -21007546.49645  22053526.2664                   22053522.8244
        43.5004         31.0004
 -48271290.71547 -37571764.36346  21133556.9384                   21133554.1024
        47.5004         37.2504
  -5293989.62146  -4046242.03544  24928014.0314                   24928014.8134
        38.5004         28.5004
 -40192972.31246 -31244247.75443  24928987.3984                   24928985.4304
        39.0004         20.2504
   2388962.65246   1902364.62944  25303630.0474                   25303636.9924
        37.7504         29.5004
 -61774298.23447 -48082639.75847  22119271.9304                   22119267.9304
        46.7504         43.0004
 -53124719.48046 -41349134.01644  23282566.4844                   23282567.1294
        41.0004         26.0004
 25  8  8  0 11 30.0000000  0 11G02G26G09G03G16G04G06G28G07G31G01
 -37327625.61746 -29038787.18443  25263809.1254                   25263816.7734
        37.7504         19.0004
 -42943597.39847 -33409870.66847  21588400.0944                   21588399.0044
        44.7504         44.5004
 -14791769.89846 -11487363.19545  23504415.6254                   23504415.8714
        41.2504         35.0004
 -58737243.77048 -45727762.29348  20033407.5394                   20033405.3164
        48.0004         51.2504
 -24527943.55947 -21140025.43045  22021173.1484                   22021169.6914
        44.0004         31.0004
 -48398613.37547 -37670976.78946  21109328.4304                   21109325.5394
        47.2504         37.2504
  -5425047.07446  -4148364.69945  24903074.5004                   24903075.3834
        38.2504         30.0004
 -40182287.85946 -31235922.25443  24931020.5004                   24931018.0314
        39.0004         21.2504
   2214819.71946   1766669.32844  25270491.7734                   25270498.2114
        38.7504         29.7504
 -61774861.16447 -48083078.44147  22119165.0394                   22119160.7344
        46.0004         43.2504
 -53123625.32847 -41348281.63744  23282775.3524                   23282775.3714
        42.7504         27.7504
 25  8  8  0 12  0.0000000  0 11G02G26G09G03G16G04G06G28G07G31G01
 -37332233.35946 -29042377.98043  25262932.9774                   25262940.4924
        38.7504         19.2504
 -43026458.77047 -33474437.94947  21572632.1414                   21572630.9534
        45.5004         44.5004
 -14957112.40246 -11616201.38745  23472951.4614                   23472951.5944
        39.7504         33.2504
 -58819141.63748 -45791578.81648  20017822.8284                   20017820.6564
        48.5004         51.2504
 -24697575.84847 -21272206.32045  21988892.8284                   21988889.7384
        43.7504         31.0004
 -48525790.50847 -37770075.80546  21085127.4774                   21085124.4804
        47.0004         37.0004
  -5555613.98046  -4250105.11744  24878227.3674                   24878229.2854
        38.0004         29.0004
 -40171622.84046 -31227611.90643  24933050.2194                   24933048.0124
        40.0004         21.7504
   2040810.68846   1631078.37944  25237377.4614                   25237384.8524
        37.0004         28.2504
 -61775217.69947 -48083356.28947  22119096.8524                   22119092.7974
        46.2504         43.2504
 -53122386.79347 -41347316.72344  23283011.0004                   23283011.4884
        43.2504         25.7504
 25  8  8  0 12 30.0000000  0 10G26G09G03G16G04G06G28G07G31G01
 -43108710.23047 -33538529.97747  21556979.8594                   21556979.1374
        46.2504         44.5004
 -15122438.07846 -11745026.44945  23441490.1804                   23441491.2344
        38.5004         32.5004
 -58900482.43748 -45854961.25448  20002344.0554                   20002342.1134
        48.5004         51.2504
 -24866825.44947 -21404089.01245  21956685.8674                   21956682.8204
        42.7504         31.5004
 -48652824.25847 -37869063.10546  21060953.3754                   21060950.9734
        47.0004         36.7504
  -5685691.96946  -4351464.55544  24853474.8914                   24853476.3794
        37.5004         29.2504
 -40160981.51246 -31219319.97443  24935074.7424                   24935072.8984
        40.7504         21.0004
   1866934.19546   1495590.71544  25204290.3284                   25204296.0434
        37.0004         27.2504
 -61775372.42247 -48083476.89547  22119067.8054                   22119063.0634
        46.5004         42.5004
 -53121009.69147 -41346243.84444  23283273.0234                   23283273.9264
        42.7504         26.5004
 25  8  8  0 13  0.0000000  0 10G26G09G03G16G04G06G28G07G31G01
 -43190355.03547 -33602149.28947  21541443.8444                   21541442.4414
        45.5004         44.5004
 -15287749.94146 -11873840.72345  23410032.7344                   23410033.4264
        39.2504         33.2504
 -58981269.02748 -45917911.83648  19986971.1024                   19986969.1484
        48.5004         51.2504
 -25035691.90647 -21535673.13745  21924551.2664                   21924547.9774
        43.2504         31.2504
 -48779717.52347 -37967940.92646  21036807.0634                   21036803.7034
        47.2504         37.2504
  -5815283.18046  -4452444.69944  24828813.8284                   24828816.5124
        37.2504         29.2504
 -40150368.64546 -31211050.22743  24937094.6174                   24937092.3714
        40.5004         20.7504
   1693187.68046   1360204.31644  25171226.6804                   25171232.8244
        37.0004         27.2504
 -61775331.64147 -48083445.15647  22119075.5234                   22119071.3954
        45.2504         42.7504
 -53119500.39547 -41345067.96144  23283560.8594                   23283561.1414
        42.7504         26.0004
 25  8  8  0 13 30.0000000  0 10G26G09G03G16G04G06G28G07G31G01
 -43271391.48447 -33665294.55547  21526022.9774                   21526022.0824
        44.5004         44.5004
 -15453045.85246 -12002642.54745  23378578.1804                   23378578.6294
        39.5004         34.5004
 -59061499.10247 -45980428.78148  19971704.0084                   19971701.5434
        47.5004         51.0004
 -25204170.53947 -21666955.08245  21892491.0314                   21892487.4614
        44.5004         31.7504
 -48906468.06647 -38066707.53546  21012687.1174                   21012683.4224
        47.0004         37.0004
  -5944384.69946  -4553043.27744  24804246.7734                   24804248.5634
        37.5004         29.5004
 -40139784.07046 -31202802.53943  24939108.0704                   24939106.8524
        39.7504         20.7504
   1519573.57446   1224921.07444  25138188.8524                   25138195.1134
        37.5004         28.5004
 -61775095.77347 -48083261.40247  22119120.2274                   22119116.4844
        46.5004         42.7504
 -53117860.32447 -41343790.17244  23283873.0944                   23283873.3364
        42.5004         27.0004
 25  8  8  0 14  0.0000000  0 10G26G09G03G16G04G06G28G07G31G01
 -43351820.03947 -33727966.14147  21510717.9454                   21510716.7934
        45.7504         44.5004
 -15618325.98446 -12131432.09446  23347126.2734                   23347126.6844
        40.5004         36.0004
 -59141172.69148 -46042512.09448  19956542.4844                   19956540.3554
        48.5004         51.0004
 -25372258.49247 -21797932.60545  21860504.7814                   21860501.5904
        43.7504         31.0004
 -49033075.83647 -38165362.89146  20988594.2194                   20988590.7664
        47.0004         36.7504
  -6072996.02346  -4653259.87544  24779773.4454                   24779774.4614
        37.5004         29.0004
 -40129229.71946 -31194578.39843  24941117.1174                   24941115.0784
        40.0004         20.2504
   1346092.35546   1089741.39544  25105176.6254                   25105181.8364
        36.2504         26.7504
 -61774667.99247 -48082928.10547  22119202.0944                   22119197.9844
        45.5004         42.5004
 -53116093.06247 -41342413.28544  23284209.5234                   23284209.6644
        42.5004         27.0004
 25  8  8  0 14 30.0000000  0 10G26G09G03G16G04G06G28G07G31G01
 -43431639.17647 -33790162.85547  21495528.7894                   21495527.4304
        46.2504         44.5004
 -15783588.34846 -12260207.78546  23315677.8284                   23315678.3244
        41.0004         37.0004
 -59220287.73848 -46104160.18448  19941487.4064                   19941485.2234
        48.7504         51.0004
 -25539950.68047 -21928601.72345  21828594.5234                   21828590.6524
        43.7504         32.5004
 -49159538.73447 -38263905.36746  20964528.7734                   20964525.9104
        46.5004         36.7504
  -6201114.43446  -4753092.38344  24755393.6954                   24755394.3834
        36.2504         28.5004
 -40118705.49646 -31186377.76643  24943119.1484                   24943118.1214
        39.5004         19.5004
   1172746.93846    954667.51244  25072189.2664                   25072194.7464
        36.0004         24.5004
 -61774049.02747 -48082445.82447  22119319.6804                   22119315.6564
        46.7504         42.0004
 -53114200.09046 -41340938.44944  23284569.8754                   23284570.8204
        41.5004         27.7504
 25  8  8  0 15  0.0000000  0 10G26G09G03G16G04G06G28G07G31G01
 -43510856.00447 -33851890.23447  21480454.1174                   21480453.3204
        46.7504         44.5004
 -15948839.55146 -12388974.79346  23284231.0944                   23284232.1254
        40.2504         37.5004
 -59298850.81248 -46165378.16448  19926537.1724                   19926535.3594
        48.7504         51.0004
 -25707251.06647 -22058965.54745  21796757.6884                   21796754.4414
        43.5004         32.7504
 -49285863.25047 -38362340.01246  20940490.1954                   20940486.9344
        47.0004         36.5004
  -6328745.82046  -4852545.40644  24731105.9224                   24731107.0124
        36.0004         29.5004
 -40108219.85546 -31178207.13343  24945114.7424                   24945113.3874
        38.7504         20.5004
    999530.68045    819694.29344  25039226.4774                   25039232.1684
        35.7504         27.0004
 -61773248.28147 -48081821.90647  22119472.4384                   22119467.9774
        45.7504         42.0004
 -53112191.49646 -41339373.54344  23284952.0394                   23284952.8914
        39.2504         26.7504
 25  8  8  0 15 30.0000000  0 10G26G09G03G16G04G06G28G07G31G01
 -43589471.60247 -33913149.13347  21465494.2814                   21465493.1954
        46.2504         44.5004
 -16114080.23846 -12517733.60546  23252786.9774                   23252787.6174
        40.7504         36.5004
 -59376862.47348 -46226166.46948  19911692.0554                   19911690.0314
        49.0004         51.0004
 -25874157.21947 -22189022.19545  21764996.4064                   21764992.9534
        43.7504         32.2504
 -49412049.89547 -38460667.21946  20916477.4454                   20916474.5204
        47.0004         37.2504
  -6455890.28946  -4951619.01244  24706910.5394                   24706912.4924
        36.2504         29.7504
 -40097775.26246 -31170068.53543  24947102.2114                   24947101.2234
        37.5004         21.0004
    826443.77046    684821.86744  25006288.8834                   25006294.7384
        37.0004         26.0004
 -61772269.12547 -48081058.96546  22119658.3984                   22119654.1564
        46.5004         41.7504
 -53110071.29046 -41337721.68244  23285356.0394                   23285356.8284
        40.2504         25.5004
 25  8  8  0 16  0.0000000  0 10G26G09G03G16G04G06G28G07G31G01
 -43667490.55947 -33973943.10947  21450647.5314                   21450646.8954
        47.0004         44.5004
 -16279314.50846 -12646487.41045  23221343.5234                   23221344.0634
        40.0004         34.5004
 -59454326.76248 -46286528.25448  19896951.0864                   19896949.0554
        48.2504         51.0004
 -26040670.14847 -22318772.42645  21733310.2734                   21733306.9414
        45.2504         33.0004
 -49538102.53147 -38558890.00846  20892490.3284                   20892487.2424
        47.0004         36.5004
  -6582551.24246  -5050315.84445  24682808.1954                   24682810.1994
        36.5004         30.5004
 -40087377.61346 -31161966.51643  24949081.0554                   24949079.6644
        37.2504         19.7504
    653482.56346    550047.38744  24973375.2504                   24973380.9454
        36.7504         24.2504
 -61771118.48447 -48080162.40647  22119877.4224                   22119872.9384
        46.0004         42.0004
 -53107847.16846 -41335988.82844  23285779.0944                   23285779.8554
        40.5004         27.0004
 25  8  8  0 16 30.0000000  0 10G26G09G03G16G04G06G28G07G31G01
 -43744910.82047 -34034270.57447  21435915.0234                   21435914.0944
        46.5004         44.5004
 -16444539.75846 -12775234.18745  23189901.9304                   23189902.3834
        39.0004         33.7504
 -59531241.09448 -46346461.49248  19882314.9224                   19882312.5984
        48.0004         51.0004
 -26206784.54347 -22448212.10545  21701699.7034                   21701696.1844
        45.2504         32.5004
 -49664018.47348 -38657006.28146  20868529.7034                   20868526.7234
        48.0004         37.0004
  -6708725.41246  -5148633.36545  24658798.0864                   24658799.6484
        38.2504         30.5004
 -40077026.14546 -31153900.51643  24951051.2894                   24951049.5084
        36.7504         19.7504
    480650.35546    415373.40244  24940486.4924                   24940491.5394
        36.5004         26.0004
 -61769796.44547 -48079132.28546  22120129.1334                   22120124.5984
        44.5004         41.2504
 -53105519.89146 -41334175.60944  23286222.1804                   23286223.3484
        40.0004         25.2504
 25  8  8  0 17  0.0000000  0 10G26G09G03G16G04G06G28G07G31G01
 -43821736.61347 -34094134.80947  21421295.5394                   21421294.4144
        45.2504         44.5004
 -16609759.66646 -12903976.81845  23158461.8524                   23158461.7624
        40.0004         33.0004
 -59607609.21148 -46405969.11348  19867782.3134                   19867780.5634
        48.0004         51.0004
 -26372501.38747 -22577342.01245  21670164.6884                   21670161.3524
        45.7504         32.7504
 -49789801.16847 -38755018.73046  20844594.0474                   20844590.8324
        47.0004         37.0004
  -6834415.96146  -5246574.02045  24634879.5554                   24634881.5784
        38.2504         30.7504
 -40066726.34446 -31145874.71543  24953011.3984                   24953009.2194
        38.0004         19.7504
    307943.80546    280797.30544  24907620.4694                   24907626.2814
        36.2504         24.7504
 -61768309.33647 -48077973.53146  22120411.6414                   22120408.3244
        45.5004         41.5004
 -53103096.60546 -41332287.57444  23286683.2664                   23286684.1214
        41.2504         25.7504
 25  8  8  0 17 30.0000000  0 10G26G09G03G16G04G06G28G07G31G01
 -43897966.95747 -34153535.05947  21406789.5084                   21406788.4884
        44.5004         44.5004
 -16774972.43746 -13032713.89145  23127023.2814                   23127022.8984
        41.5004         34.5004
 -59683429.48447 -46465049.84048  19853354.5634                   19853352.2624
        47.7504         51.0004
 -26537815.77747 -22706158.32045  21638706.3364                   21638702.9574
        45.7504         32.5004
 -49915448.84447 -38852925.97746  20820684.1414                   20820680.7624
        47.2504         37.0004
  -6959620.65646  -5344136.10545  24611054.6024                   24611055.4414
        37.5004         30.7504
 -40056478.30546 -31137889.31643  24954961.3054                   24954959.9264
        37.5004         19.7504
    135364.69545    146320.48444  24874779.0004                   24874785.2074
        35.5004         25.2504
 -61766658.49647 -48076687.20346  22120725.7114                   22120721.5664
        45.5004         41.2504
 -53100579.21147 -41330326.19944  23287162.7814                   23287163.8014
        42.0004         26.7504
 25  8  8  0 18  0.0000000  0 10G26G09G03G16G04G06G28G07G31G01
 -43973604.06247 -34212473.05547  21392396.1334                   21392395.0004
        45.5004         44.7504
 -16940179.84047 -13161446.77746  23095585.0394                   23095585.1484
        42.2504         36.2504
 -59758703.72348 -46523705.09448  19839029.7114                   19839028.1334
        48.0004         51.0004
 -26702726.68047 -22834660.23045  21607324.7114                   21607321.4534
        45.5004         32.7504
 -50040962.98847 -38950729.16846  20796799.4454                   20796796.2344
        47.7504         36.7504
  -7084340.61346  -5441320.45745  24587319.8524                   24587322.4964
        37.5004         30.2504
 -40046285.57846 -31129946.97343  24956901.3444                   24956899.3834
        37.7504         20.0004
    -37087.82046     11942.33644  24841962.7114                   24841968.3594
        37.5004         25.5004
 -61764848.39547 -48075276.77046  22121070.2974                   22121066.3874
        46.2504         40.7504
 -53097972.74647 -41328295.40644  23287659.1644                   23287660.2624
        42.7504         26.0004
 25  8  8  0 18 30.0000000  0 10G26G09G03G16G04G06G28G07G31G01
 -44048649.07847 -34270949.66847  21378115.2194                   21378114.7274
        46.2504         44.5004
 -17105382.25047 -13290175.77346  23064147.4694                   23064147.5594
        43.2504         38.2504
 -59833432.41448 -46581935.23448  19824809.6804                   19824807.5434
        48.5004         51.0004
 -26867232.00447 -22962846.10545  21576020.6254                   21576016.6024
        45.5004         33.0004
 -50166343.89147 -39048428.54346  20772940.0864                   20772937.1094
        46.7504         37.2504
  -7208575.77346  -5538127.04745  24563678.5784                   24563680.9614
        37.2504         31.2504
 -40036150.30146 -31122049.42243  24958829.9384                   24958827.9224
        36.7504         19.7504
   -209413.53946   -122337.03544  24809170.4384                   24809174.9614
        37.2504         26.7504
 -61762881.96947 -48073744.53146  22121444.9614                   22121440.7854
        46.0004         40.7504
 -53095281.10947 -41326198.23044  23288171.2814                   23288172.3094
        43.7504         25.7504
 25  8  8  0 19  0.0000000  0 10G26G09G03G16G04G06G28G07G31G01
 -42547676.15247 -33101360.36747  21663741.0394                   21663740.1844
        47.0004         44.5004
 -15695150.13747 -12191293.45746  23332505.9534                   23332506.0514
        43.0004         38.5004
 -58332189.26648 -45412135.37948  20110487.1724                   20110484.9454
        48.7504         51.0004
 -25455899.16047 -21863106.13345  21844587.8054                   21844584.1564
        45.7504         34.0004
 -48716163.19547 -37918417.57846  21048900.3674                   21048897.1914
        47.2504         37.2504
  -5756897.52046  -4406949.14845  24839925.2344                   24839926.2704
        36.5004         31.2504
 -38450650.64146 -29886595.18743  25260540.6484                   25260538.9384
        37.0004         18.5004
   1193817.68046    971090.31344  25076195.2664                   25076200.6054
        37.5004         25.0004
 -60185338.19947 -46844489.68046  22421641.8594                   22421637.3284
        45.5004         41.0004
 -51517083.92247 -40096434.40644  23588492.7114                   23588493.5004
        43.2504         26.0004
 25  8  8  0 19 30.0000000  0 10G26G09G03G16G04G06G28G07G31G01
 -42621533.12947 -33158911.23447  21649686.8594                   21649685.9494
        46.5004         44.7504
 -15860336.50446 -12320009.95346  23301071.8754                   23301071.9654
        40.7504         38.5004
 -58405821.39848 -45469511.06648  20096475.1644                   20096473.1884
        48.2504         51.0004
 -25619578.39547 -21990648.29745  21813440.7734                   21813437.2734
        45.5004         34.0004
 -48841271.09447 -38015904.22346  21025093.0474                   21025089.8014
        46.7504         37.2504
  -5880155.66446  -4502994.44545  24816470.0474                   24816471.5554
        36.5004         31.7504
 -38440629.69146 -29878786.71543  25262447.6254                   25262445.7384
        37.0004         18.2504
   1021752.23846    837013.76244  25043452.1024                   25043457.2774
        36.7504         25.5004
 -60183061.24247 -46842715.46546  22422074.6414                   22422070.4844
        46.0004         40.5004
 -51514226.42647 -40094207.99644  23589036.0634                   23589037.7304
        43.2504         26.7504
 25  8  8  0 20  0.0000000  0 10G26G09G03G16G04G06G28G07G31G01
 -42694799.25047 -33216001.70347  21635744.5084                   21635743.1644
        47.2504         45.0004
 -16025516.86346 -12448721.76246  23269639.2194                   23269639.0634
        40.5004         38.2504
 -58478907.56248 -45526461.33248  20082567.2814                   20082565.1684
        49.0004         51.0004
 -25782842.46547 -22117866.96545  21782372.3674                   21782368.7544
        46.0004         33.7504
 -48966244.26647 -38113285.88346  21001311.4384                   21001308.1884
        47.0004         37.5004
  -6002926.71146  -4598660.16445  24793108.1174                   24793108.5044
        38.0004         31.5004
 -38430670.64546 -29871026.47343  25264342.5474                   25264340.9494
        37.0004         19.2504
    849815.74646    703037.64544  25010733.6414                   25010738.3954
        37.7504         24.5004
 -60180635.61747 -46840825.40246  22422536.6174                   22422531.9224
        45.7504         40.7504
 -51511293.27347 -40091922.65244  23589594.5084                   23589595.6094
        42.0004         25.5004
 25  8  8  0 20 30.0000000  0 10G26G09G03G16G04G06G28G07G31G01
 -42767473.57847 -33272631.03147  21621915.2424                   21621914.0234
        47.2504         45.0004
 -16190689.39546 -12577427.46546  23238207.6094                   23238207.8364
        40.0004         37.7504
 -58551446.22348 -45582984.96148  20068763.7344                   20068761.8324
        48.5004         51.0004
 -25945686.96147 -22244758.68745  21751384.3754                   21751380.9494
        46.5004         32.7504
 -49091080.78947 -38210561.07046  20977555.9144                   20977552.9024
        47.2504         37.7504
  -6125208.46946  -4693944.62145  24769837.5864                   24769839.4494
        37.2504         31.7504
 -38420773.43446 -29863314.45343  25266226.2114                   25266224.2114
        37.5004         19.2504
    678010.00446    569163.41044  24978040.1024                   24978044.5704
        38.7504         26.2504
 -60178062.08247 -46838820.09046  22423026.1954                   22423021.8054
        46.0004         40.5004
 -51508286.10546 -40089579.65244  23590166.5864                   23590168.2544
        41.2504         26.0004
 25  8  8  0 21  0.0000000  0 10G26G09G03G16G04G06G28G07G31G01
 -42839555.48048 -33328798.73047  21608198.3134                   21608197.2344
        48.0004         44.5004
 -16355852.61747 -12706125.93446  23206777.8204                   23206777.8014
        42.0004         38.2504
 -58623436.20748 -45639081.05948  20055064.5394                   20055062.2384
        48.7504         51.0004
 -26108107.77347 -22371320.27345  21720476.5704                   21720472.9804
        46.0004         34.0004
 -49215778.99647 -38307728.47746  20953826.6094                   20953823.0394
        47.0004         38.0004
  -6246999.08646  -4788846.37545  24746661.8914                   24746662.9064
        37.5004         31.2504
 -38410938.46946 -29855650.85243  25268097.1954                   25268096.2034
        36.5004         19.2504
    506337.17846    435392.76144  24945370.9924                   24945375.9494
        38.5004         26.7504
 -60175341.87547 -46836700.49246  22423543.7894                   22423539.4964
        46.0004         40.5004
 -51505206.96546 -40087180.58644  23590753.4454                   23590755.3404
        41.2504         26.7504
 25  8  8  0 21 30.0000000  0 10G26G09G03G16G04G06G28G07G31G01
 -42911045.34047 -33384505.10547  21594594.3524                   21594593.0164
        47.2504         44.5004
 -16521006.06646 -12834816.82046  23175350.0554                   23175349.6484
        41.7504         38.0004
 -58694877.27748 -45694749.43048  20041469.7814                   20041467.3834
        49.0004         51.0004
 -26270101.34447 -22497548.94545  21689650.2584                   21689646.1724
        45.2504         33.7504
 -49340338.30547 -38404787.65646  20930123.5634                   20930120.3324
        47.7504         37.2504
  -6368297.80946  -4883364.82845  24723579.2584                   24723580.6764
        36.5004         32.2504
 -38401166.95746 -29848036.78143  25269956.8134                   25269955.6334
        36.5004         19.5004
    334798.00846    301726.25844  24912728.2034                   24912732.7734
        40.2504         28.5004
 -60172477.31647 -46834468.40646  22424089.3284                   22424084.9844
        45.5004         40.7504
 -51502058.87946 -40084727.79744  23591352.1334                   23591354.2234
        40.0004         26.0004
 25  8  8  0 22  0.0000000  0 10G26G09G03G16G04G06G28G07G31G01
 -42981943.55547 -33439750.44547  21581102.5704                   21581101.4104
        47.0004         45.0004
 -16686149.20747 -12963499.68046  23143924.8834                   23143923.9694
        43.2504         38.2504
 -58765769.27748 -45749989.94548  20027979.3284                   20027977.4494
        49.0004         51.0004
 -26431664.62147 -22623442.32045  21658905.3054                   21658901.5164
        45.7504         33.5004
 -49464757.98447 -38501738.02346  20906447.4924                   20906444.3714
        47.0004         37.5004
  -6489103.81246  -4977499.34845  24700590.5164                   24700591.8714
        38.5004         32.2504
 -38391460.21546 -29840473.10243  25271803.5474                   25271802.6214
        37.7504         20.5004
    163393.48446    168164.66444  24880110.5864                   24880115.2034
        40.2504         27.5004
 -60169470.72347 -46832125.65246  22424661.0084                   22424656.9844
        46.0004         41.0004
 -51498844.83246 -40082223.62544  23591963.9454                   23591966.1724
        39.5004         26.7504
 25  8  8  0 22 30.0000000  0 10G26G09G03G16G04G06G28G07G31G01
 -43052247.73847 -33494532.91847  21567724.2344                   21567723.2344
        47.0004         44.7504
 -16851278.63747 -13092171.87546  23112501.3204                   23112500.8794
        43.5004         38.5004
 -58836109.25848 -45804800.32448  20014593.8984                   20014591.8364
        48.7504         51.0004
 -26592791.73447 -22748995.82445  21628243.5864                   21628240.1804
        45.0004         33.2504
 -49589034.59847 -38598576.91046  20882798.2814                   20882795.0474
        47.0004         37.5004
  -6609413.50846  -5071247.13745  24677696.5314                   24677697.9344
        37.7504         32.0004
 -38381816.64146 -29832958.66443  25273638.4774                   25273637.7934
        38.7504         21.0004
     -7872.91046     34710.70344  24847519.7814                   24847523.4064
        39.7504         27.5004
 -60166321.35547 -46829671.64146  22425260.5394                   22425256.2704
        46.2504         41.0004
 -51495564.99646 -40079668.18444  23592588.7584                   23592590.3014
        40.0004         27.0004
 25  8  8  0 23  0.0000000  0 10G26G09G03G16G04G06G28G07G31G01
 -43121963.19547 -33548856.63747  21554457.9774                   21554457.0044
        47.5004         44.5004
 -17016398.64147 -13220836.69946  23081079.8674                   23081079.6564
        43.5004         38.5004
 -58905901.84048 -45859184.15248  20001312.9924                   20001310.6134
        49.2504         50.7504
 -26753484.27047 -22874210.69945  21597665.0864                   21597661.5314
        45.7504         32.5004
 -49713172.25847 -38695307.53146  20859175.4224                   20859172.3244
        47.5004         37.2504
  -6729230.88346  -5164611.29345  24654895.1884                   24654897.5004
        37.2504         33.0004
 -38372242.39546 -29825498.27743  25275461.1954                   25275459.7544
        38.7504         20.7504
   -179005.00046    -98638.59844  24814953.8054                   24814958.1054
        40.5004         28.2504
 -60163035.83647 -46827111.53546  22425885.7274                   22425881.8634
        45.7504         41.0004
 -51492227.14546 -40077067.50844  23593223.7664                   23593226.0164
        41.2504         26.2504
 25  8  8  0 23 30.0000000  0 10G26G09G03G16G04G06G28G07G31G01
 -43191092.19947 -33602723.38747  21541303.2894                   21541302.2194
        47.0004         44.5004
 -17181510.57847 -13349495.24246  23049660.2814                   23049660.2344
        42.0004         38.7504
 -58975148.78548 -45913142.82048  19988135.6804                   19988133.5514
        49.2504         50.7504
 -26913740.83647 -22999085.86345  21567169.5864                   21567165.0124
        45.5004         33.2504
 -49837172.10247 -38791930.75446  20835579.2894                   20835575.9144
        47.0004         37.0004
  -6848557.04346  -5257592.68045  24632188.3054                   24632189.8014
        37.5004         33.2504
 -38362740.41046 -29818094.19943  25277269.3054                   25277267.9384
        40.5004         22.2504
   -350003.91046   -231884.14544  24782413.5944                   24782417.9734
        40.0004         27.7504
 -60159619.00847 -46824449.12146  22426536.3284                   22426532.3754
        45.5004         40.2504
 -51488836.12947 -40074425.44144  23593868.7504                   23593871.2344
        42.2504         26.5004
 25  8  8  0 24  0.0000000  0 10G26G09G03G16G04G06G28G07G31G01
 -43259631.27047 -33656130.44547  21528260.5704                   21528259.3134
        46.5004         44.2504
 -17346609.81647 -13478143.87546  23018242.6484                   23018242.6094
        42.0004         39.5004
 -59043846.02348 -45966673.13748  19975063.0704                   19975061.1174
        49.0004         50.7504
 -27073554.52747 -23123615.93045  21536757.5004                   21536753.7774
        45.2504         33.2504
 -49961029.45747 -38888442.94946  20812010.1024                   20812006.9144
        46.5004         38.0004
  -6967387.27346  -5350187.63345  24609576.4384                   24609577.4144
        37.0004         33.0004
 -38353307.90646 -29810744.24643  25279064.7034                   25279062.8754
        40.0004         21.0004
   -520864.84846   -365022.18044  24749899.5084                   24749903.7424
        40.5004         28.2504
 -60156068.88747 -46821682.83646  22427211.7424                   22427207.7664
        45.5004         41.0004
 -51485390.91047 -40071741.11744  23594525.3754                   23594527.1804
        42.5004         28.0004
 25  8  8  0 24 30.0000000  0 10G26G09G03G16G04G06G28G07G31G01
 -43327580.90647 -33709078.20347  21515329.6954                   21515328.9024
        46.5004         44.0004
 -17511695.78147 -13606782.17246  22986827.2584                   22986827.8204
        42.5004         39.0004
 -59111993.37948 -46019774.97748  19962094.7894                   19962093.1644
        48.2504         51.0004
 -27232921.58247 -23247797.96545  21506431.0004                   21506427.0824
        44.7504         34.0004
 -50084743.51247 -38984843.48446  20788467.4694                   20788464.6414
        46.5004         37.5004
  -7085720.79346  -5442395.54745  24587057.7344                   24587059.2734
        38.2504         32.7504
 -38343946.06646 -29803449.35543  25280845.0864                   25280844.1804
        39.5004         19.2504
   -691586.73046   -498051.87544  24717412.8834                   24717415.9534
        41.0004         27.5004
 -60152387.39847 -46818814.19146  22427912.3834                   22427908.2624
        45.5004         40.7504
