     2.11           OBSERVATION DATA    G (GPS)             RINEX VERSION / TYPE
teqc  2019Feb25     K Baraggiotta       20250819 21:03:48UTCPGM / RUN BY / DATE
Linux 2.6.32-573.12.1.x86_64|x86_64|gcc -static|Linux 64|=+ COMMENT
teqc  2019Feb25                         20250819 21:03:25UTCCOMMENT
BIT 2 OF LLI FLAGS DATA COLLECTED UNDER A/S CONDITION       COMMENT
RITA                                                        MARKER NAME
                                                            MARKER NUMBER
Katie Baraggiotta   University of California, Riverside     OBSERVER / AGENCY
0220413523          TRIMBLE R7          2.32                REC # / TYPE / VERS
12606420            TRM41249.00                             ANT # / TYPE
 -2405689.2714 -4505259.4976  3810979.4773                  APPROX POSITION XYZ
        0.9299        0.0000        0.0000                  ANTENNA: DELTA H/E/N
     1     1                                                WAVELENGTH FACT L1/2
     7    L1    L2    C1    P1    P2    S1    S2            # / TYPES OF OBSERV
    18                                                      LEAP SECONDS
 SNR is mapped to RINEX snr flag value [0-9]                COMMENT
  L1 & L2: min(max(int(snr_dBHz/6), 0), 9)                  COMMENT
  2025     8     6     0     0   30.0000000     GPS         TIME OF FIRST OBS
                                                            END OF HEADER
 25  8  6  0  0 30.0000000  0 10G01G02G03G04G16G26G28G31G06G09
   1383081.27757   1070757.28554  22781310.9384                   22781313.1954
        44.5004         29.7504
   2312364.31356   1784013.38353  24806919.6484                   24806926.6484
        37.2504         20.0004
  -4856926.02058  -3745783.01658  20087738.8674                   20087740.1764
        48.7504         50.7504
  -6266114.21157  -4839750.26255  21386060.8914                   21386061.5164
        45.5004         34.7504
  -9439992.48057  -7274997.14154  22821950.4534                   22821951.9614
        43.2504         26.2504
  -5593737.59057  -4321681.71157  21712713.2344                   21712715.8014
        46.0004         42.0004
   2685047.99656   2074306.97353  24171117.2504                   24171118.6994
        37.0004         19.7504
    812318.21157    630647.24657  21496884.6724                   21496883.2464
        46.5004         44.0004
  -3715644.77756  -2865863.69953  25189133.3674                   25189138.5944
        37.5004         22.7504
  -8148148.43756  -6277707.64855  24046304.5084                   24046310.3484
        38.0004         31.0004
 25  8  6  0  1  0.0000000  0 10G01G02G03G04G16G26G28G31G06G09
   1413230.10247   1094249.75444  22787047.8594                   22787050.8954
        44.0004         28.2504
   2347267.36746   1811210.19543  24813561.9144                   24813568.3324
        38.7504         19.7504
  -4921845.19148  -3796369.37548  20075385.4924                   20075386.5394
        49.7504         50.7504
  -6365064.86747  -4916854.62145  21367230.9844                   21367231.8794
        46.2504         34.7504
  -9589558.76647  -7391542.09844  22793488.6954                   22793490.5864
        43.2504         26.5004
  -5669034.15247  -4380354.29747  21698384.8914                   21698387.9614
        46.5004         42.5004
   2729619.74646   2109038.10943  24179598.4304                   24179600.9264
        38.2504         20.2504
    835127.42647    648420.64547  21501225.0864                   21501223.8914
        46.7504         44.0004
  -3828703.80146  -2953961.66443  25167619.0554                   25167624.0704
        37.0004         22.0004
  -8281537.97746  -6381647.37945  24020920.3984                   24020926.4734
        37.7504         32.0004
 25  8  6  0  1 30.0000000  0 10G01G02G03G04G16G26G28G31G06G09
   1443578.96947   1117898.09444  22792822.5784                   22792825.6564
        44.2504         29.0004
   2382051.19946   1838314.18043  24820180.5394                   24820188.7274
        36.0004         19.7504
  -4986284.07048  -3846581.48448  20063122.7974                   20063124.2344
        50.0004         50.7504
  -6463918.55147  -4993883.43045  21348419.9304                   21348420.5084
        46.5004         35.0004
  -9738933.52347  -7507937.85244  22765063.6174                   22765065.3524
        42.2504         26.7504
  -5743793.07047  -4438607.95347  21684158.6174                   21684161.5554
        46.5004         42.7504
   2774200.05146   2143775.97743  24188082.3284                   24188083.7814
        38.0004         19.2504
    858205.00847    666403.16047  21505616.6884                   21505615.3914
        46.2504         43.7504
  -3941367.96546  -3041751.98443  25146180.3674                   25146185.2464
        37.0004         22.5004
  -8414958.89846  -6485611.56645  23995532.0474                   23995536.9574
        38.5004         32.0004
 25  8  6  0  2  0.0000000  0 10G01G02G03G04G16G26G28G31G06G09
   1474123.22347   1141698.68844  22798635.4304                   22798638.0004
        43.0004         28.0004
   2416712.04746   1865322.30543  24826777.6484                   24826784.2544
        38.5004         20.5004
  -5050243.04748  -3896419.63748  20050952.0314                   20050953.1254
        49.7504         50.5004
  -6562676.51247  -5070837.63745  21329626.4774                   21329627.5744
        46.2504         34.5004
  -9888114.45747  -7624182.56644  22736675.2194                   22736676.8134
        43.0004         27.0004
  -5818014.66447  -4496442.90647  21670034.6174                   21670037.7504
        46.7504         42.7504
   2818785.50846   2178517.80943  24196568.0004                   24196567.5434
        39.7504         19.2504
    881546.75847    684591.52347  21510058.4844                   21510057.4104
        46.2504         43.5004
  -4053636.95345  -3129234.31244  25124816.4064                   25124820.4734
        35.7504         24.0004
  -8548412.58646  -6589601.30545  23970135.9924                   23970142.0004
        38.5004         32.5004
 25  8  6  0  2 30.0000000  0 10G01G02G03G04G16G26G28G31G06G09
   1504859.14147   1165648.62544  22804484.2274                   22804487.1134
        43.5004         28.0004
   2451246.33246   1892231.82443  24833349.5004                   24833356.2664
        37.5004         21.0004
  -5113721.61348  -3945883.44948  20038872.2194                   20038873.6334
        50.7504         50.7504
  -6661339.14547  -5147717.55145  21310851.9064                   21310852.6174
        46.5004         34.5004
 -10037099.18047  -7740274.39844  22708324.2974                   22708325.9844
        43.0004         27.2504
  -5891698.39147  -4553858.75447  21656012.6954                   21656015.8164
        46.0004         42.2504
   2863373.52046   2213261.68843  24205051.4454                   24205052.4884
        40.0004         20.2504
    905149.71147    702983.41047  21514549.8754                   21514548.8324
        46.7504         43.7504
  -4165509.68445  -3216407.88743  25103526.6724                   25103531.9454
        34.7504         22.7504
  -8681899.48446  -6693616.90645  23944734.1094                   23944740.5354
        37.5004         31.7504
 25  8  6  0  3  0.0000000  0 10G01G02G03G04G16G26G28G31G06G09
   1535787.66847   1189748.64544  22810370.1724                   22810373.0314
        43.5004         29.2504
   2485655.87546   1919044.14143  24839897.5084                   24839904.1604
        37.5004         18.5004
  -5176714.53948  -3994968.83648  20026884.7664                   20026886.6994
        50.0004         50.7504
  -6759902.04347  -5224519.76645  21292095.3754                   21292096.0824
        46.7504         34.2504
 -10185879.96547  -7856207.28144  22680012.3594                   22680013.9184
        43.5004         26.2504
  -5964839.03947  -4610851.42247  21642094.6724                   21642097.6254
        46.2504         42.5004
   2907966.18846   2248009.13343  24213537.6094                   24213538.5594
        38.7504         20.7504
    929015.30947    721579.96147  21519091.5234                   21519090.5164
        47.2504         43.7504
  -4276980.26245  -3303268.07444  25082315.0394                   25082319.8244
        35.5004         26.0004
  -8815415.32846  -6797655.03945  23919326.8524                   23919332.6454
        37.7504         31.0004
 25  8  6  0  3 30.0000000  0 10G01G02G03G04G16G26G28G31G06G09
   1566906.85547   1213997.21544  22816291.9064                   22816295.3914
        43.5004         28.0004
   2519939.00446   1945757.96543  24846422.1884                   24846429.1094
        39.0004         21.5004
  -5239219.60248  -4043674.07848  20014990.6724                   20014992.1454
        50.0004         50.7504
  -6858363.77347  -5301243.14145  21273359.4224                   21273359.5744
        45.7504         34.2504
 -10334452.15247  -7971977.63744  22651739.4614                   22651741.2664
        42.5004         27.0004
  -6037434.31647  -4667419.12547  21628280.1884                   21628283.0944
        45.7504         42.5004
   2952562.82846   2282759.69943  24222024.3054                   24222025.1454
        39.2504         21.5004
    953142.07447    740380.01647  21523682.5004                   21523681.4064
        47.5004         44.0004
  -4388045.87945  -3389812.69144  25061179.6484                   25061184.7464
        35.5004         26.2504
  -8948958.69146  -6901714.62945  23893913.8834                   23893919.9534
        37.5004         30.5004
 25  8  6  0  4  0.0000000  0 10G01G02G03G04G16G26G28G31G06G09
   1598211.97346   1238390.68444  22822248.8444                   22822252.4224
        41.7504         27.7504
   2554091.44946   1972369.88743  24852920.2504                   24852928.7074
        36.5004         20.5004
  -5301237.35548  -4091999.59048  20003189.2344                   20003190.8594
        50.0004         50.7504
  -6956725.71547  -5377888.75445  21254641.4384                   21254641.8364
        47.0004         34.7504
 -10482813.77347  -8087583.92244  22623507.3834                   22623509.0944
        42.0004         26.5004
  -6109484.78547  -4723562.29747  21614569.2344                   21614572.3674
        46.2504         42.5004
   2997159.75846   2317510.48043  24230510.7114                   24230511.5634
        39.7504         20.7504
    977525.71547    759380.24247  21528322.8754                   21528321.6094
        47.0004         43.7504
  -4498706.42645  -3476041.66044  25040121.7974                   25040126.8364
        34.7504         26.7504
  -9082531.12546  -7005796.87545  23868496.7814                   23868501.4844
        38.7504         31.5004
 25  8  6  0  4 30.0000000  0 10G01G02G03G04G16G26G28G31G06G09
   1629699.50447   1262926.29344  22828240.7734                   22828244.2114
        42.2504         27.0004
   2588110.62946   1998878.06643  24859394.4454                   24859401.9384
        38.0004         18.5004
  -5362767.17248  -4139944.89848  19991480.2114                   19991481.9654
        49.7504         50.7504
  -7054987.97347  -5454456.68745  21235942.5004                   21235943.4654
        46.7504         35.0004
 -10630962.00447  -8203023.92244  22595315.4694                   22595317.0824
        42.2504         27.0004
  -6180989.81247  -4779280.45747  21600962.4694                   21600965.4804
        46.0004         42.7504
   3041754.76246   2352259.77343  24238996.2814                   24238997.8554
        41.2504         20.7504
   1002163.22347    778578.27347  21533011.1254                   21533010.0434
        47.2504         43.5004
  -4608960.64546  -3561954.00444  25019141.6414                   25019146.5864
        36.2504         28.0004
  -9216132.76246  -7109901.91445  23843072.6174                   23843077.1254
        39.2504         31.5004
 25  8  6  0  5  0.0000000  0 10G01G02G03G04G16G26G28G31G06G09
   1661369.11746   1287603.77344  22834267.8594                   22834270.9384
        41.7504         27.5004
   2621996.95346   2025282.71143  24865843.6024                   24865851.0084
        37.2504         19.7504
  -5423805.10248  -4187506.91448  19979865.2974                   19979867.0314
        49.5004         50.7504
  -7153147.34447  -5530944.45745  21217263.7894                   21217263.8914
        46.0004         35.0004
 -10778890.38346  -8318292.61744  22567165.3834                   22567166.8364
        41.5004         27.0004
  -6251945.45347  -4834570.50447  21587460.1174                   21587463.2274
        45.7504         42.5004
   3086348.74646   2387008.30943  24247482.3284                   24247484.0744
        41.2504         22.2504
   1027054.59848    797974.12147  21537747.9844                   21537746.5704
        48.0004         43.5004
  -4718803.97746  -3647546.18044  24998238.4064                   24998244.0004
        36.5004         29.2504
  -9349760.50046  -7214027.28145  23817644.0084                   23817649.0664
        40.2504         32.7504
 25  8  6  0  5 30.0000000  0 10G01G02G03G04G16G26G28G31G06G09
   1693219.81646   1312422.37944  22840328.6414                   22840332.0234
        41.7504         27.0004
   2655749.69146   2051583.16843  24872266.3054                   24872273.8984
        37.7504         18.2504
  -5484348.13748  -4234683.30548  19968344.2664                   19968345.7734
        50.0004         50.7504
  -7251201.53947  -5607350.26245  21198604.3204                   21198604.9224
        46.5004         35.2504
 -10926593.51247  -8433385.78544  22539058.5164                   22539059.6954
        42.0004         27.5004
  -6322348.71547  -4889430.14547  21574062.6804                   21574065.8874
        46.2504         42.5004
   3130941.88746   2421756.18043  24255968.3754                   24255969.6454
        41.2504         22.7504
   1052199.27747    817567.35947  21542532.3754                   21542531.4804
        47.5004         43.0004
  -4828232.75046  -3732815.31644  24977415.4694                   24977420.8714
        37.7504         29.5004
  -9483412.21946  -7318171.31245  23792211.3674                   23792215.6134
        40.0004         33.0004
 25  8  6  0  6  0.0000000  0 10G01G02G03G04G16G26G28G31G06G09
   1725248.32846   1337379.52344  22846423.3054                   22846426.7974
        41.5004         27.0004
   2689366.16845   2077777.62542  24878663.5234                   24878671.0784
        35.2504         16.2504
  -5544395.35248  -4281473.32848  19956917.7114                   19956919.2544
        48.7504         50.7504
  -7349150.29747  -5683673.90245  21179965.2344                   21179965.9264
        46.7504         34.7504
 -11074068.03546  -8548300.82844  22510995.0474                   22510996.3794
        40.7504         26.7504
  -6392198.70747  -4943858.66447  21560770.8134                   21560773.4384
        46.0004         42.7504
   3175532.20746   2456501.84044  24264453.6094                   24264455.0594
        41.5004         24.7504
   1077594.57847    837355.88347  21547365.5474                   21547364.0904
        47.7504         43.2504
  -4937245.40646  -3817760.19945  24956671.3444                   24956675.9494
        39.7504         32.2504
  -9617087.62946  -7422333.83245  23766773.0394                   23766778.5084
        40.7504         34.5004
 25  8  6  0  6 30.0000000  0 10G01G02G03G04G16G26G28G31G06G09
   1757452.81646   1362473.80144  22852551.9224                   22852555.3134
        41.2504         27.7504
   2722845.16846   2103864.79743  24885035.5394                   24885042.3714
        37.0004         19.0004
  -5603944.42248  -4327875.19948  19945585.8524                   19945587.1334
        50.0004         50.7504
  -7446992.00047  -5759914.13345  21161346.8674                   21161347.2034
        46.7504         35.5004
 -11221309.03146  -8663033.90244  22482975.1484                   22482977.2274
        40.7504         27.0004
  -6461493.13347  -4997854.27347  21547584.1484                   21547587.3834
        45.7504         42.5004
   3220119.14546   2491244.83243  24272938.6094                   24272940.1094
        40.0004         22.5004
   1103239.52347    857338.93047  21552245.1414                   21552244.1174
        47.5004         43.0004
  -5045838.94546  -3902378.54345  24936006.8204                   24936011.3984
        40.2504         34.0004
  -9750785.28946  -7526513.66845  23741331.5394                   23741337.1254
        41.5004         33.5004
 25  8  6  0  7  0.0000000  0 10G01G02G03G04G16G26G28G31G06G09
   1789833.60246   1387705.44144  22858713.8914                   22858717.2934
        40.7504         27.5004
   2756187.78546   2129845.77343  24891379.9304                   24891386.8874
        37.0004         19.2504
  -5662991.00048  -4373885.51248  19934349.6484                   19934350.9844
        50.5004         51.0004
  -7544722.91447  -5836068.02045  21142748.6884                   21142749.4344
        47.0004         35.0004
 -11368309.44946  -8777579.50444  22455002.0634                   22455003.5354
        41.0004         26.5004
  -6530227.66447  -5051413.60247  21534504.3594                   21534507.6024
        46.5004         42.7504
   3264704.23846   2525986.41044  24281423.1564                   24281424.7424
        41.0004         26.0004
   1129134.52747    877516.82047  21557173.1484                   21557172.4414
        47.7504         42.7504
  -5154008.44546  -3986666.45745  24915421.9224                   24915427.1024
        40.7504         34.2504
  -9884501.55146  -7630707.98045  23715886.0944                   23715891.4384
        40.7504         33.7504
 25  8  6  0  7 30.0000000  0 10G01G02G03G04G16G26G28G31G06G09
   1822386.03946   1413070.84844  22864908.2894                   22864911.5394
        41.5004         27.0004
   2789389.88346   2155717.27043  24897697.7504                   24897705.7274
        36.7504         19.2504
  -5721535.73848  -4419504.77748  19923209.0164                   19923210.3014
        49.7504         50.7504
  -7642344.28547  -5912136.55945  21124171.7504                   21124172.5044
        46.7504         35.0004
 -11515067.90247  -8891936.56644  22427074.7664                   22427076.3524
        42.0004         26.0004
  -6598402.98847  -5104537.18447  21521530.7894                   21521534.4574
        46.0004         42.5004
   3309284.03146   2560723.84044  24289906.5944                   24289907.7234
        41.0004         24.2504
   1155275.60947    897886.46547  21562147.3204                   21562146.4344
        47.7504         43.0004
  -5261753.85246  -4070623.89845  24894918.8834                   24894924.0744
        41.0004         34.0004
 -10018237.75446  -7734917.84045  23690436.3134                   23690441.5664
        40.5004         33.0004
 25  8  6  0  8  0.0000000  0 10G01G02G03G04G16G26G28G31G06G09
   1855105.25447   1438566.21944  22871134.7734                   22871138.3284
        42.2504         27.2504
   2822447.16846   2181475.83843  24903989.5474                   24903996.5984
        38.2504         22.5004
  -5779579.30548  -4464733.52048  19912163.7974                   19912164.9694
        49.0004         50.7504
  -7739857.38747  -5988120.73045  21105616.3364                   21105616.7624
        47.2504         35.5004
 -11661582.35546  -9006103.51244  22399193.4844                   22399195.3054
        41.5004         27.0004
  -6666019.85947  -5157225.60547  21508663.9144                   21508667.1454
        46.2504         42.7504
   3353855.07846   2595454.48044  24298387.9844                   24298389.4104
        41.5004         26.7504
   1181658.51647    918444.54347  21567167.9534                   21567167.0434
        47.5004         43.0004
  -5369075.20346  -4154250.89845  24874496.6804                   24874501.4264
        41.2504         34.2504
 -10151995.27046  -7839144.30945  23664982.8284                   23664988.3094
        39.7504         31.7504
 25  8  6  0  8 30.0000000  0 10G01G02G03G04G16G26G28G31G06G09
   1887987.43446   1464188.55544  22877391.9534                   22877395.9024
        41.0004         27.7504
   2855356.52046   2207119.11743  24910251.1254                   24910259.3014
        38.0004         20.5004
  -5837121.57848  -4509571.64848  19901213.6804                   19901215.1254
        50.5004         50.5004
  -7837262.69947  -6064020.90645  21087080.2504                   21087080.6524
        47.0004         35.5004
 -11807849.82847  -9120077.99644  22371360.2974                   22371361.6024
        42.0004         25.7504
  -6733078.18447  -5209478.79747  21495903.4064                   21495906.2934
        45.7504         42.5004
   3398414.79746   2630176.23843  24306867.6724                   24306868.9144
        39.7504         22.7504
   1208279.89147    939188.45347  21572233.9774                   21572232.6804
        47.5004         43.0004
  -5475971.69546  -4237546.85245  24854154.8364                   24854160.0784
        40.7504         33.7504
 -10285774.66046  -7943387.79345  23639525.9924                   23639530.7774
        39.7504         32.5004
 25  8  6  0  9  0.0000000  0 10G01G02G03G04G16G26G28G31G06G09
   1921033.19947   1489938.36744  22883680.8524                   22883683.8554
        43.0004         27.0004
   2888119.47746   2232648.41843  24916486.3204                   24916494.5984
        40.2504         21.5004
  -5894157.90248  -4554015.53148  19890360.2814                   19890361.5004
        50.0004         50.5004
  -7934556.02347  -6139833.82445  21068566.1414                   21068566.7664
        47.2504         35.5004
 -11953863.46547  -9233854.71144  22343574.5634                   22343575.3054
        42.2504         27.7504
  -6799573.36347  -5261293.17647  21483249.3984                   21483252.4924
        46.0004         42.5004
   3442965.09046   2664890.70343  24315344.5634                   24315346.8674
        36.7504         21.0004
   1235140.43847    960118.71947  21577345.4064                   21577344.0434
        47.5004         43.0004
  -5582438.01246  -4320507.59445  24833894.9384                   24833900.1604
        40.0004         32.5004
 -10419571.86346  -8047645.17245  23614064.2034                   23614069.4344
        39.5004         32.2504
 25  8  6  0  9 30.0000000  0 10G01G02G03G04G16G26G28G31G06G09
   1954236.37546   1515810.85244  22889999.1334                   22890002.1804
        41.5004         26.7504
   2920730.16846   2258059.08244  24922693.1334                   24922700.8984
        40.5004         24.0004
  -5950690.41448  -4598066.82448  19879602.3204                   19879603.4884
        49.5004         50.5004
  -8031740.09847  -6215561.61745  21050072.6804                   21050072.8324
        47.5004         34.7504
 -12099622.68447  -9347433.16044  22315837.0634                   22315838.3134
        43.0004         27.5004
  -6865507.66447  -5312670.49647  21470702.2344                   21470705.5474
        45.2504         42.5004
   3487501.28945   2699594.12943  24323820.0004                   24323821.8364
        34.7504         18.2504
   1262234.93047    981231.28547  21582501.4844                   21582500.2734
        47.5004         42.7504
  -5688475.67246  -4403134.32045  24813716.3984                   24813721.5274
        39.7504         32.0004
 -10553389.67246  -8151918.62145  23588599.9454                   23588604.8404
        40.5004         31.7504
 25  8  6  0 10  0.0000000  0 10G01G02G03G04G16G26G28G31G06G09
   1987599.90646   1541808.28544  22896348.1804                   22896351.9184
        41.5004         27.5004
   2953192.39546   2283354.03943  24928869.9144                   24928878.4414
        37.7504         21.7504
  -6006712.23448  -4641720.18048  19868941.6334                   19868942.6134
        50.7504         50.7504
  -8128808.46147  -6291199.24645  21031600.8524                   21031601.4024
        47.5004         35.5004
 -12245117.98447  -9460805.97744  22288149.9844                   22288151.5004
        42.5004         28.2504
  -6930874.21547  -5363605.41447  21458264.3054                   21458266.6684
        45.7504         42.7504
   3532027.56645   2734289.84842  24332292.5474                   24332294.6954
        33.2504         16.7504
   1289566.87947   1002528.89147  21587702.2664                   21587701.4924
        47.0004         42.5004
  -5794077.12146  -4485421.14145  24793621.2424                   24793625.9844
        38.2504         30.2504
 -10687221.84446  -8256203.26645  23563132.5784                   23563136.6844
        39.5004         31.7504
 25  8  6  0 10 30.0000000  0 10G01G02G03G04G16G26G28G31G06G09
   2021118.37146   1567926.43444  22902726.7274                   22902730.8134
        41.0004         27.2504
   2985501.47346   2308529.63343  24935017.8594                   24935026.3984
        37.5004         21.5004
  -6062224.84848  -4684976.75448  19858377.9844                   19858379.1294
        50.5004         50.5004
  -8225763.07047  -6366748.23445  21013151.1024                   21013151.3714
        47.5004         35.5004
 -12390348.04747  -9573972.08244  22260513.6414                   22260515.0554
        43.0004         28.0004
  -6995674.64147  -5414099.20747  21445932.5554                   21445935.6414
        46.0004         43.0004
   3576539.69146   2768974.50042  24340763.3914                   24340764.9734
        38.2504         16.7504
   1317131.50047   1024007.79347  21592947.9774                   21592947.0554
        47.2504         43.0004
  -5899243.13346  -4567368.68744  24773608.4384                   24773613.5204
        37.7504         28.0004
 -10821070.25046  -8360500.55545  23537661.2664                   23537666.3444
        40.0004         34.0004
 25  8  6  0 11  0.0000000  0 10G01G02G03G04G16G26G28G31G06G09
   2054786.35946   1594161.09844  22909133.6024                   22909137.1954
        41.7504         26.7504
   3017652.19146   2333581.79343  24941136.5394                   24941145.5164
        36.5004         20.5004
  -6117229.65248  -4727837.62948  19847910.8444                   19847911.9104
        50.5004         50.5004
  -8322605.73847  -6442210.00445  20994722.2424                   20994723.0044
        47.7504         35.0004
 -12535311.95747  -9686930.82044  22232928.2194                   22232928.9384
        43.5004         28.0004
  -7059910.37547  -5464152.97347  21433709.1094                   21433711.6994
        45.0004         42.7504
   3621033.68446   2803645.14843  24349230.3914                   24349231.6724
        40.0004         20.7504
   1344923.82847   1045664.13347  21598236.5704                   21598235.5864
        46.7504         42.5004
  -6003974.47746  -4648977.50444  24753679.1804                   24753684.3164
        36.5004         27.5004
 -10954936.89846  -8464812.05545  23512187.7344                   23512192.2424
        40.7504         34.2504
 25  8  6  0 11 30.0000000  0 10G01G02G03G04G16G26G28G31G06G09
   2088605.97346   1620513.91044  22915569.6644                   22915573.1884
        41.2504         26.7504
   3049648.15645   2358513.48443  24947225.0004                   24947234.3524
        35.2504         19.2504
  -6171720.66448  -4770298.14548  19837541.7664                   19837542.7584
        49.7504         50.5004
  -8419330.94147  -6517580.23845  20976316.3674                   20976316.5704
        47.5004         35.5004
 -12680000.98047  -9799675.35544  22205394.8524                   22205395.3444
        42.7504         28.0004
  -7123575.60547  -5513762.20347  21421594.2194                   21421596.4964
        45.0004         43.5004
   3665513.06346   2838304.34443  24357694.5394                   24357696.0984
        40.5004         22.5004
   1372946.32047   1067499.82447  21603568.8364                   21603567.9304
        45.7504         42.2504
  -6108264.53545  -4730242.45344  24733832.5864                   24733838.6134
        34.5004         24.5004
 -11088816.35547  -8569133.52745  23486712.2424                   23486715.3674
        42.0004         34.7504
 25  8  6  0 12  0.0000000  0 10G01G02G03G04G16G26G28G31G06G09
   2122580.28947   1646987.25844  22922034.7504                   22922038.2384
        42.0004         27.5004
   3081492.63345   2383327.05943  24953284.8674                   24953293.8134
        33.2504         18.2504
  -6225690.98848  -4812352.93048  19827271.3754                   19827272.5704
        50.2504         50.5004
  -8515932.09847  -6592853.80545  20957933.7274                   20957934.1024
        47.5004         35.5004
 -12824405.28547  -9912198.03944  22177915.3524                   22177916.3914
        43.5004         28.0004
  -7186663.50447  -5562921.55147  21409588.5634                   21409591.2934
        46.5004         43.2504
   3709982.17647   2872955.53544  24366157.0784                   24366158.4654
        42.0004         24.2504
   1401202.78547   1089517.83247  21608945.8364                   21608944.5234
        47.5004         42.0004
  -6212105.75445  -4811157.61743  24714072.8834                   24714077.2074
        33.0004         22.0004
 -11222702.20746  -8673460.00845  23461233.5944                   23461237.7584
        40.7504         34.7504
 25  8  6  0 12 30.0000000  0 10G01G02G03G04G16G26G28G31G06G09
   2156706.55546   1673579.03944  22928528.3524                   22928532.4224
        41.0004         27.0004
   3113183.64845   2408021.07442  24959316.6414                   24959324.9574
        34.7504         17.7504
  -6279139.35548  -4854001.00048  19817100.1174                   19817101.7814
        50.0004         50.5004
  -8612408.35947  -6668030.06245  20939574.6954                   20939575.2344
        47.7504         35.2504
 -12968521.22347 -10024496.02744  22150490.7504                   22150491.8444
        43.7504         28.5004
  -7249172.92647  -5611630.13747  21397693.4224                   21397696.2624
        47.0004         43.0004
   3754439.79347   2907597.74643  24374617.0234                   24374618.2154
        42.2504         23.0004
   1429690.74647   1111716.23046  21614367.5004                   21614365.8554
        47.5004         41.7504
  -6315496.20745  -4891721.55543  24694398.7894                   24694402.4104
        35.0004         21.5004
 -11356593.57846  -8777790.77745  23435755.5554                   23435758.8754
        40.7504         34.0004
 25  8  6  0 13  0.0000000  0 10G01G02G03G04G16G26G28G31G06G09
   2190982.68846   1700287.57044  22935051.9534                   22935054.8674
        40.7504         27.7504
   3144719.88345   2432594.49642  24965317.5004                   24965326.4694
        33.7504         16.2504
  -6332064.14848  -4895241.09048  19807029.0394                   19807030.6374
        50.0004         50.5004
  -8708758.37947  -6743107.94945  20921239.8284                   20921240.2304
        47.0004         35.5004
 -13112344.65247 -10136566.06644  22123121.8054                   22123123.1884
        43.2504         29.5004
  -7311102.34047  -5659886.77747  21385908.3754                   21385911.2424
        45.2504         42.7504
   3798885.07046   2942230.39843  24383074.1954                   24383075.9964
        40.5004         22.5004
   1458408.90647   1134094.00847  21619832.0084                   21619831.0904
        47.0004         42.0004
  -6418433.41446  -4971932.35243  24674809.6804                   24674813.9184
        36.7504         22.7504
 -11490489.38746  -8882124.98845  23410274.6414                   23410279.1294
        39.0004         34.0004
 25  8  6  0 13 30.0000000  0 10G01G02G03G04G16G26G28G31G06G09
   2225402.56346   1727108.10244  22941601.6414                   22941604.8324
        41.7504         26.2504
   3176095.62945   2457042.88342  24971287.7504                   24971298.3754
        33.2504         14.7504
  -6384467.55548  -4936074.90248  19797057.1724                   19797057.9844
        49.5004         50.5004
  -8804984.66447  -6818089.42645  20902928.4304                   20902928.5084
        47.2504         35.2504
 -13255874.57447 -10248407.43044  22095808.8364                   22095809.8634
        43.2504         28.7504
  -7372454.12947  -5707693.32047  21374233.6024                   21374236.4414
        46.0004         42.5004
   3843313.37546   2976849.74643  24391529.9844                   24391531.2114
        40.7504         22.7504
   1487351.91847   1156646.99646  21625339.9774                   21625338.5594
        47.7504         41.5004
  -6520919.06246  -5051791.28144  24655308.0704                   24655312.0744
        37.2504         26.5004
 -11624392.19146  -8986464.65645  23384793.5474                   23384798.1294
        40.0004         34.2504
 25  8  6  0 14  0.0000000  0 10G01G02G03G04G16G26G28G31G06G09
   2259964.09447   1754039.04744  22948178.4224                   22948182.0274
        42.0004         27.0004
   3207309.871 5                  24977229.414
        34.500
  -6436347.84448  -4976501.08648  19787184.5634                   19787185.7544
        49.7504         50.5004
  -8901085.77347  -6892973.35245  20884641.5164                   20884641.1844
        47.2504         35.0004
 -13399106.74647 -10360016.76644  22068552.4064                   22068553.2624
        43.2504         29.2504
  -7433226.68747  -5755048.50047  21362668.9614                   21362671.5984
        46.5004         42.5004
   3887724.12546   3011455.43843  24399980.2424                   24399982.1484
        40.0004         21.5004
   1516518.28947   1179374.03546  21630889.8134                   21630888.9924
        46.7504         41.7504
  -6622950.62146  -5131296.39144  24635891.8284                   24635896.0904
        37.2504         29.2504
 -11758300.60246  -9090808.70345  23359312.0314                   23359316.3634
        40.7504         35.2504
 25  8  6  0 14 30.0000000  0 10G01G02G03G04G16G26G28G31G06G09
   3870082.31647   3008676.50844  23254573.6884                   23254577.2894
        42.0004         26.2504
   4813778.484 5                  25282928.844
        35.000
  -4912283.42648  -3788918.41848  20077204.5084                   20077205.6914
        50.5004         50.5004
  -7421638.81647  -5740157.49646  21166170.4924                   21166171.2274
        47.5004         36.5004
 -11966613.73447  -9243788.28945  22341147.1484                   22341147.7734
        43.0004         30.2504
  -5917998.21147  -4574350.93747  21651007.2344                   21651010.1024
        45.2504         42.7504
   5507533.29746   4273644.31643  24708219.4144                   24708221.3674
        39.7504         20.2504
   3121323.41047   2429871.51246  21936274.0164                   21936272.9804
        46.7504         41.5004
  -5149104.19546  -3982844.60545  24916355.4144                   24916359.3444
        38.0004         30.5004
 -10316790.54346  -7967553.93745  23633621.9224                   23633626.5434
        40.7504         34.7504
 25  8  6  0 15  0.0000000  0 10G01G02G03G04G16G26G28G31G06G09
   3904913.43446   3035817.48044  23261201.9694                   23261205.0434
        41.5004         25.7504
   4844658.14146   3689989.83253  25288805.1954                   25288812.0164
        37.0004         20.2504
  -4963120.02048  -3828531.34048  20067530.4304                   20067531.9224
        49.0004         50.2504
  -7517492.75447  -5814848.82445  21147930.0634                   21147930.7664
        47.5004         35.5004
 -12109244.37947  -9354928.91844  22314005.1884                   22314005.5274
        43.2504         29.7504
  -5977615.20747  -4620805.69147  21639662.3364                   21639665.4344
        44.7504         43.0004
   5551899.19946   4308215.12943  24716662.4614                   24716663.9884
        39.5004         19.5004
   3150923.62947   2452936.61346  21941906.9924                   21941905.7584
        46.5004         41.7504
  -5250228.17246  -4061642.48845  24897111.5704                   24897116.7034
        39.2504         31.2504
 -10450713.71546  -8071909.49245  23608137.1334                   23608141.3674
        40.7504         35.0004
 25  8  6  0 15 30.0000000  0 10G01G02G03G04G16G26G28G31G06G09
   3939876.64146   3063061.43444  23267855.3134                   23267858.6374
        40.7504         25.2504
   4875368.87946   3713920.02043  25294650.7344                   25294658.7704
        38.7504         18.2504
  -5013431.76248  -3867735.28148  20057956.4534                   20057957.7504
        50.0004         50.5004
  -7613220.41447  -5889441.76245  21129713.8524                   21129714.1214
        47.5004         35.2504
 -12251566.79747  -9465829.35544  22286921.8594                   22286922.3634
        43.5004         29.2504
  -6036651.68747  -4666808.09447  21628428.3914                   21628431.3404
        45.0004         42.7504
   5596242.15646   4342768.01243  24725100.5554                   24725102.3794
        40.5004         20.2504
   3180739.02047   2476169.36746  21947580.5554                   21947579.4264
        45.5004         41.5004
  -5350894.35946  -4140083.65645  24877956.7034                   24877961.1684
        39.0004         32.5004
 -10584641.77346  -8176268.86345  23582651.2894                   23582655.7074
        40.2504         34.0004
 25  8  6  0 16  0.0000000  0 10G01G02G03G04G16G26G28G31G06G09
   3974965.31646   3090403.11743  23274532.6724                   23274535.5354
        40.7504         23.5004
   4905904.84046   3737714.10943  25300462.1334                   25300469.9024
        40.0004         19.2504
  -5063221.55548  -3906532.51648  20048481.9304                   20048483.2114
        50.0004         50.5004
  -7708824.87147  -5963938.69145  21111520.7344                   21111520.8674
        47.5004         35.7504
 -12393581.69947  -9576490.17644  22259897.1024                   22259898.0434
        42.5004         29.5004
  -6095110.67647  -4712360.49647  21617303.7034                   21617306.5164
        45.0004         42.5004
   5640557.02746   4377299.02743  24733533.1954                   24733535.5234
        40.2504         20.5004
   3210763.53147   2499565.07046  21953294.0554                   21953293.0124
        45.2504         41.0004
  -5451104.90646  -4218169.75045  24858886.0704                   24858891.7774
        39.7504         31.2504
 -10718577.80146  -8280634.43445  23557164.2194                   23557168.2304
        41.2504         34.7504
 25  8  6  0 16 30.0000000  0  9G01G03G04G16G26G28G31G06G09
   4010176.93846   3117840.61344  23281233.2974                   23281237.0474
        41.5004         26.2504
  -5112488.27048  -3944922.16048  20039106.8364                   20039108.0664
        49.5004         50.5004
  -7804305.13747  -6038338.85945  21093351.2344                   21093351.6374
        47.7504         35.7504
 -12535285.02347  -9686908.20744  22232931.4304                   22232932.8204
        43.5004         28.7504
  -6152991.24247  -4757462.19147  21606289.7194                   21606292.0634
        45.5004         42.5004
   5684842.71946   4411807.31643  24741960.8834                   24741962.6054
        39.7504         20.2504
   3240995.52747   2523122.44946  21959047.1804                   21959046.1804
        46.2504         41.0004
  -5550857.99246  -4295899.41445  24839904.0554                   24839908.5124
        38.5004         30.2504
 -10852520.91846  -8385005.56645  23531675.4844                   23531679.7194
        40.5004         34.7504
 25  8  6  0 17  0.0000000  0  9G01G03G04G16G26G28G31G06G09
   4045512.16847   3145374.41044  23287956.9924                   23287961.0204
        42.2504         26.2504
  -5161227.55148  -3982900.81648  20029832.0314                   20029833.2384
        49.7504         50.5004
  -7899656.93047  -6112638.91845  21075206.4224                   21075206.4844
        47.7504         35.5004
 -12676669.34447  -9797077.66844  22206027.2734                   22206028.0944
        43.0004         28.7504
  -6210289.15647  -4802109.87147  21595386.0944                   21595388.4804
        45.2504         42.7504
   5729101.36346   4446294.54343  24750382.8754                   24750384.6414
        40.0004         20.2504
   3271436.15247   2546842.40246  21964839.5084                   21964838.6094
        46.0004         41.5004
  -5650148.64146  -4373268.71145  24821009.9614                   24821014.1884
        39.2504         31.2504
 -10986467.02746  -8489378.99245  23506186.6094                   23506190.2854
        41.2504         35.5004
 25  8  6  0 17 30.0000000  0  9G01G03G04G16G26G28G31G06G09
   4080970.12946   3173003.86744  23294704.8444                   23294708.8484
        41.0004         25.7504
  -5209436.61748  -4020466.31248  20020658.1954                   20020659.3914
        50.5004         50.5004
  -7994877.61347  -6186836.81646  21057086.9144                   21057086.9414
        47.5004         36.0004
 -12817728.99647  -9906994.14544  22179184.4304                   22179185.1094
        43.5004         29.0004
  -6267001.89147  -4846301.57047  21584593.7664                   21584596.4264
        45.2504         42.7504
   5773333.55546   4480761.14543  24758800.8054                   24758802.2464
        39.5004         20.7504
   3302085.02747   2570724.63346  21970672.3284                   21970671.1684
        46.2504         41.2504
  -5748973.25046  -4450274.86745  24802204.3204                   24802208.6134
        37.7504         31.2504
 -11120413.55546  -8593752.75045  23480696.8834                   23480700.7234
        40.2504         35.2504
 25  8  6  0 18  0.0000000  0  9G01G03G04G16G26G28G31G06G09
   4116553.58646   3200731.08644  23301476.2974                   23301480.6174
        40.7504         25.0004
  -5257109.03548  -4057613.64848  20011586.4694                   20011587.6374
        50.0004         50.5004
  -8089960.79748  -6260927.57046  21038992.8524                   21038992.6914
        48.0004         36.0004
 -12958454.84847 -10016650.50844  22152404.9844                   22152405.8554
        43.0004         29.2504
  -6323123.16847  -4890032.39147  21573914.3914                   21573917.0314
        46.0004         42.7504
   5817543.52346   4515210.45343  24767212.5634                   24767214.5394
        37.5004         21.5004
   3332945.58647   2594771.82047  21976544.8834                   21976543.8554
        46.2504         42.0004
  -5847324.85546  -4526912.43745  24783487.7664                   24783492.2504
        36.5004         30.0004
 -11254354.22746  -8698121.93045  23455208.5704                   23455212.8244
        40.0004         35.2504
 25  8  6  0 18 30.0000000  0  9G01G03G04G16G26G28G31G06G09
   4152260.37146   3228554.41444  23308271.3674                   23308275.1884
        41.5004         26.7504
  -5304243.44948  -4094341.76248  20002616.9144                   20002618.3364
        49.7504         50.5004
  -8184905.12547  -6334910.13346  21020925.6954                   21020925.7274
        47.5004         36.0004
 -13098842.28147 -10126043.17244  22125689.8284                   22125690.6724
        44.0004         29.7504
  -6378651.83647  -4933301.42647  21563347.3054                   21563350.3094
        46.2504         42.5004
   5861730.53546   4549641.78943  24775621.8524                   24775623.2304
        36.5004         21.0004
   3364016.28947   2618982.73446  21982456.8134                   21982456.0044
        46.2504         41.2504
  -5945201.22345  -4603179.67644  24764862.8914                   24764867.3914
        35.2504         29.5004
 -11388287.72746  -8802485.53545  23429721.6334                   23429725.9654
        40.0004         35.5004
 25  8  6  0 19  0.0000000  0  9G01G03G04G16G26G28G31G06G09
   4188086.75046   3256470.93444  23315089.0314                   23315092.3794
        41.2504         25.5004
  -5350839.93048  -4130650.70348  19993750.1644                   19993751.2344
        51.0004         50.5004
  -8279710.66047  -6408784.54346  21002884.5004                   21002884.9804
        47.7504         36.0004
 -13238888.90647 -10235170.27045  22099039.5554                   22099040.5204
        43.2504         30.0004
  -6433588.13347  -4976108.88747  21552893.4064                   21552895.8794
        46.2504         42.7504
                                  24784025.055
        30.500
   3395293.79747   2643354.80546  21988408.9614                   21988407.5044
        45.7504         41.5004
  -6042601.89146  -4679076.27744  24746328.0164                   24746332.6764
        38.0004         29.2504
 -11522214.29746  -8906843.73445  23404236.4224                   23404240.0744
        39.2504         35.2504
 25  8  6  0 19 30.0000000  0  9G01G07G03G04G16G26G31G06G09
   4224029.44547   3284478.06644  23321928.3754                   23321932.5514
        42.0004         25.0004
   1388504.55955   1124567.29353  25288577.2974                   25288587.7234
        33.0004         22.7504
  -5396898.15648  -4166540.23048  19984985.3364                   19984986.6454
        50.0004         50.5004
  -8374377.09047  -6482550.56246  20984870.3204                   20984870.5354
        47.7504         36.2504
 -13378591.57047 -10344029.36344  22072455.4454                   22072456.2114
        44.0004         29.0004
  -6487932.00447  -5018454.71547  21542552.0944                   21542554.7584
        47.0004         42.7504
   3426775.64547   2667886.08247  21994400.0164                   21994398.8794
        46.2504         42.0004
  -6139525.78946  -4754601.39144  24727884.2274                   24727888.6804
        37.5004         29.0004
 -11656133.78546  -9011196.39845  23378752.1884                   23378756.6524
        39.5004         35.5004
 25  8  6  0 20  0.0000000  0  9G01G07G03G04G16G26G31G06G09
   4260080.94946   3312569.98844  23328788.8204                   23328793.1174
        41.5004         24.5004
                                  25261398.9144                   25261411.2584
        26.7504         16.7504
  -5442422.23448  -4202013.53548  19976322.3364                   19976323.8914
        50.5004         50.5004
  -8468908.36347  -6556211.26245  20966880.9924                   20966881.9454
        47.5004         35.7504
 -13517951.12147 -10452621.08644  22045935.5634                   22045936.6374
        43.5004         29.5004
  -6541687.64847  -5060342.18447  21532322.6174                   21532325.4184
        46.5004         43.0004
   3458454.86747   2692571.16446  22000428.4454                   22000427.2304
        46.0004         41.5004
  -6235976.21946  -4829757.54744  24709530.0314                   24709533.9924
        37.7504         29.2504
 -11790050.18446  -9115546.65646  23353267.9384                   23353272.9344
        39.5004         36.2504
 25  8  6  0 20 30.0000000  0  9G01G07G03G04G16G26G31G06G09
   4296232.64547   3340740.00444  23335668.9224                   23335672.4924
        42.0004         26.2504
   1102971.91855    902075.49652  25234240.9844                   25234252.3324
        30.0004         16.7504
  -5487417.12948  -4237074.49648  19967760.1174                   19967761.3204
        50.5004         50.5004
  -8563309.48848  -6629770.54746  20948917.3754                   20948917.6644
        48.0004         36.5004
 -13656969.55547 -10560947.00444  22019481.4694                   22019481.9574
        44.0004         29.5004
  -6594860.41447  -5101775.47347  21522204.4144                   21522206.9494
        46.0004         43.2504
   3490323.46147   2717403.81646  22006492.8134                   22006491.4454
        46.5004         41.7504
  -6331957.50446  -4904548.12945  24691265.9614                   24691269.8284
        38.5004         30.0004
 -11923968.54346  -9219898.45746  23327784.5164                   23327788.4804
        40.7504         36.2504
 25  8  6  0 21  0.0000000  0  9G01G07G03G04G16G26G31G06G09
   4332479.77046   3368984.37144  23342566.6884                   23342570.5744
        41.2504         24.2504
    960343.85545    790937.11343  25207099.5474                   25207109.1604
        33.5004         18.2504
  -5531884.18048  -4271724.14848  19959298.4144                   19959299.4614
        51.0004         50.5004
  -8657581.62547  -6703229.32045  20930978.0474                   20930978.3364
        47.5004         35.5004
 -13795645.61347 -10669006.14145  21993092.0944                   21993092.7304
        44.5004         30.0004
  -6647451.72347  -5142755.66447  21512196.9384                   21512199.1644
        47.0004         43.0004
   3522377.49247   2742380.95747  22012592.6644                   22012591.4264
        47.0004         42.0004
  -6427470.25846  -4978973.66444  24673090.0474                   24673094.2274
        37.5004         29.2504
 -12057890.16847  -9324252.81645  23302300.9144                   23302303.5124
        42.7504         35.5004
 25  8  6  0 21 30.0000000  0  9G01G07G03G04G16G26G31G06G09
   4368822.46546   3397303.17643  23349481.7034                   23349486.8404
        40.5004         23.2504
    817811.89846    679873.75043  25179977.3524                   25179986.0864
        38.0004         22.5004
  -5575819.79348  -4305959.68448  19950937.5944                   19950938.8014
        50.7504         50.7504
  -8751721.07848  -6776584.69945  20913063.7034                   20913063.8134
        48.0004         35.5004
 -13933972.34847 -10776793.06645  21966769.6484                   21966770.1914
        45.0004         30.0004
  -6699458.30147  -5183280.22747  21502299.8364                   21502302.8244
        45.7504         43.0004
   3554617.46147   2767502.98446  22018727.3674                   22018726.3874
        46.5004         41.5004
  -6522510.20746  -5053030.71945  24655004.0554                   24655009.0594
        37.5004         30.5004
 -12191811.53147  -9428606.96546  23276815.9384                   23276819.6524
        42.7504         36.5004
 25  8  6  0 22  0.0000000  0  9G01G07G03G04G16G26G31G06G09
   4405254.34846   3425691.49644  23356415.0864                   23356419.7114
        41.2504         25.2504
    675373.91046    568883.52744  25152871.4924                   25152880.4884
        38.5004         26.2504
  -5619226.90248  -4339783.40648  19942677.5634                   19942678.8444
        50.5004         50.5004
  -8845730.55947  -6849838.79346  20895174.6954                   20895175.0044
        47.2504         36.7504
 -14071949.79347 -10884307.83644  21940512.8284                   21940513.3284
        44.7504         29.7504
  -6750883.29747  -5223351.61347  21492514.3984                   21492516.6054
        45.0004         43.0004
   3587037.80947   2792765.56346  22024897.1334                   22024895.9694
        46.2504         41.5004
  -6617079.56246  -5126721.08244  24637008.4224                   24637012.9734
        36.7504         29.2504
 -12325735.45747  -9532963.12946  23251331.5164                   23251334.4964
        42.5004         37.5004
 25  8  6  0 22 30.0000000  0  9G01G07G03G04G16G26G31G06G09
   4441775.45346   3454149.35544  23363365.6564                   23363369.7304
        41.7504         25.5004
    533033.85946    457969.61744  25125784.7814                   25125793.9414
        38.0004         25.7504
  -5662102.00848  -4373192.57448  19934518.9384                   19934520.5474
        50.7504         50.5004
  -8939606.43447  -6922988.78145  20877310.1254                   20877310.6844
        47.5004         35.7504
 -14209571.46947 -10991545.37545  21914324.6174                   21914325.2304
        44.5004         30.2504
  -6801723.44547  -5262967.27347  21482839.6254                   21482841.6564
        47.7504         43.2504
   3619639.24647   2818169.25846  22031101.0234                   22031099.4964
        46.7504         41.2504
  -6711174.11346  -5200041.47744  24619102.9454                   24619107.8444
        37.0004         29.5004
 -12459658.28946  -9637318.43046  23225846.4144                   23225850.0204
        41.2504         37.2504
 25  8  6  0 23  0.0000000  0  9G01G07G03G04G16G26G31G06G09
   4478382.53947   3482674.17644  23370331.4774                   23370336.0824
        42.5004         25.7504
    390792.41446    347132.56644  25098716.3754                   25098725.8014
        37.7504         27.2504
  -5704445.00848  -4406187.12148  19926460.9304                   19926462.4694
        50.0004         50.5004
  -9033348.32847  -6996034.37546  20859471.4614                   20859471.9774
        47.0004         36.0004
 -14346834.17647 -11098503.20345  21888203.7504                   21888204.2384
        44.5004         30.0004
  -6851978.89547  -5302127.32447  21473276.2664                   21473278.5164
        46.5004         43.0004
   3652418.85247   2843711.77746  22037338.5004                   22037337.5004
        45.7504         41.0004
  -6804793.07446  -5272991.27344  24601287.8284                   24601292.4614
        36.7504         29.5004
 -12593579.85546  -9741672.73446  23200361.2194                   23200365.5904
        41.2504         37.2504
 25  8  6  0 23 30.0000000  0  9G01G07G03G04G16G26G31G06G09
   4515073.55146   3511264.39544  23377313.3834                   23377317.6334
        41.7504         25.2504
    248651.55146    236373.87544  25071668.6024                   25071677.6954
        37.5004         28.2504
  -5746254.62948  -4438766.04748  19918505.3284                   19918506.0824
        51.0004         50.5004
  -9126954.66447  -7068974.33246  20841659.2504                   20841659.3594
        46.7504         36.5004
 -14483733.54347 -11205177.90645  21862152.8364                   21862153.5044
        44.5004         30.7504
  -6901648.59847  -5340830.95347  21463824.3134                   21463826.7664
        46.5004         43.0004
   3685375.59447   2869392.31646  22043609.8594                   22043609.2854
        46.2504         41.0004
  -6897934.33646  -5345568.85945  24583563.0944                   24583568.5984
        37.7504         31.5004
 -12727498.73046  -9846024.94945  23174877.5634                   23174881.0594
        40.5004         35.5004
 25  8  6  0 24  0.0000000  0  9G01G07G03G04G16G26G31G06G09
   4551847.07047   3539918.94144  23384312.2034                   23384315.6484
        42.5004         25.2504
    106614.10245    125695.76644  25044639.2584                   25044648.5044
        34.7504         25.5004
  -5787528.85548  -4470927.78148  19910650.9304                   19910652.0084
        50.5004         50.5004
  -9220423.23047  -7141806.93046  20823872.6644                   20823873.1024
        47.5004         36.0004
 -14620264.85947 -11311565.82045  21836171.6724                   21836171.9104
        44.2504         30.2504
  -6950730.81247  -5379076.79347  21454483.9064                   21454486.6764
        45.5004         43.0004
   3718508.52347   2895210.15646  22049914.7734                   22049913.6844
        46.7504         40.5004
  -6990595.29346  -5417772.18445  24565930.6564                   24565935.1724
        39.0004         31.2504
 -12861412.65646  -9950373.31246  23149393.9774                   23149397.3914
        39.0004         36.0004
 25  8  6  0 24 30.0000000  0  9G01G07G03G04G16G26G31G06G09
   4588700.86346   3568635.99644  23391325.0394                   23391329.0824
        41.5004         24.7504
    -35318.40246     15099.43444  25017629.9844                   25017639.0664
        36.7504         27.5004
  -5828266.68048  -4502671.53948  19902898.5394                   19902899.5514
        50.2504         50.5004
  -9313752.67247  -7214531.12146  20806112.6484                   20806112.8134
        47.0004         36.2504
 -14756423.80947 -11417663.58644  21810261.3054                   21810261.5164
        45.2504         29.7504
  -6999224.81647  -5416864.29347  21445256.1884                   21445258.6254
        47.0004         43.0004
   3751816.02347   2921164.03546  22056253.6174                   22056251.9694
        46.5004         40.0004
  -7082774.12546  -5489599.84045  24548389.7274                   24548394.1994
        39.0004         30.7504
 -12995320.51246 -10054716.96146  23123912.1414                   23123916.2504
        40.0004         36.0004
 25  8  6  0 25  0.0000000  0  9G01G07G03G04G16G26G31G06G09
   4625630.21946   3597411.94144  23398351.2584                   23398356.1884
        41.5004         25.2504
   -177146.70346    -95415.67244  24990640.9454                   24990649.4654
        37.5004         29.0004
  -5868469.47748  -4533998.38748  19895248.2504                   19895249.6844
        51.2504         50.5004
  -9406944.04347  -7287147.71946  20788378.6804                   20788378.7464
        47.0004         36.5004
 -14892208.78947 -11523469.93445  21784422.4454                   21784423.2974
        44.5004         30.0004
  -7047132.22747  -5454194.71147  21436139.7344                   21436141.9694
        46.2504         43.2504
   3785294.26647   2947250.95346  22062624.1804                   22062622.8284
        45.7504         39.7504
  -7174471.51246  -5561052.32845  24530940.4694                   24530944.9534
        38.0004         30.2504
 -13129223.34446 -10159056.69546  23098431.0784                   23098435.2664
        40.7504         36.5004
 25  8  6  0 25 30.0000000  0  9G01G07G03G04G16G26G31G06G09
   4662634.64547   3626246.36344  23405394.0474                   23405398.7114
        42.0004         25.2504
   -318866.99246   -205846.68044  24963671.5554                   24963680.7074
        39.2504         28.0004
  -5908134.53948  -4564906.23448  19887700.5784                   19887701.5514
        51.2504         50.5004
  -9499994.25847  -7359654.32846  20770672.0864                   20770671.8914
        47.2504         36.5004
 -15027613.74647 -11628980.16844  21758655.5784                   21758655.8364
        45.0004         29.7504
  -7094450.62947  -5491066.16047  21427135.4304                   21427137.9024
        46.2504         43.0004
   3818943.15247   2973470.83246  22069026.9384                   22069026.0554
        45.7504         39.7504
  -7265684.05146  -5632127.02045  24513581.9064                   24513587.2584
        36.0004         30.0004
 -13263118.25446 -10263390.24646  23072951.8284                   23072955.2934
        41.5004         36.7504
 25  8  6  0 26  0.0000000  0  9G01G07G03G04G16G26G31G06G09
   4699710.28946   3655136.28544  23412449.7114                   23412453.9454
        41.5004         26.7504
   -460479.41046   -316193.62944  24936723.6804                   24936732.6994
        38.7504         29.0004
  -5947262.41448  -4595395.48848  19880254.5314                   19880255.7384
        50.5004         50.5004
  -9592903.47747  -7432051.07046  20752991.3674                   20752991.6914
        47.0004         36.2504
