     2.11           OBSERVATION DATA    G (GPS)             RINEX VERSION / TYPE
teqc  2019Feb25                         20250724 19:27:14UTCPGM / RUN BY / DATE
Linux 2.6.32-573.12.1.x86_64|x86_64|gcc -static|Linux 64|=+ COMMENT
BIT 2 OF LLI FLAGS DATA COLLECTED UNDER A/S CONDITION       COMMENT
35323331                                                    MARKER NAME
3331                                                        MARKER NUMBER
-Unknown-           -Unknown-                               OBSERVER / AGENCY
0220413532          TRIMBLE R7          2.32                REC # / TYPE / VERS
-Unknown-           TRM39105.00     NONE                    ANT # / TYPE
 -2376964.3405 -4662095.2733  3635503.3157                  APPROX POSITION XYZ
        0.0000        0.0000        0.0000                  ANTENNA: DELTA H/E/N
     1     1                                                WAVELENGTH FACT L1/2
     7    L1    L2    C1    P1    P2    S1    S2            # / TYPES OF OBSERV
    18                                                      LEAP SECONDS
 SNR is mapped to RINEX snr flag value [0-9]                COMMENT
  L1 & L2: min(max(int(snr_dBHz/6), 0), 9)                  COMMENT
  2025     7    15    20     9    0.0000000     GPS         TIME OF FIRST OBS
                                                            END OF HEADER
 25  7 15 20  9  0.0000000  0  6G10G18G23G24G27G32
   -253723.20758   -139741.23458  21047823.0704                   21047820.1914
        50.0004         51.0004
   -183099.40257   -105784.92255  22005796.2424                   22005791.8524
        46.0004         33.5004
   -199922.99657   -110185.41456  21469827.9454                   21469823.8404
        46.7504         36.7504
   -215491.84456    -61188.80155  23084676.3134                   23084674.0474
        41.0004         34.2504
   -233466.76657   -129414.63757  21493120.3204                   21493117.1954
        47.5004         46.5004
   -304330.31258   -167526.82858  21140236.8754                   21140234.4774
        49.7504         50.0004
 25  7 15 20  9 30.0000000  0  7G08G10G18G23G24G27G32
   -597960.55957   -397325.23856  22896397.8444                   22896396.6684
        43.0004         38.7504
   -518314.67248   -345916.41448  20997473.2504                   20997469.7074
        50.2504         51.2504
   -374224.01647   -254713.23845  21969426.3754                   21969422.0944
        46.2504         33.2504
   -408735.28147   -272896.32045  21430092.2114                   21430087.6884
        47.2504         35.2504
   -471714.59846   -260842.91445  23035918.5314                   23035916.4844
        40.0004         33.5004
   -478325.13748   -320213.38747  21446525.6334                   21446522.3404
        48.0004         46.2504
   -621179.85248   -414422.57048  21079942.3834                   21079939.5274
        50.0004         50.0004
 25  7 15 20 10  0.0000000  0  7G08G10G18G23G24G27G32
    672715.91047    592812.27346  23138199.6724                   23138197.8484
        43.0004         38.5004
    792437.73048    675449.08248  21246901.3914                   21246897.6994
        50.7504         51.2504
   1010158.19147    824026.09045  22232865.2424                   22232861.4734
        46.0004         33.0004
    957738.73447    791888.58245  21690123.7344                   21690119.5514
        47.0004         35.5004
    847827.12146    767371.40645  23287018.1334                   23287016.2154
        40.2504         33.7504
    852570.41448    716848.03947  21699786.4924                   21699783.5084
        48.0004         46.5004
    637585.36748    566433.46148  21319477.3834                   21319474.9654
        49.5004         50.0004
 25  7 15 20 10 30.0000000  0  7G08G10G18G23G24G27G32
    368399.48847    355682.60546  23080290.4534                   23080289.0234
        42.2504         37.7504
    527867.03948    469290.09048  21196554.9064                   21196552.0394
        51.0004         51.5004
    819385.34447    675371.86745  22196562.8524                   22196558.6054
        46.0004         33.2504
    748835.95347    629107.16445  21650370.9064                   21650366.5124
        46.7504         35.2504
    592468.25846    568390.45745  23238424.9384                   23238423.7034
        38.7504         34.2504
    608554.02347    526705.37547  21653351.3914                   21653348.2934
        47.5004         46.2504
    321296.65248    319974.73048  21259289.7734                   21259287.1414
        49.7504         50.0004
 25  7 15 20 11  0.0000000  0  7G08G10G18G23G24G27G32
     64550.43446    118917.11746  23022469.4924                   23022468.1564
        41.5004         38.0004
    263430.30148    263235.47748  21146234.3984                   21146231.0664
        50.5004         51.5004
    628912.10247    526951.11345  22160316.3054                   22160312.4924
        46.0004         32.5004
    540011.58647    466386.84445  21610633.0944                   21610628.5744
        47.0004         35.5004
    337666.69146    369843.77745  23189938.0704                   23189936.7974
        39.5004         34.2504
    365081.68047    336986.64547  21607020.3444                   21607017.3594
        46.5004         46.5004
      5414.42248     73832.75048  21199179.1484                   21199176.4884
        49.5004         50.0004
 25  7 15 20 11 30.0000000  0  7G08G10G18G23G24G27G32
   -238820.24647   -117475.59446  22964740.7034                   22964738.5084
        43.0004         38.7504
      -863.36348     57292.34848  21095940.9224                   21095937.6914
        49.5004         51.0004
    438747.50047    378770.85945  22124129.3134                   22124125.8524
        46.5004         33.5004
    331274.73447    303734.72745  21570911.9774                   21570907.4344
        46.7504         35.7504
     83432.62946    171739.30145  23141559.0164                   23141557.9144
        40.0004         35.0004
    122162.10947    147698.64847  21560794.3594                   21560791.5234
        47.5004         46.5004
   -310050.60248   -171984.13348  21139148.2664                   21139145.2894
        49.2504         50.2504
 25  7 15 20 12  0.0000000  0  7G08G10G18G23G24G27G32
   -541712.41047   -353495.44946  22907101.8594                   22907100.0084
        42.0004         38.5004
   -265015.57848   -148540.56248  21045674.1644                   21045671.4144
        48.5004         51.0004
    248889.98447    230829.87945  22088000.7504                   22087997.0784
        45.5004         33.0004
    122623.85947    141149.59445  21531207.2814                   21531202.6724
        46.0004         35.0004
   -170234.44146    -25923.35545  23093287.5164                   23093286.4774
        40.0004         34.7504
   -120206.74647    -41160.22347  21514672.9064                   21514670.2814
        46.2504         46.2504
   -625098.45748   -417475.96148  21079196.6644                   21079194.0594
        49.5004         50.5004
 25  7 15 20 12 30.0000000  0  7G08G10G18G23G24G27G32
   -844125.52046   -589142.00046  22849554.2424                   22849552.5824
        41.7504         38.5004
   -529027.66848   -354264.27748  20995434.6414                   20995431.5314
        49.5004         51.2504
     59338.23847     83127.17245  22051930.6094                   22051926.5124
        45.2504         33.5004
    -85942.30947    -21369.53145  21491518.1884                   21491513.7464
        46.5004         35.0004
   -423334.75046   -223144.37945  23045124.8204                   23045123.0984
        38.5004         34.5004
   -362026.66847   -229591.35947  21468655.9774                   21468653.3524
        47.2504         46.5004
   -939728.88748   -662642.51248  21019324.4304                   21019322.0864
        49.7504         50.5004
 25  7 15 20 13  0.0000000  0  7G08G10G18G23G24G27G32
    429368.18846    403190.78546  23091891.4144                   23091890.2544
        41.2504         38.5004
    782525.08648    667724.87548  21245014.8284                   21245011.3524
        50.0004         51.0004
   1445514.46547   1163264.44145  22315711.4224                   22315707.1764
        44.5004         33.0004
   1280999.16847   1043779.64145  21751638.9384                   21751634.3014
        46.0004         35.5004
    899556.99646    807680.34845  23296862.3674                   23296860.5904
        40.0004         35.2504
    972125.85947    810007.98847  21722536.9064                   21722534.0164
        46.7504         46.5004
    321486.05948    320122.39848  21259325.8054                   21259323.0474
        50.2504         50.7504
 25  7 15 20 13 30.0000000  0  8G08G10G18G23G24G27G32G02
    127903.74646    168283.44146  23034524.8594                   23034523.7734
        41.5004         38.2504
    518778.42248    462207.98048  21194825.2034                   21194822.4024
        50.0004         51.0004
   1256559.41847   1016026.69145  22279754.0944                   22279749.9964
        45.5004         33.2504
   1072587.80147    881381.14145  21711979.3054                   21711974.8834
        46.0004         35.5004
    647578.38346    611333.36345  23248912.4454                   23248911.4144
        40.0004         35.2504
    731387.56647    622419.68047  21676726.1484                   21676723.0434
        46.2504         46.2504
      7680.30548     75598.44948  21199610.2424                   21199607.6054
        50.0004         50.7504
   2323158.54355   1888158.07852  25470298.2894                   25470292.8364
        33.5004         16.2504
 25  7 15 20 14  0.0000000  0  8G08G10G18G23G24G27G32G02
   -173094.71146    -66260.79746  22977247.1484                   22977245.6214
        41.7504         38.5004
    255153.54348    256785.99248  21144659.0004                   21144656.2704
        50.2504         51.0004
   1067891.68847    869012.82445  22243852.0784                   22243848.2774
        45.5004         33.7504
    864242.95747    719034.48445  21672332.7274                   21672327.9104
        46.7504         35.2504
    396151.08246    415415.97745  23201067.3594                   23201066.0314
        40.0004         34.7504
    491178.35547    435243.64847  21631015.7034                   21631012.7704
        46.2504         46.0004
   -305721.78148   -168610.95348  21139972.0944                   21139969.1094
        50.5004         51.0004
   1974286.19155   1616309.60552  25403909.5944                   25403905.2544
        33.5004         14.7504
 25  7 15 20 14 30.0000000  0  8G08G10G18G23G24G27G32G02
   -473627.57046   -300442.21946  22920057.2344                   22920055.5664
        41.2504         37.5004
     -8351.65648     51457.26248  21094515.6564                   21094512.7704
        49.5004         51.2504
    879509.09847    722221.14545  22208004.0864                   22207999.8404
        45.2504         33.5004
    655962.55147    556738.03945  21632697.9694                   21632693.2584
        45.7504         35.5004
    145274.02346    219927.34045  23153327.3914                   23153325.8874
        39.7504         34.7504
    251495.55947    248477.81647  21585405.5944                   21585402.5634
        46.0004         46.0004
   -618720.84448   -412506.29748  21080410.1484                   21080407.3014
        50.7504         51.0004
   1625328.22755   1400591.32052  25337505.2344                   25337499.3404
        32.5004         17.7504
 25  7 15 20 15  0.0000000  0  8G08G10G18G23G24G27G32G02
   -773694.40246   -534260.50046  22862956.5394                   22862954.9344
        41.5004         38.0004
   -271738.50848   -153779.25448  21044394.9144                   21044391.8404
        51.0004         51.0004
    691410.21947    575650.54345  22172210.0634                   22172205.7774
        45.5004         32.5004
    447745.39847    394490.88345  21593075.4774                   21593071.3954
        47.2504         35.7504
   -105053.32046     24867.06345  23105691.0164                   23105689.7734
        40.2504         34.7504
     12337.27047     62120.68847  21539895.2894                   21539892.7424
        47.2504         46.5004
   -931316.66848   -656087.44948  21020925.0164                   21020922.4804
        50.0004         50.7504
   1276285.28155   1128609.97352  25271083.4844                   25271080.0124
        30.5004         13.7504
 25  7 15 20 15 30.0000000  0  8G08G10G18G23G24G27G32G02
  -1073296.13346   -767716.37946  22805943.8524                   22805942.3134
        41.0004         37.2504
   -535009.57048   -358925.53948  20994295.9384                   20994292.7934
        50.0004         51.0004
    503592.44947    429298.97345  22136469.4064                   22136465.5704
        45.0004         33.0004
    239588.98047    232291.03945  21553464.6644                   21553460.1764
        47.0004         35.7504
   -354832.60246   -169766.16045  23058160.3834                   23058158.1414
        39.0004         34.5004
   -226299.78147   -123830.28547  21494484.3444                   21494481.3714
        47.2504         46.0004
  -1243510.44948   -899355.30148  20961516.3834                   20961513.6644
        50.5004         51.0004
    927156.55945    856561.73442  25204646.7734                   25204643.2034
        33.5004         16.2504
 25  7 15 20 16  0.0000000  0  8G08G10G18G23G24G27G32G02
    203000.48447    226800.49246  23048814.9924                   23048813.7974
        42.0004         37.2504
    777265.68048    663626.59448  21244013.8984                   21244010.9414
        50.0004         51.0004
   1891483.58247   1510772.53945  22400576.4454                   22400572.5084
        44.5004         32.7504
   1606921.93847   1297745.27346  21813660.0314                   21813655.2584
        47.5004         36.0004
    971366.96546    863636.08645  23310527.1414                   23310525.7344
        40.5004         35.0004
   1111013.50447    918232.00047  21748966.3674                   21748963.2624
        47.0004         46.2504
     20131.35548     85300.66848  21201979.6724                   21201976.8524
        50.5004         51.0004
   2153377.08255   1812058.24652  25437988.5234                   25437985.6994
        33.7504         14.7504
 25  7 15 20 16 30.0000000  0  8G08G10G18G23G24G27G32G02
    -95661.87546     -5923.40646  22991982.2814                   22991979.9964
        41.7504         37.2504
    514230.50048    458664.11748  21193959.6954                   21193956.4734
        49.5004         51.0004
   1704231.93447   1364862.10545  22364943.7344                   22364939.6804
        45.0004         33.0004
   1398891.48847   1135643.59445  21774072.7424                   21774068.4064
        47.2504         35.2504
    722690.61746    669862.30545  23263205.7664                   23263204.3284
        40.5004         35.0004
    873421.41447    733095.28947  21703753.8204                   21703751.1954
        46.5004         46.0004
   -291249.72348   -157333.92248  21142725.7114                   21142723.0084
        50.5004         51.0004
   1804086.27045   1539883.63742  25371520.2584                   25371517.7074
        33.7504         15.5004
 25  7 15 20 17  0.0000000  0  8G08G10G18G23G24G27G32G02
   -393852.94546   -238280.07446  22935237.9304                   22935235.8914
        41.0004         36.7504
    251312.43848    253792.89148  21143927.9454                   21143924.9804
        50.5004         51.0004
   1517262.29747   1219171.43445  22329364.5004                   22329360.7344
        45.5004         33.0004
   1190923.26247    973590.41046  21734497.6884                   21734493.5514
        47.5004         36.0004
    474566.00046    476518.44545  23215989.1094                   23215987.6844
        40.0004         35.2504
    636349.89547    548364.21147  21658640.6644                   21658638.0784
        46.2504         46.0004
   -602223.18748   -399650.88348  21083549.5004                   21083546.4804
        50.7504         51.0004
   1454716.28946   1267647.37542  25305038.3284                   25305034.0124
        36.0004         16.2504
 25  7 15 20 17 30.0000000  0  8G08G10G18G23G24G27G32G02
   -691571.60546   -470268.62546  22878584.0864                   22878582.0314
        41.0004         37.5004
    -11489.00048     49012.54748  21093918.3914                   21093915.5864
        50.0004         51.0004
   1330574.05947   1073700.02045  22293839.1094                   22293835.2464
        46.0004         32.7504
    983016.93847    811585.45345  21694934.4774                   21694930.0274
        47.0004         35.2504
    226993.46946    283604.77345  23168878.1414                   23168875.7584
        39.5004         35.5004
    399797.76647    364037.85547  21613626.7034                   21613623.7194
        44.7504         46.0004
   -912788.15648   -641649.53948  21024450.8834                   21024448.0514
        50.5004         51.0004
   1105268.31646    995350.28942  25238539.8284                   25238537.0514
        36.2504         14.7504
 25  7 15 20 18  0.0000000  0  8G08G10G18G23G24G27G32G02
   -988814.77346   -701886.66446  22822020.3054                   22822018.8324
        41.2504         37.2504
   -274172.15248   -155675.62148  21043931.6884                   21043928.7424
        49.7504         51.0004
   1144168.62547    928448.96945  22258367.1724                   22258363.8054
        44.7504         32.0004
    775174.16047    649630.02345  21655383.6094                   21655378.6134
        46.5004         35.2504
    -20024.70746     91123.07845  23121872.0164                   23121870.1294
        41.0004         35.2504
    163765.80547    180116.83247  21568711.3054                   21568708.2774
        45.5004         46.0004
  -1222941.71548   -883327.61748  20965430.6884                   20965427.8054
        50.5004         51.0004
    755745.67645    722995.08642  25172028.0554                   25172024.2344
        35.0004         15.5004
 25  7 15 20 18 30.0000000  0  8G08G10G18G23G24G27G32G02
  -1285581.68747   -933133.59846  22765548.0084                   22765545.8164
        42.2504         37.5004
   -536737.86748   -360272.29348  20993967.0314                   20993964.0944
        48.7504         51.0004
    958045.03947    783417.54345  22222949.4774                   22222945.3204
        44.5004         32.2504
    567394.11747    487723.48045  21615844.0234                   21615839.7234
        45.7504         35.5004
   -266488.75046   -100926.82845  23074971.0554                   23074969.5664
        40.5004         35.0004
    -71747.57447     -3400.10947  21523894.6254                   21523891.7544
        46.0004         46.5004
  -1532683.35248  -1124684.71548  20906488.8364                   20906485.8634
        50.0004         51.0004
    406149.39146    450582.42242  25105502.2194                   25105498.9104
        37.2504         17.7504
 25  7 15 20 19  0.0000000  0  8G08G10G18G23G24G27G32G02
     -6438.91046     63601.05546  23008960.5784                   23008958.4964
        41.5004         37.2504
    776244.69548    662831.00848  21243819.4454                   21243816.4064
        48.2504         51.0004
   2347631.27747   1866211.96545  22487378.9304                   22487374.6484
        45.0004         32.2504
   1935106.00047   1553472.96945  21876111.4774                   21876106.6954
        46.0004         34.5004
   1063032.39146    935063.66045  23327971.2424                   23327968.9614
        40.5004         34.7504
   1268686.73447   1041094.14147  21778970.8524                   21778967.7074
        45.0004         46.0004
   -266579.37948   -138110.17248  21147420.3364                   21147417.2624
        50.5004         51.0004
   1631914.94946   1405724.49642  25338757.7194                   25338754.1214
        36.0004         15.5004
 25  7 15 20 19 30.0000000  0  8G08G10G18G23G24G27G32G02
   -302246.07446   -166898.01646  22952670.4144                   22952668.0944
        41.7504         37.2504
    513916.70748    458419.57448  21193900.1414                   21193897.0314
        48.2504         51.0004
   2162073.45747   1721621.39845  22452068.2814                   22452064.5514
        44.5004         32.2504
   1727454.70747   1391666.74245  21836596.4534                   21836591.8134
        46.5004         35.5004
    817681.53546    743881.16845  23281282.2894                   23281280.1644
        40.5004         35.0004
   1034210.87547    858385.65247  21734351.6954                   21734348.7584
        45.2504         46.0004
   -575490.49248   -378820.10948  21088636.5164                   21088633.5664
        50.5004         51.0004
   1282179.59846   1133203.44942  25272204.2114                   25272200.6564
        36.0004         16.7504
 25  7 15 20 20  0.0000000  0  8G08G10G18G23G24G27G32G02
   -597570.14546   -397020.65246  22896471.9454                   22896469.8484
        41.2504         37.7504
    251708.61748    254101.57448  21144003.6174                   21144000.6214
        48.0004         51.0004
   1976799.20347   1577251.79745  22416811.9064                   22416807.9574
        43.7504         32.5004
   1519868.86347   1229911.51245  21797093.8674                   21797090.0274
        46.2504         34.5004
    572889.08246    553133.80545  23234699.6174                   23234697.7774
        39.7504         35.0004
    800253.46547    676081.15647  21689830.7504                   21689827.9224
        45.5004         46.2504
   -883983.43448   -619204.19548  21029932.1484                   21029929.1844
        50.2504         51.2504
    932378.18046    860631.02742  25205640.4534                   25205635.7974
        37.0004         17.7504
 25  7 15 20 20 30.0000000  0  8G08G10G18G23G24G27G32G02
   -892404.84047   -626761.96146  22840366.5164                   22840364.1724
        42.2504         37.5004
    -10374.68448     49880.81648  21094130.7814                   21094127.9144
        49.0004         51.0004
   1791813.13347   1433106.75445  22381609.8914                   22381606.2274
        44.5004         31.5004
   1312353.48047   1068211.19545  21757605.3204                   21757600.2974
        46.7504         34.5004
    328660.50846    362825.81345  23188224.2734                   23188222.6294
        40.2504         34.7504
    566818.47347    494183.73847  21645410.1024                   21645407.3014
        46.5004         46.5004
  -1192052.15648   -859257.72748  20971308.9614                   20971305.6254
        50.7504         51.0004
    582517.68446    588012.54743  25139063.1094                   25139058.8324
        38.2504         19.5004
 25  7 15 20 21  0.0000000  0  8G08G10G18G23G24G27G32G02
  -1186749.74247   -856121.60946  22784354.5474                   22784352.7074
        42.0004         38.5004
   -272334.16048   -154243.45348  21044281.7274                   21044278.4024
        49.5004         51.0004
   1607113.99647   1289185.29345  22346463.5004                   22346459.5664
        44.2504         32.2504
   1104907.68047    906565.09845  21718129.7034                   21718124.9804
        46.7504         34.2504
     84995.35546    172956.85945  23141856.2974                   23141854.7814
        40.2504         34.7504
    333903.98447    312691.90647  21601087.7424                   21601084.8404
        46.2504         46.0004
  -1499696.35248  -1098980.45748  20912765.6954                   20912762.8244
        50.7504         51.0004
    232598.65646    315348.41843  25072475.9384                   25072471.3484
        37.0004         20.0004
 25  7 15 20 21 30.0000000  0  8G08G10G18G23G24G27G32G02
  -1480606.55546  -1085100.93046  22728435.4614                   22728433.6094
        41.2504         37.2504
   -534172.87548   -358273.62948  20994455.3054                   20994452.0664
        50.7504         51.0004
   1422698.44547   1145484.81645  22311370.3984                   22311366.0784
        43.7504         32.5004
    897528.46947    744970.88745  21678666.3754                   21678662.2934
        46.5004         34.7504
   -158109.00846    -16475.10945  23095595.7114                   23095593.9104
        40.0004         34.7504
    101506.01247    131602.55547  21556863.8754                   21556860.9024
        46.7504         46.0004
  -1806917.93748  -1338373.88748  20854303.6024                   20854300.4614
        50.5004         51.0004
   -117379.87546     42637.98043  25005877.0704                   25005872.1254
        36.2504         18.2504
 25  7 15 20 22  0.0000000  0  8G08G10G18G23G24G27G32G02
   -198547.69146    -86094.01646  22972403.3754                   22972401.2854
        41.5004         37.2504
    779534.34048    665394.32448  21244445.3204                   21244442.4184
        49.5004         51.0004
   2813988.78147   2229607.09045  22576123.7274                   22576120.1334
        44.0004         31.2504
   2265639.30147   1811031.25045  21939009.2814                   21939004.8284
        47.0004         33.2504
   1174772.40646   1022133.77745  23349233.9064                   23349232.4804
        40.5004         34.5004
   1445047.70747   1178518.14147  21812531.3284                   21812528.1684
        46.2504         46.0004
   -538289.06248   -349831.87948  21095715.7034                   21095712.7894
        49.7504         51.2504
   1108011.67646    997488.56643  25239061.2734                   25239056.5594
        38.2504         20.7504
 25  7 15 20 22 30.0000000  0  9G08G10G18G23G24G27G32G02G28
   -491431.50847   -314315.16446  22916669.0864                   22916666.8554
        42.5004         38.0004
    517929.98448    461546.77048  21194664.0474                   21194660.8324
        48.7504         51.0004
   2630132.22747   2086342.19945  22541136.9384                   22541133.1484
        44.0004         31.5004
   2058386.39547   1649535.46145  21899570.0784                   21899565.7974
        46.2504         34.5004
    932783.69946    833571.15245  23303184.8134                   23303183.6724
        39.0004         34.5004
   1213672.44547    998225.70747  21768501.6414                   21768498.9384
        46.0004         46.0004
   -844669.20348   -588569.63348  21037413.0164                   21037410.1134
        50.7504         51.0004
    757911.82046    724683.58643  25172440.0944                   25172434.6684
        38.7504         21.5004
   7319024.15216                  25440198.313
        36.500
 25  7 15 20 23  0.0000000  0  9G08G10G18G23G24G27G32G02G28
   -783830.34447   -542158.40646  22861027.6724                   22861025.7544
        42.0004         38.2504
    256439.38748    257787.85948  21144903.7664                   21144901.0664
        49.0004         51.0004
   2446551.28147   1943292.05545  22506202.7894                   22506199.1564
        43.7504         31.7504
   1851193.27047   1488086.25445  21860143.1804                   21860138.5594
        46.0004         34.0004
    691349.95346    645440.96145  23257241.7974                   23257239.9654
        39.5004         33.5004
    982803.54747    818327.84847  21724568.9694                   21724566.3094
        45.2504         46.2504
  -1150630.39148   -826980.92248  20979190.9224                   20979187.5824
        50.5004         51.0004
    407750.48446    451830.65643  25105806.5554                   25105800.5204
        38.5004         20.7504
   6962543.547 6                  25372362.094
        37.500
 25  7 15 20 23 30.0000000  0  9G08G10G18G23G24G27G32G02G28
  -1075748.57847   -769627.14546  22805477.7274                   22805475.7304
        42.2504         38.2504
     -4943.09448     54113.19948  21095164.5554                   21095161.4104
        49.5004         51.0004
   2263239.93847   1800452.00445  22471320.1804                   22471316.4964
        43.7504         31.0004
   1644054.43447   1326679.35245  21820725.6024                   21820721.2544
        46.5004         34.5004
    450465.91846    457739.11345  23211403.9304                   23211401.1844
        39.5004         34.0004
    752434.29347    638819.31647  21680731.3284                   21680728.4804
        45.5004         46.0004
  -1456177.16448  -1065069.30148  20921047.4064                   20921044.2854
        50.7504         51.0004
     57523.85546    178926.92643  25039160.8834                   25039155.2504
        38.7504         19.7504
   6605855.270 6                  25304486.430
        37.750
 25  7 15 20 24  0.0000000  0  9G08G10G18G23G24G27G32G02G28
  -1367185.42246   -996720.77346  22750018.8134                   22750016.8404
        41.5004         38.2504
   -266217.98848   -149477.63348  21045445.3134                   21045442.2274
        50.2504         51.0004
   2080197.26247   1657821.29745  22436488.4064                   22436484.2504
        43.5004         32.2504
   1436969.46147   1165314.41845  21781318.3364                   21781314.1414
        46.0004         34.2504
    210131.28946    270465.37545  23165668.7194                   23165667.2664
        39.5004         34.2504
    522563.02747    459698.82447  21636988.0554                   21636985.4304
        46.2504         46.2504
  -1761308.96948  -1302834.32448  20862982.4224                   20862979.2774
        50.2504         51.0004
   -292766.48846    -94026.55143  24972501.6564                   24972497.2114
        37.2504         20.5004
   6248961.625 6                  25236571.461
        38.000
 25  7 15 20 24 30.0000000  0  9G08G10G18G23G24G27G32G02G28
  -1658138.20747  -1223437.22346  22694652.2194                   22694650.2584
        42.5004         38.7504
   -527383.65248   -352983.34448  20995747.3284                   20995744.0164
        50.0004         51.0004
   1897424.46947   1515400.87545  22401707.7194                   22401703.9064
        44.5004         32.0004
   1229940.01647   1003992.75045  21741922.4224                   21741918.1844
        46.2504         33.5004
    -29651.98846     83621.24645  23120039.5944                   23120038.2304
        39.7504         34.0004
    293190.27047    280966.77747  21593340.0164                   21593336.9534
        44.5004         46.0004
  -2066023.22348  -1540273.98448  20804997.0864                   20804994.0234
        51.0004         51.2504
   -643117.43746   -367027.16043  24905833.1414                   24905826.5554
        38.5004         20.5004
   5891867.11746   5915378.53152  25168618.2034                   25168619.5594
        38.5004         17.7504
 25  7 15 20 25  0.0000000  0  9G08G10G18G23G24G27G32G02G28
   -373170.80147   -222163.90246  22939173.4224                   22939171.8594
        42.5004         38.7504
    786993.73848    671206.83248  21245865.3674                   21245862.0704
        48.0004         51.0004
   3290352.33647   2600799.15645  22666773.0704                   22666769.1454
        45.0004         33.0004
   2598398.30547   2070323.85945  22002331.8134                   22002327.3794
        46.5004         34.2504
   1306549.37146   1124817.11745  23374310.7424                   23374308.4964
        40.0004         33.7504
   1639747.64147   1330232.23447  21849581.3594                   21849578.2974
        45.5004         45.7504
   -794883.55148   -549775.52048  21046886.8834                   21046883.8134
        50.5004         51.0004
    581909.73846    587539.55543  25138947.5234                   25138941.9614
        38.2504         20.5004
   7110011.52346   6864582.39142  25400423.5164                   25400425.4614
        37.7504         17.7504
 25  7 15 20 25 30.0000000  0  9G08G10G18G23G24G27G32G02G28
   -663141.12147   -448114.78546  22883994.0234                   22883992.1994
        43.0004         38.7504
    526057.21148    467879.66048  21196210.7034                   21196207.4614
        50.2504         50.7504
   3108128.70747   2458806.67245  22632096.9924                   22632093.4144
        43.5004         31.7504
   2391490.92647   1909097.31345  21962958.2734                   21962953.7544
        46.2504         34.0004
   1067880.08246    938841.04345  23328893.0784                   23328891.0784
        40.5004         34.7504
   1411378.94147   1152282.57047  21806124.1724                   21806121.4454
        45.5004         46.0004
  -1098748.94148   -786553.72348  20989063.0944                   20989060.3674
        50.5004         51.2504
    231453.71146    314457.00043  25072257.6254                   25072252.8524
        38.2504         20.5004
   6752534.34846   6586029.13342  25332396.9144                   25332398.8094
        37.2504         17.7504
 25  7 15 20 26  0.0000000  0  9G08G10G18G23G24G27G32G02G28
   -952615.10546   -673678.91846  22828908.7894                   22828906.9104
        41.5004         38.7504
    265238.70348    264644.46548  21146578.2664                   21146574.8524
        50.2504         51.0004
   2926182.51247   2317030.36345  22597473.6334                   22597469.9614
        44.0004         31.5004
   2184648.18847   1747921.12945  21923597.3674                   21923592.9844
        46.5004         33.0004
    829771.43046    753301.82445  23283582.4694                   23283580.5864
        40.2504         33.7504
   1183513.94547    974725.40247  21762763.0784                   21762760.1844
        45.5004         45.7504
  -1402184.96948  -1022997.35548  20931321.5784                   20931317.9844
        51.0004         51.2504
   -119048.54345     41338.42243  25005559.0234                   25005554.0044
        35.7504         21.2504
   6394873.57446   6307332.86742  25264336.5474                   25264337.8984
        38.5004         17.2504
 25  7 15 20 26 30.0000000  0  9G08G10G18G23G24G27G32G02G28
  -1241592.25446   -898855.89846  22773918.4844                   22773916.3594
        41.2504         38.7504
      4537.54748     61500.70748  21096968.3674                   21096965.2934
        50.2504         51.0004
   2744512.56647   2175469.31645  22562903.4694                   22562899.1844
        43.2504         31.5004
   1977869.52347   1586794.87945  21884248.7664                   21884243.9924
        46.2504         33.5004
    592223.07446    568199.21145  23238378.6414                   23238376.8444
        39.7504         34.2504
    956150.66447    797559.18047  21719497.5084                   21719494.6134
        45.7504         46.0004
  -1705191.39848  -1259106.24248  20873661.3984                   20873658.1254
        50.7504         51.2504
   -469596.07046   -231815.39843  24938851.7974                   24938846.3634
        37.7504         21.2504
   6037031.32446   6028495.14543  25196240.5864                   25196242.1484
        37.5004         19.2504
 25  7 15 20 27  0.0000000  0  9G08G10G18G23G24G27G32G02G28
  -1530069.05146  -1123643.00046  22719023.0004                   22719021.1804
        41.5004         39.0004
   -256043.70748   -141549.62948  21047381.4694                   21047378.3094
        50.5004         51.0004
   2563120.91447   2034125.12545  22528385.7034                   22528381.7584
        43.5004         31.5004
   1771157.58647   1425720.62145  21844912.8834                   21844908.6994
        46.0004         33.5004
    355237.45346    383535.08645  23193281.6414                   23193279.8134
        40.0004         33.2504
    729290.41047    620784.93047  21676327.2114                   21676324.3364
        45.2504         46.2504
  -2007764.76648  -1494877.67248  20816083.3524                   20816080.4144
        50.7504         51.2504
   -820184.32046   -505000.96543  24872136.7424                   24872131.6954
        36.7504         19.7504
   5679013.02046   5749520.20343  25128111.5004                   25128113.0744
        37.5004         19.0004
 25  7 15 20 27 30.0000000  0  9G08G10G18G23G24G27G32G02G28
  -1818043.28547  -1348038.48846  22664223.0944                   22664221.2584
        42.2504         38.5004
   -516503.94548   -344505.66848  20997817.6954                   20997814.4344
        50.7504         51.0004
   2382008.21547   1892998.27745  22493921.2114                   22493917.2464
        43.5004         31.7504
   1564513.53547   1264699.25845  21805589.7974                   21805585.2074
        46.0004         33.5004
    118815.84846    199310.44945  23148291.6804                   23148290.9654
        40.7504         33.2504
    502932.97747    444402.48847  21633252.9924                   21633250.4454
        45.7504         46.0004
  -2309903.07448  -1730310.09448  20758588.2974                   20758585.2584
        50.5004         51.2504
  -1170810.36346   -778216.00043  24805415.9064                   24805410.5164
        38.5004         21.5004
   5320822.66146   5470411.18343  25059950.6174                   25059951.5864
        38.7504         20.2504
 25  7 15 20 28  0.0000000  0  9G08G10G18G23G24G27G32G02G28
   -530086.05846   -344435.43946  22909313.0944                   22909311.3914
        40.7504         38.7504
    798583.92248    680238.12548  21248070.4144                   21248067.1994
        51.0004         51.0004
   3776598.32047   2979691.80945  22759302.7814                   22759299.1524
        44.0004         31.5004
   2933362.75047   2331334.98445  22066073.0704                   22066068.3984
        46.0004         34.5004
   1458384.57446   1243130.20345  23403203.2424                   23403201.8794
        40.2504         33.5004
   1852502.91047   1496015.40247  21890067.5704                   21890064.9614
        46.5004         46.2504
  -1036176.98048   -737796.23048  21000970.3674                   21000967.6914
        50.5004         51.0004
     53957.60246    176148.71543  25038480.1414                   25038475.5634
        36.5004         20.7504
   6537893.37546   6418778.35243  25291551.4144                   25291552.6094
        38.5004         21.5004
 25  7 15 20 28 30.0000000  0  9G08G10G18G23G24G27G32G02G28
   -817054.42247   -568047.13346  22854705.1954                   22854703.2974
        42.7504         38.7504
    538363.57048    477469.02048  21198552.0474                   21198549.0004
        50.7504         51.0004
   3596039.73047   2838996.73845  22724943.9534                   22724940.0984
        43.0004         31.0004
   2726852.67247   2170418.01645  22026775.4144                   22026771.0434
        45.7504         33.7504
   1223088.83246   1059782.85545  23358427.8914                   23358426.6214
        39.7504         34.2504
   1627144.84847   1320411.69147  21847183.4304                   21847180.3404
        46.5004         46.2504
  -1337444.75448   -972550.31248  20943640.8914                   20943637.9614
        50.5004         51.2504
   -296740.72746    -97122.63343  24971745.5704                   24971739.0864
        37.0004         21.2504
   6179365.08646   6139405.99243  25223324.4694                   25223326.3364
        37.5004         21.7504
 25  7 15 20 29  0.0000000  0  9G08G10G18G23G24G27G32G02G28
  -1103519.87947   -791266.95746  22800192.4304                   22800190.4304
        42.7504         39.0004
    278261.71548    274792.25048  21149056.6024                   21149053.3054
        50.5004         51.0004
   3415755.84047   2698515.71145  22690636.9844                   22690633.0634
        43.0004         30.7504
   2520408.16047   2009552.14145  21987490.5004                   21987486.1374
        46.0004         34.0004
    988354.56646    876873.02745  23313760.2734                   23313758.2114
        39.5004         34.5004
   1402282.94947   1145194.60547  21804393.4534                   21804390.7544
        46.7504         46.0004
  -1638277.50048  -1206965.41848  20886394.2664                   20886391.4774
        50.5004         51.2504
   -647474.21946   -370421.36743  24905002.6564                   24904997.4064
        38.2504         19.7504
   5820670.68846   5859904.24243  25155066.9614                   25155068.6374
        36.7504         21.0004
 25  7 15 20 29 30.0000000  0  9G08G10G18G23G24G27G32G02G28
  -1389479.05547  -1014092.28546  22745776.5784                   22745774.1804
        42.5004         38.5004
     18280.82848     72209.74248  21099584.0554                   21099581.0474
        50.5004         51.0004
   3235748.74247   2558250.38345  22656382.6254                   22656379.2704
        43.2504         31.0004
   2314031.84847   1848739.41445  21948218.8054                   21948213.9654
        46.2504         34.2504
    754184.11746    694402.52745  23269199.5394                   23269197.1524
        38.7504         34.5004
   1177918.29747    970364.97747  21761698.1484                   21761695.7154
        47.0004         46.0004
  -1938671.95348  -1441038.99648  20829231.2814                   20829227.6724
        50.7504         51.2504
   -998238.53546   -643744.10943  24838255.1644                   24838248.9924
        38.5004         21.7504
   5461815.53546   5580277.14843  25086779.3914                   25086779.7624
        38.2504         20.5004
 25  7 15 20 30  0.0000000  0  9G08G10G18G23G24G27G32G02G28
  -1674931.35547  -1236522.63346  22691456.6414                   22691454.5704
        42.2504         38.2504
   -241579.45748   -130278.78548  21050133.9774                   21050130.7304
        50.5004         50.7504
   3056017.41847   2418199.95345  22622180.9614                   22622177.4574
        43.0004         31.0004
   2107723.50447   1687979.63745  21908959.5474                   21908955.1254
        45.7504         33.5004
    520577.12946    512371.08645  23224744.8444                   23224743.3674
        39.7504         35.5004
    954049.07047    795921.40647  21719097.5944                   21719094.5514
        46.7504         46.2504
  -2238627.60548  -1674770.65248  20772151.4844                   20772148.6414
        50.2504         51.2504
  -1349031.77046   -917089.43743  24771501.1564                   24771495.5984
        38.0004         22.2504
   5102802.05546   5300526.65643  25018460.9454                   25018461.2234
        36.7504         21.2504
 25  7 15 20 30 30.0000000  0  9G08G10G18G23G24G27G32G02G28
  -1959875.29347  -1458556.85946  22637233.4774                   22637231.6764
        43.5004         39.0004
   -501318.42248   -332672.78548  21000707.1174                   21000704.4494
        50.5004         51.0004
   2876561.93447   2278364.44945  22588031.4774                   22588027.8674
        43.0004         30.7504
   1901483.92647   1527273.45345  21869713.3834                   21869709.1054
        45.0004         33.0004
    287534.01646    330779.03145  23180398.3674                   23180396.7424
        39.5004         34.7504
    730674.48047    621863.25847  21676590.9844                   21676587.8524
        47.2504         46.2504
  -2538143.11748  -1908159.34048  20715155.4304                   20715152.3204
        50.2504         51.5004
  -1699851.46946  -1190455.35943  24704742.9384                   24704736.8244
        38.5004         21.5004
   4743633.85546   5020655.66043  24950113.8594                   24950113.8524
        36.7504         20.0004
 25  7 15 20 31  0.0000000  0  9G08G10G18G23G24G27G32G02G28
   -668880.61347   -452586.96546  22882901.5554                   22882899.7894
        43.5004         39.0004
    814492.52348    692634.44948  21251097.7814                   21251094.5634
        50.5004         50.7504
   4272807.51647   3366347.96545  22853728.2504                   22853725.0554
        43.5004         31.0004
   3270739.96147   2594226.18045  22130274.0784                   22130269.4494
        45.7504         34.0004
   1630482.38746   1377232.28145  23435953.3444                   23435951.2624
        40.0004         35.5004
   2083220.34847   1675795.07447  21933971.9694                   21933969.1024
        47.2504         46.0004
  -1261787.86748   -913596.78148  20958037.8524                   20958034.7424
        50.5004         51.5004
   -475264.68746   -236231.85243  24937773.2344                   24937767.2304
        37.5004         21.5004
   5959745.66046   5968275.58243  25181532.4224                   25181532.2154
        37.5004         19.7504
 25  7 15 20 31 30.0000000  0  9G08G10G18G23G24G27G32G02G28
   -952805.57047   -673827.19146  22828872.4614                   22828870.3524
        44.0004         38.7504
    554995.86348    490429.26248  21201717.1564                   21201714.0124
        50.2504         51.0004
   4093901.55147   3226940.64545  22819683.4844                   22819680.0594
        42.7504         30.5004
   3064637.83247   2433627.09445  22091054.3754                   22091049.6604
        44.7504         33.5004
   1398566.29346   1196518.42245  23391820.6564                   23391819.0314
        40.0004         34.0004
   1860830.19147   1502504.01647  21891652.1884                   21891649.2814
        47.0004         46.0004
  -1560421.23848  -1146298.07848  20901209.9694                   20901206.8634
        50.0004         51.5004
   -826132.93746   -509635.59443  24871005.4534                   24870999.4774
        37.2504         21.7504
   5600276.27746   5688169.87943  25113126.2424                   25113126.5554
        36.7504         20.5004
 25  7 15 20 32  0.0000000  0  9G08G10G18G23G24G27G32G02G28
  -1236218.94947   -894668.77346  22774941.2584                   22774938.8134
        44.5004         39.2504
    295621.28148    288319.20748  21152359.7664                   21152356.5044
        49.7504         51.0004
   3915270.29747   3087747.39145  22785691.5234                   22785687.6334
        42.5004         30.5004
   2858605.50047   2273082.39545  22051847.4384                   22051842.7274
        44.5004         33.2504
   1167214.35246   1016244.18045  23347796.4774                   23347794.1644
        38.7504         35.2504
   1638930.84047   1329595.40647  21849426.5634                   21849423.4144
        47.5004         45.7504
  -1858611.59848  -1378654.18748  20844465.9614                   20844462.9654
        49.7504         51.5004
  -1177021.63346   -783055.27343  24804232.8364                   24804227.3524
        37.5004         21.5004
   5240661.60945   5407950.96543  25044693.7344                   25044694.5744
        35.5004         20.2504
 25  7 15 20 32 30.0000000  0  9G08G10G18G23G24G27G32G02G28
  -1519120.45347  -1115111.50046  22721107.0004                   22721104.1684
        44.2504         39.0004
     36368.39847     86303.98048  21103025.6094                   21103022.4804
        47.7504         50.7504
   3736912.60947   2948767.31345  22751751.2194                   22751747.5474
        43.0004         30.5004
   2652642.60947   2112591.82045  22012653.8834                   22012649.4804
        45.7504         34.0004
    936425.82446    836408.95745  23303878.6414                   23303876.6414
        39.5004         34.5004
   1417520.33647   1157067.70747  21807293.3364                   21807290.4384
        46.5004         46.0004
  -2156358.68748  -1610664.88348  20787806.6884                   20787803.7774
        50.0004         51.7504
  -1527929.09846  -1056489.56243  24737457.4064                   24737451.9264
        36.2504         21.5004
   4880903.92645   5127620.62543  24976234.2344                   24976234.2074
        34.2504         19.2504
 25  7 15 20 33  0.0000000  0  9G08G10G18G23G24G27G32G02G28
  -1801509.77347  -1335155.10546  22667369.6094                   22667367.2624
        43.7504         39.2504
   -222763.27048   -115616.79748  21053714.3524                   21053711.0474
        50.5004         51.0004
   3558827.44547   2809999.59444  22717862.4534                   22717858.8284
        43.2504         29.7504
   2446748.85247   1952155.10245  21973474.0314                   21973469.0664
        44.5004         33.7504
    706199.95746    657012.15245  23260068.1884                   23260066.3444
        41.0004         34.2504
   1196596.58647    984919.30947  21765252.7814                   21765250.2194
        46.5004         46.0004
  -2453662.35548  -1842330.05148  20731231.6564                   20731228.8324
        50.0004         51.7504
  -1878854.30946  -1329937.68743  24670678.4384                   24670672.6054
        38.7504         21.0004
   4521005.80945   4847180.84043  24907746.9304                   24907748.0744
        33.5004         19.2504
 25  7 15 20 33 30.0000000  0  9G08G10G18G23G24G27G32G02G28
  -2083384.09847  -1554797.43046  22613730.6564                   22613728.6174
        44.5004         39.5004
   -481771.58648   -317441.45748  21004426.8834                   21004423.7504
        49.7504         51.0004
   3381016.24647   2671445.35545  22684026.5234                   22684022.3364
        43.0004         30.0004
   2240926.46947   1791774.00045  21934307.3364                   21934302.4264
        45.0004         34.0004
    476538.55546    478055.20345  23216364.8594                   23216362.9694
        39.7504         34.7504
    976160.12547    813150.60547  21723305.7344                   21723302.5864
        46.5004         45.7504
  -2750519.86348  -2073647.56248  20674741.5394                   20674738.7664
        50.0004         51.7504
  -2229792.99246  -1603396.33243  24603897.3984                   24603891.2934
        37.5004         22.5004
   4160972.24645   4566635.53943  24839235.0944                   24839235.7234
        34.7504         18.5004
 25  7 15 20 34  0.0000000  0  9G08G10G18G23G24G27G32G02G28
   -789314.28947   -546431.32846  22859983.6024                   22859981.5434
        44.0004         39.5004
    834771.22748    708436.06348  21254956.7424                   21254953.7424
        49.0004         50.7504
   4778903.27047   3760707.90645  22950035.5864                   22950031.4694
        42.5004         30.5004
   3610601.47347   2859053.21145  22194947.5704                   22194943.1724
        46.2504         33.7504
   1822867.99246   1527143.07045  23472562.6644                   23472561.0784
        40.2504         35.0004
   2331635.67247   1869365.29347  21981243.8594                   21981241.3134
        47.2504         46.0004
  -1471501.65248  -1077009.97748  20918130.8834                   20918127.7384
        50.5004         51.7504
  -1005312.52746   -649255.61743  24836907.8284                   24836902.4454
        38.5004         22.0004
   5376237.14145   5513595.47343  25070490.3134                   25070492.0394
        31.7504         18.2504
 25  7 15 20 34 30.0000000  0  9G08G10G18G23G24G27G32G02G28
  -1070157.60947   -765270.27346  22806541.3834                   22806539.0514
        44.5004         39.2504
    576008.72348    506802.94548  21205715.7974                   21205712.3164
        49.7504         50.7504
   4601636.77047   3622578.10544  22916302.1094                   22916299.4654
        42.5004         29.7504
   3404921.18047   2698782.83245  22155807.6724                   22155803.6454
        45.5004         33.7504
   1594333.39846   1349064.15245  23429074.0164                   23429072.4224
        39.5004         34.7504
   2112167.79347   1698351.33647  21939480.6174                   21939478.0234
        47.5004         46.0004
  -1767466.07848  -1307631.58248  20861810.6254                   20861807.2464
        50.0004         51.7504
  -1356273.60546   -922731.71543  24770122.5164                   24770116.1484
        39.2504         22.7504
   5015940.27745   5232845.00043  25001930.3524                   25001930.3874
        35.0004         18.2504
 25  7 15 20 35  0.0000000  0  9G08G10G18G23G24G27G32G02G28
  -1350484.66447   -983706.93046  22753196.7114                   22753194.4884
        44.0004         39.5004
    317368.99248    305265.48848  21156498.2424                   21156495.1054
        48.5004         50.7504
   4424641.35947   3484659.53144  22882622.0394                   22882618.4964
        42.5004         29.2504
   3199311.86347   2538567.75045  22116681.9304                   22116677.3554
        45.0004         33.2504
   1366361.46946   1171423.67645  23385692.8594                   23385691.1024
        39.5004         35.0004
   1893181.45347   1527712.60547  21897808.5864                   21897806.2624
        47.2504         46.2504
  -2062983.31648  -1537904.73048  20805575.5314                   20805572.0744
        50.5004         51.7504
  -1707243.74246  -1196214.84843  24703334.8674                   24703328.5594
        39.7504         22.5004
   4655515.89845   4951995.15643  24933342.1254                   24933343.3834
        33.7504         18.5004
 25  7 15 20 35 30.0000000  0  9G08G10G18G23G24G27G32G02G28
  -1630295.08647  -1201741.02046  22699950.5784                   22699948.7274
        44.5004         39.2504
     58851.84048    103823.56348  21107304.0084                   21107301.0204
        50.0004         50.7504
   4247916.12147   3346951.48444  22848992.6484                   22848988.8094
        42.5004         29.7504
   2993773.47747   2378407.94545  22077569.4534                   22077564.7344
        45.5004         32.5004
   1138951.53946    994221.12145  23342417.7504                   23342415.9024
        40.0004         35.0004
   1674674.83647   1357447.68447  21856227.9924                   21856225.5744
        47.5004         46.0004
  -2358053.04748  -1767829.17648  20749425.2664                   20749422.2624
        50.2504         52.0004
  -2058220.93746  -1469703.49243  24636546.3834                   24636540.0864
        38.2504         23.2504
   4294966.79745   4671048.06643  24864731.5474                   24864732.5824
        34.2504         18.5004
 25  7 15 20 36  0.0000000  0  9G08G10G18G23G24G27G32G02G28
  -1909586.99647  -1419371.08246  22646803.2974                   22646800.7424
        44.5004         39.5004
   -199541.44948    -97521.85548  21058133.2344                   21058130.3014
        50.7504         51.0004
   4071461.52747   3209454.34444  22815414.6564                   22815410.2664
        42.2504         29.2504
   2788307.41847   2218304.49645  22038470.5084                   22038465.6094
        44.0004         34.0004
    912104.40246    817457.10545  23299250.8834                   23299248.4844
        39.5004         35.2504
   1456647.41847   1187556.16847  21814739.3524                   21814736.3484
        47.5004         46.0004
  -2652673.45748  -1997403.50048  20693360.9384                   20693358.1764
        50.7504         52.0004
  -2409201.62546  -1743194.86343  24569756.6024                   24569751.0204
        38.2504         22.0004
   3934297.18455   4390007.13353  24796098.9064                   24796099.6724
        35.5004         19.5004
 25  7 15 20 36 30.0000000  0  9G08G10G18G23G24G27G32G02G28
  -2188358.31247  -1636595.47746  22593754.7734                   22593752.6024
        44.0004         39.2504
   -457809.22348   -298769.46948  21008986.9614                   21008983.6054
        50.7504         51.0004
   3895278.43047   3072168.74644  22781887.9694                   22781884.5664
        42.0004         29.0004
   2582915.39147   2058258.74245  21999385.6094                   21999381.3134
        45.5004         33.2504
    685821.12146    641132.46945  23256189.8204                   23256188.2504
        40.0004         35.0004
   1239099.01647   1018037.90247  21773341.0084                   21773338.1954
        47.5004         45.7504
  -2946842.55148  -2226626.14548  20637382.5474                   20637379.1254
        49.7504         52.0004
  -2760182.93746  -2016686.75043  24502967.3364                   24502960.9104
        38.0004         21.5004
   3573511.46946   4108875.68843  24727444.3444                   24727443.5904
        37.7504         20.7504
 25  7 15 20 37  0.0000000  0  9G08G10G18G23G24G27G32G02G28
   -891181.06247   -625808.01246  22840599.3524                   22840596.7074
        44.0004         39.0004
    859475.30948    727686.01648  21259657.8524                   21259655.0474
        49.2504         51.0004
   5294790.02347   4162697.19544  23048205.8134                   23048202.5434
        42.0004         29.2504
   3953022.52047   3125874.66045  22260107.9304                   22260103.7544
        44.5004         32.7504
   2035526.87146   1692851.23045  23513030.7274                   23513028.9414
        39.7504         35.5004
   2597453.27047   2076495.73447  22031827.2194                   22031824.4614
        47.0004         46.2504
  -1665131.91448  -1227890.56648  20881284.0004                   20881280.6024
        49.2504         52.2504
  -1535732.89546  -1062569.75443  24735972.0394                   24735965.6294
        38.0004         22.0004
   4788042.77046   5055263.96943  24958560.9144                   24958560.7974
        37.7504         20.5004
 25  7 15 20 37 30.0000000  0  9G08G10G18G23G24G27G32G02G28
  -1168913.68047   -842223.02346  22787748.7894                   22787746.4884
        45.0004         38.7504
    601454.58648    526630.89848  21210558.2814                   21210554.7584
        48.5004         50.7504
   5119143.43847   4025829.66444  23014781.3204                   23014777.8524
        42.0004         29.0004
   3747774.87947   2965941.40245  22221050.8444                   22221046.6484
        44.5004         32.7504
   1810365.64846   1517400.92245  23470183.9924                   23470182.2464
        39.7504         34.7504
   2380853.52047   1907716.68447  21990609.3914                   21990607.3524
        46.7504         45.7504
  -1958400.98448  -1456411.89848  20825476.7814                   20825473.5434
        50.0004         52.2504
  -1886713.45746  -1336061.01643  24669182.5474                   24669177.0594
        37.5004         21.7504
   4427029.59046   4773955.25043  24889862.0004                   24889862.3444
        39.0004         20.7504
 25  7 15 20 38  0.0000000  0  9G08G10G18G23G24G27G32G02G28
  -1446124.18747  -1058231.21146  22734997.6644                   22734994.8874
        44.2504         39.5004
    343559.53148    325673.72348  21161482.2114                   21161478.8554
        49.2504         51.0004
   4943766.00447   3889171.85944  22981408.2194                   22981404.7154
        42.5004         28.7504
   3542601.71547   2806066.19945  22182007.8674                   22182003.8404
        44.0004         32.5004
   1585766.68846   1342388.73045  23427444.0084                   23427442.6684
        39.0004         34.2504
   2164727.47747   1739306.75047  21949482.2664                   21949479.3954
        46.5004         45.5004
  -2251217.36348  -1684580.48448  20769755.6954                   20769751.9924
        49.0004         52.0004
  -2237688.69146  -1609548.16043  24602393.6644                   24602387.8364
        38.0004         21.0004
   4065909.16046   4492562.95643  24821142.9534                   24821143.0824
        38.5004         19.7504
 25  7 15 20 38 30.0000000  0  9G08G10G18G23G24G27G32G02G28
