     2.11           OBSERVATION DATA    G (GPS)             RINEX VERSION / TYPE
teqc  2019Feb25                         20250821 06:26:13UTCPGM / RUN BY / DATE
Linux 2.6.32-573.12.1.x86_64|x86_64|gcc -static|Linux 64|=+ COMMENT
BIT 2 OF LLI FLAGS DATA COLLECTED UNDER A/S CONDITION       COMMENT
35323571                                                    MARKER NAME
3571                                                        MARKER NUMBER
-Unknown-           -Unknown-                               OBSERVER / AGENCY
0220413532          TRIMBLE R7          2.32                REC # / TYPE / VERS
-Unknown-           TRM39105.00     NONE                    ANT # / TYPE
 -2418318.2723 -4604949.0350  3681199.9441                  APPROX POSITION XYZ
        0.0000        0.0000        0.0000                  ANTENNA: DELTA H/E/N
     1     1                                                WAVELENGTH FACT L1/2
     7    L1    L2    C1    P1    P2    S1    S2            # / TYPES OF OBSERV
    18                                                      LEAP SECONDS
 SNR is mapped to RINEX snr flag value [0-9]                COMMENT
  L1 & L2: min(max(int(snr_dBHz/6), 0), 9)                  COMMENT
  2025     8     8     8    38   30.0000000     GPS         TIME OF FIRST OBS
                                                            END OF HEADER
 25  8  8  8 38 30.0000000  0  8G06G11G14G17G19G24G30G12
   -174535.30157    -71748.62557  21650306.8524                   21650307.0084
        46.5004         45.5004
   -175110.53556    -28301.72754  23941618.6334                   23941617.2774
        39.5004         24.0004
   -106780.87157    -49062.51655  21687363.9064                   21687361.4734
        46.5004         33.5004
    -97553.35258    -41644.01257  21503219.6414                   21503216.6374
        48.0004         46.5004
   -127065.08658    -52300.03957  20065590.2504                   20065585.4654
        49.7504         43.7504
   -167916.47757    -68992.64857  21784126.6724                   21784126.3794
        45.0004         43.7504
    -65301.87556    -11986.98055  23853822.4924                   23853822.6254
        38.7504         32.5004
   -161729.12156    -26441.49255  24677202.9924                   24677201.1994
        37.5004         30.7504
 25  8  8  8 39  0.0000000  0 12G06G11G13G14G01G17G19G22G24G30G15G12
   -503135.43747   -327800.64847  21587776.7034                   21587776.2664
        46.7504         45.0004
   -536884.17246   -310203.18443  23872774.9064                   23872773.7154
        39.0004         23.0004
   -230775.24656   -112977.25054  23330259.0474                   23330256.1454
        41.5004         24.2504
   -307888.24647   -205769.58245  21649094.5164                   21649091.9454
        47.0004         32.5004
   -208345.75856   -120032.16053  24727118.2584                   24727116.0594
        37.0004         19.7504
   -283609.93448   -186623.18047  21467814.3754                   21467811.1724
        48.2504         45.0004
   -366244.14148   -238673.34446  20020076.5004                   20020071.0744
        48.7504         41.7504
   -316162.06257   -185527.14555  21469761.2814                   21469757.6524
        47.7504         35.7504
   -484009.73847   -315299.05146  21723975.7584                   21723975.6054
        44.7504         41.5004
   -210142.70746   -124850.03145  23826259.7734                   23826260.4384
        39.2504         31.2504
   -220381.85956   -126988.79355  24113496.3914                   24113495.1994
        39.0004         30.2504
   -500576.63746   -290478.39845  24612722.0164                   24612720.6174
        38.2504         30.2504
 25  8  8  8 39 30.0000000  0 12G06G11G13G14G01G17G19G22G24G30G15G12
    744075.00047    644051.67247  21825112.8914                   21825112.9304
        47.0004         44.7504
    676782.86746    635511.43844  24103728.2894                   24103726.7464
        39.2504         24.5004
   1184777.25846    990050.71543  23599628.5944                   23599627.0864
        40.0004         21.7504
   1066583.94547    865247.69145  21910647.6644                   21910645.2974
        46.2504         32.5004
   1197455.11746    975397.14843  24994633.1564                   24994630.9694
        38.0004         18.5004
   1105901.68848    896113.13747  21732229.6414                   21732226.1564
        48.5004         44.5004
    970352.47748    802830.51647  20274422.3134                   20274416.7234
        48.5004         42.0004
   1038917.03947    870378.64145  21727623.6254                   21727620.2274
        47.5004         35.7504
    775756.32447    666336.85247  21963701.9694                   21963701.1954
        45.7504         42.0004
   1220533.28946    989962.41045  24098507.9144                   24098508.6174
        38.5004         30.0004
   1175426.85546    960654.32445  24379109.5394                   24379108.9924
        39.2504         31.0004
    735945.75446    673045.66445  24848024.1334                   24848023.0044
        37.0004         30.0004
 25  8  8  8 40  0.0000000  0 12G06G11G13G14G01G17G19G22G24G30G15G12
    416271.87147    388620.68847  21762734.1954                   21762734.1174
        46.7504         44.7504
    315064.12146    353652.74243  24034895.3284                   24034894.0634
        39.2504         22.7504
   1024986.10247    865538.08243  23569222.7034                   23569219.5234
        42.0004         22.5004
    865817.50447    708806.28945  21872443.4304                   21872440.9344
        46.2504         32.7504
   1028142.56346    843465.25842  24962413.7974                   24962412.1024
        36.0004         17.7504
    920162.38748    751381.20347  21696884.5554                   21696881.3364
        49.0004         44.7504
    731903.03148    617025.75446  20229046.4844                   20229041.2424
        49.0004         41.5004
    818703.15247    698783.40645  21685718.5474                   21685715.1254
        47.0004         35.2504
    460557.89547    420727.70347  21903721.4304                   21903720.7774
        45.2504         42.5004
   1075909.36346    877268.37544  24070987.4614                   24070988.2154
        38.0004         29.2504
    995966.91046    820815.32044  24344959.3204                   24344958.6374
        37.7504         29.7504
    397011.69146    408941.30144  24783527.3134                   24783525.9184
        38.0004         29.7504
 25  8  8  8 40 30.0000000  0 12G06G11G13G14G01G17G19G22G24G30G15G12
     88895.46947    133522.22747  21700436.2344                   21700436.1024
        47.5004         45.0004
    -46598.93746     71837.39544  23966072.6484                   23966072.2544
        39.5004         25.0004
    865279.84046    741091.50043  23538829.7894                   23538828.9774
        39.5004         22.5004
    665245.87147    552516.68445  21834275.4454                   21834273.1764
        45.5004         32.2504
    859146.30946    711779.75843  24930254.5394                   24930252.6334
        38.0004         19.5004
    734602.25448    606788.88747  21661573.8984                   21661570.7384
        48.5004         44.7504
    493840.39548    431522.39846  20183744.7974                   20183739.8324
        49.5004         41.2504
    598630.48448    527298.21545  21643840.1484                   21643836.4494
        48.0004         35.5004
    145834.25047    175488.51647  21843831.7274                   21843830.8984
        45.2504         42.5004
    931414.65646    764675.03544  24043489.8914                   24043491.4694
        38.7504         29.2504
    816667.83645    681101.67644  24310839.3674                   24310839.3524
        35.5004         27.0004
     58057.78146    144821.47344  24719026.0554                   24719025.1564
        38.2504         29.5004
 25  8  8  8 41  0.0000000  0 12G06G11G13G14G01G17G19G22G24G30G15G12
   -238046.37947   -121237.63347  21638221.3524                   21638220.9454
        46.5004         44.7504
   -408198.48846   -209928.42643  23897263.3834                   23897262.1174
        40.0004         23.7504
    705660.80546    616712.97343  23508456.0944                   23508454.0474
        41.7504         22.0004
    464874.38747    396383.02745  21796146.4064                   21796144.1254
        46.2504         32.0004
    690468.96146    580342.99642  24898156.7194                   24898154.9224
        37.7504         16.7504
    549224.53148    462338.69947  21626297.7974                   21626294.2194
        48.5004         44.5004
    256168.31648    246323.37146  20138517.1644                   20138512.1054
        48.5004         41.5004
    378704.32847    355927.18045  21601989.7344                   21601986.0904
        47.2504         35.5004
   -168407.24647    -69374.98447  21784033.0004                   21784032.7664
        45.7504         42.7504
    787052.10246    652184.70344  24016019.9064                   24016020.1884
        38.2504         28.5004
    637531.38346    541514.71944  24276751.9304                   24276750.6054
        36.5004         26.0004
   -280909.87146   -119309.05145  24654522.5634                   24654521.3594
        37.7504         30.0004
 25  8  8  8 41 30.0000000  0 12G06G11G13G14G01G17G19G22G24G30G15G12
   -564548.06247   -375654.48847  21576090.1024                   21576090.1254
        47.0004         44.7504
   -769728.78546   -491640.32043  23828466.4454                   23828464.8444
        40.0004         22.7504
    546128.55146    492401.99643  23478098.3914                   23478096.8714
        41.0004         22.5004
    264706.14147    240407.74245  21758055.6094                   21758053.4344
        46.0004         32.5004
    522110.97746    449154.89843  24866119.5164                   24866117.1564
        38.5004         22.2504
    364030.26648    318031.47347  21591056.4224                   21591053.0394
        48.5004         45.0004
     18888.50048     61430.00846  20093364.2504                   20093359.5394
        49.0004         41.5004
    158928.09048    184672.96945  21560167.7894                   21560163.9614
        48.0004         35.0004
   -482161.55547   -313858.84447  21724327.8134                   21724327.2624
        45.0004         42.0004
    642822.37946    539797.82844  23988573.4614                   23988574.5394
        37.0004         29.2504
    458557.23846    402054.30544  24242694.1254                   24242692.8204
        37.5004         28.2504
   -619888.26646   -383447.97744  24590018.5084                   24590015.6914
        38.2504         29.5004
 25  8  8  8 42  0.0000000  0 12G06G11G13G14G01G17G19G22G24G30G15G12
   -890605.89847   -629725.50447  21514043.3524                   21514043.2854
        47.0004         44.7504
  -1131186.03546   -773295.28544  23759683.2974                   23759681.3984
        39.7504         25.5004
    386681.23446    368157.24243  23447756.3284                   23447754.0554
        40.7504         22.2504
     64742.28947     84591.73845  21720003.7424                   21720001.3134
        46.0004         32.5004
    354070.94545    318214.48043  24834141.3914                   24834140.4414
        35.2504         19.0004
    179018.19148    173866.21147  21555849.7344                   21555846.2934
        49.0004         44.7504
   -217999.24248   -123157.84846  20048285.8914                   20048281.0354
        48.5004         41.2504
    -60697.22747     13536.35245  21518374.1254                   21518370.9384
        47.5004         34.7504
   -795425.57447   -557960.67647  21664715.5784                   21664714.9184
        44.5004         42.5004
    498724.18446    427513.48844  23961152.7734                   23961153.1134
        37.2504         28.2504
    279742.89146    262718.43844  24208666.8364                   24208665.8634
        38.2504         29.2504
   -958875.46546   -647593.71945  24525510.3284                   24525509.1724
        38.2504         30.7504
 25  8  8  8 42 30.0000000  0 12G06G11G13G14G01G17G19G22G24G30G15G12
    359213.30147    344159.61747  21751875.7274                   21751875.7074
        47.2504         45.5004
     82864.29346    172717.97744  23990709.0394                   23990707.5704
        40.7504         24.7504
   1802740.66046   1471580.06643  23717223.9384                   23717221.9884
        40.5004         22.0004
   1440409.33647   1156540.04345  21981784.5944                   21981782.1094
        46.5004         32.5004
   1761771.719 6                  25102018.859
        36.750
   1569611.97348   1257445.77347  21820470.8524                   21820467.7194
        48.2504         44.5004
   1120931.00048    920164.42646  20303076.1564                   20303070.9884
        49.0004         41.0004
   1295255.94947   1070123.25045  21776403.5944                   21776400.1174
        47.0004         35.5004
    467232.96147    425929.09847  21904991.2194                   21904991.0944
        45.0004         43.0004
   1930179.80146   1542933.35544  24233549.7734                   24233551.1684
        39.5004         29.5004
   1676511.27046   1351109.34445  24474463.3834                   24474462.0314
        38.7504         30.0004
    277560.03946    315862.59844  24760796.2504                   24760794.2974
        37.7504         29.5004
 25  8  8  8 43  0.0000000  0 12G06G11G13G14G01G17G19G22G24G30G15G12
     34050.05147     90785.68847  21689999.1644                   21689999.1724
        47.2504         45.2504
   -278439.61346   -108817.46144  23921954.7424                   23921953.7814
        41.0004         24.7504
   1643452.66846   1347459.51243  23686912.5164                   23686910.5634
        40.7504         22.2504
   1240853.70747   1001042.14145  21943810.3444                   21943807.8834
        45.5004         32.5004
   1594358.80546   1396932.76653  25070161.4304                   25070159.2974
        36.5004         18.2504
   1384957.43848   1113559.11747  21785332.2274                   21785329.0084
        48.5004         44.7504
    884821.72348    736183.16046  20258145.9384                   20258140.6414
        48.2504         41.5004
   1075933.00447    899222.25045  21734667.8204                   21734664.5594
        47.0004         35.2504
    154954.84847    182595.51647  21845566.3204                   21845566.0634
        44.5004         43.0004
   1786336.90646   1430847.93444  24206177.3594                   24206177.8284
        38.2504         28.0004
   1498006.68846   1212014.80144  24440495.0944                   24440494.0394
        36.0004         29.2504
    -61444.95346     51702.94545  24696285.1174                   24696284.0084
        38.0004         30.0004
 25  8  8  8 43 30.0000000  0 12G06G11G13G14G01G17G19G22G24G30G15G12
   -290660.73847   -162235.67247  21628208.9454                   21628208.6414
        47.5004         45.2504
   -639661.42646   -390288.94144  23853216.3834                   23853215.1844
        41.2504         24.7504
   1484240.64846   1223398.12543  23656615.8674                   23656613.7304
        41.5004         22.7504
   1041503.60247    845704.35245  21905875.7734                   21905872.7304
        46.0004         31.5004
   1427257.07845   1266723.53143  25038362.5864                   25038360.8594
        35.2504         19.0004
   1200480.27348    969810.66047  21750227.3444                   21750223.9574
        48.7504         44.2504
    649101.64848    552505.19146  20213289.9304                   20213284.8404
        49.2504         41.5004
    856762.82047    728440.28545  21692961.2034                   21692957.4304
        47.5004         35.5004
   -156825.93047    -60350.53547  21786236.7814                   21786236.3914
        44.0004         42.5004
   1642619.51646   1318860.31344  24178828.5084                   24178829.3404
        38.2504         28.5004
   1319653.32846   1073038.08644  24406555.8054                   24406554.8054
        38.5004         29.2504
   -400457.43446   -212462.50844  24631773.0234                   24631771.5314
        37.5004         28.5004
 25  8  8  8 44  0.0000000  0 12G06G11G13G14G01G17G19G22G24G30G15G12
   -614917.94547   -414903.59047  21566504.7894                   21566504.8754
        47.2504         45.2504
  -1000799.87546   -671695.41444  23784494.1644                   23784493.4264
        41.5004         24.5004
   1325100.08646   1099392.42643  23626332.2424                   23626330.0084
        40.2504         21.0004
    842357.69147    690525.70345  21867979.4694                   21867976.4654
        45.7504         32.0004
   1260462.30546   1136753.58242  25006622.2504                   25006620.9774
        36.5004         16.7504
   1016176.67648    826197.46147  21715155.7114                   21715152.4614
        48.7504         44.5004
    413767.59448    369128.00046  20168507.4534                   20168502.2854
        49.0004         41.5004
    637744.24647    557776.46145  21651283.0784                   21651279.6994
        47.0004         35.2504
   -468108.82847   -302908.63347  21727001.5394                   21727001.1214
        43.7504         42.5004
   1499023.82046   1206967.47744  24151503.2894                   24151504.4534
        39.5004         29.0004
   1141446.62146    934175.64544  24372644.2424                   24372643.3554
        38.2504         29.5004
   -739478.61346   -476634.75744  24567259.2974                   24567258.6684
        38.0004         29.7504
 25  8  8  8 44 30.0000000  0 12G06G11G13G14G01G17G19G22G24G30G15G12
   -938717.75048   -667215.09047  21504887.7814                   21504887.6174
        48.2504         45.5004
  -1361850.89846   -953033.75844  23715788.8054                   23715787.0234
        41.2504         25.5004
   1166028.94946    975440.85943  23596061.0314                   23596060.0354
        40.5004         22.2504
    643417.31647    535507.19545  21830122.2504                   21830119.6484
        46.0004         32.2504
   1093973.12145   1007021.71142  24974940.6644                   24974939.6644
        33.2504         14.7504
    832046.00848    682719.01647  21680117.1884                   21680113.5554
        49.2504         44.7504
    178819.28548    186051.39846  20123798.4454                   20123793.3244
        49.2504         41.0004
    418879.02747    387232.13745  21609635.0704                   21609631.0744
        47.2504         35.5004
   -778890.56647   -545076.19947  21667862.2734                   21667861.6954
        44.5004         42.5004
   1355548.79746   1095168.68444  24124200.8914                   24124202.0084
        38.7504         28.5004
    963384.50046    795425.90244  24338759.3754                   24338759.2234
        39.0004         29.2504
  -1078506.56646   -740812.29344  24502744.7114                   24502743.2194
        38.0004         29.2504
 25  8  8  8 45  0.0000000  0 12G06G11G13G14G01G17G19G22G24G30G15G12
  -1262057.69147   -919168.26247  21443358.0944                   21443358.0634
        47.5004         45.7504
  -1722812.13746  -1234302.17244  23647099.9774                   23647098.5004
        41.2504         26.2504
   1007024.27046    851541.00843  23565804.1644                   23565801.9534
        40.7504         22.0004
    444682.55547    380648.90245  21792304.3984                   21792301.5514
        45.7504         32.0004
    927786.95745    877526.00042  24943316.4924                   24943316.4614
        34.5004         15.5004
    648086.22748    539373.72747  21645110.7274                   21645107.3714
        48.0004         44.2504
    -55744.95348      3274.06646  20079162.3524                   20079157.2034
        48.5004         41.5004
    200167.28547    216807.40245  21568015.0634                   21568011.8164
        47.7504         35.0004
  -1089169.21547   -786851.74647  21608818.0634                   21608817.7544
        44.7504         43.0004
   1212192.03946    983462.05544  24096921.7424                   24096922.0984
        38.5004         28.0004
    785463.75046    656786.31344  24304902.8834                   24304902.0124
        38.5004         29.2504
  -1417541.29646  -1004995.12244  24438228.9534                   24438227.1884
        38.7504         29.2504
 25  8  8  8 45 30.0000000  0 12G06G11G13G14G01G17G19G22G24G30G15G12
     -9504.44947     56847.28547  21681711.1954                   21681711.2194
        47.5004         45.7504
   -508248.48447   -287888.83644  23878223.5394                   23878222.5314
        42.0004         25.2504
   2423508.07046   1955294.57043  23835351.4144                   23835350.4344
        39.7504         22.5004
   1821580.21147   1453556.14845  22054319.0004                   22054316.6684
        45.5004         32.5004
   2337326.85245   1975868.79742  25211543.3134                   25211542.7074
        34.5004         16.2504
   2039720.96548   1623764.42247  21909929.8674                   21909926.2034
        49.2504         44.0004
   1285501.40248   1048401.09446  20334392.8444                   20334387.9024
        48.5004         41.0004
   1557036.63347   1274108.19545  21826219.0394                   21826215.3914
        47.5004         34.7504
    176487.61347    199374.36747  21849664.2344                   21849663.8284
        45.5004         42.7504
   2644376.13746   2099449.59044  24369457.6024                   24369457.7814
        38.0004         28.2504
   2183106.93046   1745858.87144  24570865.3674                   24570864.6884
        39.5004         29.7504
   -181151.09446    -41574.13044  24673505.9534                   24673503.9844
        39.2504         28.5004
 25  8  8  8 46  0.0000000  0 12G06G11G13G14G01G17G19G22G24G30G15G12
   -331915.22747   -194381.86347  21620358.2664                   21620358.3954
        47.0004         46.0004
   -869019.62146   -569009.08244  23809570.6804                   23809569.6524
        41.5004         25.5004
   2264628.74646   1831492.38343  23805118.7584                   23805116.6374
        41.0004         22.2504
   1623258.90247   1299020.02345  22016580.0704                   22016577.0274
        45.5004         31.7504
   2171740.81345   1846840.73442  25180032.1254                   25180032.3594
        34.5004         14.7504
   1856098.32048   1480681.83247  21874987.2974                   21874984.2664
        48.2504         44.0004
   1051703.12948    866220.62946  20289902.3594                   20289897.4884
        48.7504         41.7504
   1338634.51247   1103924.72345  21784658.5004                   21784654.5234
        47.5004         35.0004
   -132777.01647    -41611.02747  21790813.3204                   21790812.6994
        46.2504         43.7504
   2501250.97346   1987923.41444  24342221.2034                   24342221.5984
        38.0004         26.7504
   2005460.83646   1607433.28944  24537060.2664                   24537059.6134
        39.7504         29.7504
   -520196.43046   -305765.18044  24608987.9304                   24608985.8794
        38.7504         29.0004
 25  8  8  8 46 30.0000000  0 12G06G11G13G14G01G17G19G22G24G30G15G12
   -653858.95347   -445247.07847  21559094.1954                   21559094.0474
        46.7504         45.5004
  -1229692.88346   -850053.07044  23740936.9064                   23740935.5204
        41.7504         26.0004
   2105805.66446   1707734.17243  23774895.9224                   23774893.3954
        41.2504         21.5004
   1425143.13347   1144644.07845  21978879.9774                   21978877.3404
        45.5004         32.7504
   2006449.82845   1718042.52342  25148578.9144                   25148579.2034
        33.0004         16.2504
   1672640.23448   1337727.48047  21840076.4064                   21840073.6454
        48.0004         44.0004
    818284.74648    684336.17646  20245484.2274                   20245479.4774
        48.5004         41.0004
   1120386.38747    933861.25045  21743127.2974                   21743124.0824
        47.7504         35.5004
   -441533.00447   -282200.08247  21732059.1094                   21732058.2664
        46.0004         43.2504
   2358236.82846   1876483.76644  24315006.9304                   24315007.6844
        37.5004         27.0004
   1827946.05946   1469110.02344  24503279.8984                   24503280.0434
        40.2504         29.5004
   -859247.77346   -569960.94544  24544468.1254                   24544466.4384
        38.2504         28.7504
 25  8  8  8 47  0.0000000  0 12G06G11G13G14G01G17G19G22G24G30G15G12
   -975333.84047   -695746.96947  21497919.8834                   21497919.6684
        46.5004         46.0004
  -1590266.21946  -1131019.18444  23672322.0084                   23672320.5234
        41.7504         25.7504
   1947035.40246   1584017.00843  23744682.5474                   23744680.6804
        40.2504         21.0004
   1227232.32447    990427.84445  21941218.6564                   21941216.3754
        44.5004         31.7504
   1841450.26245   1589471.37942  25117180.3444                   25117181.6334
        33.5004         14.7504
   1489343.93048   1194899.18047  21805196.3054                   21805193.2934
        48.5004         43.7504
    585243.72348    502745.76646  20201138.1954                   20201133.2154
        48.7504         41.0004
    902291.52747    763917.20345  21701625.2114                   21701621.4844
        47.7504         34.5004
   -749779.09047   -522391.81247  21673401.8444                   21673401.2504
        46.2504         43.0004
   2215330.65646   1765128.22344  24287812.6954                   24287813.4534
        36.0004         26.7504
   1650558.87546   1330886.21144  24469525.4534                   24469524.4104
        39.5004         28.5004
  -1198305.59846   -834161.76244  24479947.1414                   24479945.3914
        38.5004         29.0004
 25  8  8  8 47 30.0000000  0 11G06G11G13G14G17G19G22G24G30G15G12
  -1296336.15247   -945878.61747  21436835.2504                   21436834.9534
        46.5004         46.0004
  -1950735.71146  -1411904.38744  23603727.5944                   23603725.3554
        41.7504         26.0004
   1788315.95746   1460339.52043  23714478.8204                   23714477.5124
        40.7504         22.5004
   1029527.84047    836372.37945  21903597.0234                   21903594.2544
        45.7504         32.2504
   1306208.53148   1052196.27047  21770347.2194                   21770343.7114
        48.2504         44.2504
    352580.21948    321449.53146  20156863.8444                   20156858.7704
        48.2504         41.0004
    684352.16848    594094.31645  21660152.3444                   21660148.8014
        48.2504         34.7504
  -1057512.03147   -762183.69547  21614841.7274                   21614841.6054
        46.2504         42.7504
   2072531.47746   1653856.05144  24260638.7114                   24260639.5634
        36.5004         27.5004
   1473296.94146   1192759.99244  24435792.3984                   24435792.4184
        38.7504         28.2504
  -1537368.25846  -1098366.36344  24415426.0784                   24415424.3754
        37.2504         28.5004
 25  8  8  8 48  0.0000000  0 11G06G11G13G14G17G19G22G24G30G15G12
  -1616861.68747  -1195638.75447  21375841.1644                   21375841.2304
        46.0004         46.0004
  -2311096.80946  -1692705.14144  23535152.7974                   23535151.0904
        41.2504         26.5004
   1629645.87146   1336700.42643  23684285.5704                   23684283.2074
        40.5004         21.5004
    832031.52047    682479.11745  21866014.3594                   21866011.6644
        44.7504         31.2504
   1123233.88348    909618.60947  21735527.7974                   21735524.5044
        48.2504         44.2504
    120294.44147    140447.62546  20112661.0394                   20112656.4884
        47.5004         41.0004
    466570.07447    424393.99645  21618710.0164                   21618706.4304
        47.5004         34.7504
  -1364728.21547  -1001572.89547  21556380.2114                   21556380.1804
        45.5004         43.0004
   1929838.64546   1542666.74244  24233485.1644                   24233486.1684
        37.0004         25.7504
   1296158.96946   1054730.34444  24402085.3524                   24402084.4734
        38.5004         29.0004
  -1876433.60946  -1362573.02744  24350903.4534                   24350902.1954
        37.0004         27.7504
 25  8  8  8 48 30.0000000  0 11G06G11G13G14G17G19G22G24G30G15G12
   -361475.64147   -217415.83247  21614733.0234                   21614733.1884
        47.0004         45.7504
  -1095913.02747   -745808.60944  23766393.8284                   23766392.5434
        42.0004         25.2504
   3046449.06346   2440702.89543  23953894.1024                   23953892.5594
        40.2504         22.2504
   2210171.75047   1756354.59845  22128265.5704                   22128263.2034
        45.2504         31.5004
   2515845.89148   1994770.81647  22000532.9064                   22000530.0274
        48.0004         43.7504
   1463814.42648   1187346.31346  20368324.7504                   20368319.3364
        48.5004         40.5004
   1824374.44948   1482423.36745  21877091.7114                   21877087.9184
        48.0004         34.5004
    -95993.88747    -12948.71147  21797812.6024                   21797812.1764
        45.5004         43.2504
   3362676.41845   2659163.60944  24506145.5634                   24506146.5044
        35.5004         26.5004
   2694569.34046   2144400.70344  24668194.0784                   24668193.1564
        38.5004         29.2504
   -640068.25846   -399171.40644  24586176.4614                   24586173.6804
        37.5004         28.5004
 25  8  8  8 49  0.0000000  0 11G06G11G13G14G17G19G22G24G30G15G12
   -681035.67647   -466423.62947  21553923.2584                   21553923.0744
        47.0004         46.2504
  -1456044.34847  -1026430.32444  23697863.6254                   23697861.6844
        42.0004         25.7504
   2887873.30146   2317137.31643  23923718.2734                   23923715.9614
        39.5004         20.7504
   2013096.73447   1602789.62545  22090763.6884                   22090761.3134
        45.0004         31.2504
   2333191.53947   1852442.74647  21965775.1954                   21965771.9924
        47.7504         44.0004
   1232284.51248   1006933.39846  20324266.1094                   20324260.9024
        48.2504         40.7504
   1606912.35548   1312972.38345  21835709.9614                   21835706.4574
        48.0004         35.0004
   -402166.21547   -251524.53147  21739550.0084                   21739549.5784
        45.5004         43.0004
   3220194.15245   2548138.37144  24479031.5394                   24479032.7664
        35.0004         26.2504
   2517674.53946   2006560.56644  24634531.6414                   24634531.6764
        39.5004         29.0004
   -979133.32046   -663377.86744  24521654.7194                   24521652.5354
        37.5004         28.5004
 25  8  8  8 49 30.0000000  0 11G06G11G13G14G17G19G22G24G30G15G12
  -1000104.28947   -715048.49247  21493206.5944                   21493205.7974
        47.7504         46.2504
  -1816051.66847  -1306955.43744  23629356.1884                   23629354.5594
        42.0004         26.0004
   2729344.90246   2193608.69143  23893551.0944                   23893549.4884
        40.0004         21.2504
   1816237.50447   1449392.78545  22053303.1564                   22053300.2344
        45.2504         32.2504
   2150699.49647   1710241.14847  21931048.0944                   21931045.1374
        47.7504         44.2504
   1001135.03148    826816.91446  20280279.8674                   20280274.7424
        49.0004         41.5004
   1389615.71947   1143650.31645  21794359.7664                   21794356.3054
        47.0004         34.7504
   -707808.80147   -489687.55147  21681388.1334                   21681387.2704
        45.0004         43.2504
   3077818.64845   2437196.32444  24451938.9144                   24451939.7384
        35.5004         26.7504
   2340901.23446   1868815.07445  24600892.6254                   24600892.5554
        39.7504         30.0004
  -1318192.43746   -927579.70744  24457133.9844                   24457132.0514
        38.0004         29.5004
 25  8  8  8 50  0.0000000  0 11G06G11G13G14G17G19G22G24G30G15G12
  -1318680.11747   -963289.36747  21432583.1724                   21432583.0394
        46.7504         46.2504
  -2175933.15247  -1587382.48844  23560873.2194                   23560871.2974
        42.2504         26.2504
   2570860.02746   2070113.89543  23863393.2814                   23863391.6254
        40.5004         21.2504
   1619593.22747   1296163.47345  22015882.3594                   22015880.0234
        43.7504         31.7504
   1968366.52748   1568163.50847  21896351.6414                   21896348.3204
        48.0004         43.7504
    770363.92248    646995.28146  20236365.6884                   20236360.4534
        48.2504         41.2504
   1172484.17247    974456.90245  21753041.3984                   21753037.9694
        46.7504         35.0004
  -1012920.73047   -727437.07847  21623327.5944                   21623327.0044
        43.7504         43.7504
   2935546.69945   2326334.94544  24424865.1884                   24424866.4614
        35.0004         28.0004
   2164245.45746   1731161.16044  24567276.6884                   24567275.4224
        39.7504         29.5004
  -1657246.30146  -1191777.48044  24392614.0004                   24392611.1994
        38.0004         25.5004
 25  8  8  8 50 30.0000000  0 11G06G11G13G14G17G19G22G24G30G15G12
  -1636760.70347  -1211144.34447  21372054.2424                   21372053.9774
        46.7504         46.5004
  -2535685.98847  -1867709.33244  23492414.0784                   23492412.5004
        42.5004         27.0004
   2412415.56646   1946650.69943  23833241.2584                   23833239.5274
        39.0004         21.2504
   1423163.97747   1143101.69945  21978503.2034                   21978500.5314
        43.7504         31.7504
   1786191.18848   1426208.68847  21861684.7894                   21861681.2734
        48.0004         43.7504
    539969.77747    467467.37146  20192523.0944                   20192517.9384
        47.7504         41.0004
    955517.89547    805392.26645  21711753.5944                   21711749.6724
        47.2504         35.0004
  -1317500.14147   -964771.65647  21565367.8914                   21565367.3674
        45.0004         43.5004
   2793376.01646   2215552.50444  24397811.2034                   24397812.2114
        36.0004         26.0004
   1987704.17646   1593596.44944  24533681.7584                   24533681.0474
        39.2504         29.5004
  -1996294.68746  -1455970.93744  24328095.4844                   24328093.4104
        37.5004         28.5004
 25  8  8  8 51  0.0000000  0 11G06G11G13G14G17G19G22G24G30G15G12
  -1954349.35947  -1458615.99647  21311619.2424                   21311619.3244
        47.0004         46.5004
  -2895313.07847  -2147938.16444  23423979.8054                   23423977.8674
        42.5004         26.2504
   2254002.89546   1823212.18443  23803096.0234                   23803095.0984
        39.2504         22.0004
   1226944.19547    990203.15645  21941163.9694                   21941160.9884
        44.5004         31.5004
   1604165.88748   1284370.78547  21827046.0394                   21827042.8204
        48.2504         43.7504
    309945.52747    288227.69946  20148750.5554                   20148745.6884
        47.7504         40.5004
    738711.59847    636452.28145  21670496.5704                   21670493.2274
        47.5004         34.7504
  -1621550.85247  -1201694.27347  21507508.7344                   21507508.2424
        45.0004         43.5004
   2651298.70346   2104842.82444  24370775.0784                   24370775.9884
        36.7504         27.0004
   1811268.44546   1456113.99644  24500106.9534                   24500106.5944
        38.7504         29.0004
  -2335342.62546  -1720164.07844  24263575.6484                   24263574.3054
        37.2504         27.7504
 25  8  8  8 51 30.0000000  0 11G06G11G13G14G17G19G22G24G30G15G12
   -696012.43747   -478093.69947  21551072.5634                   21551072.6804
        47.0004         46.5004
  -1679378.95346  -1200456.98444  23655363.8984                   23655362.6174
        41.0004         27.7504
   3671044.64546   2927400.52743  24072750.7584                   24072749.2974
        41.2504         21.5004
   2606361.25047   2065073.57045  22203658.4534                   22203655.9024
        44.0004         32.0004
   2997715.43847   2370253.55147  22092229.8444                   22092226.5514
        47.7504         43.7504
   1655717.73847   1336881.37946  20404842.4924                   20404837.6134
        47.5004         40.2504
   2097493.33247   1695243.23045  21929064.5314                   21929061.0204
        47.2504         34.7504
   -349640.23047   -210595.05547  21749545.7114                   21749544.5984
        44.7504         43.7504
   4084737.78946   3221808.21944  24643548.8134                   24643550.5314
        36.0004         28.0004
   3210361.19546   2546316.06344  24766345.7584                   24766345.0354
        39.7504         27.7504
  -1098957.90646   -756747.38744  24498851.8834                   24498850.0594
        38.7504         28.0004
 25  8  8  8 52  0.0000000  0 11G06G11G13G14G17G19G22G24G30G15G12
  -1012609.71547   -724792.85947  21490826.3284                   21490826.0124
        46.5004         46.5004
  -2038745.68746  -1480482.97344  23586978.2894                   23586976.6884
        41.7504         26.7504
   3512686.46546   2804004.47743  24042615.7814                   24042614.6214
        39.5004         20.5004
   2410561.23047   1912502.11745  22166398.5084                   22166396.3364
        44.0004         32.0004
   2815984.76248   2228645.22347  22057647.9224                   22057644.3204
        48.0004         43.7504
   1426428.81347   1158214.69146  20361210.2734                   20361205.4494
        47.0004         40.2504
   1881008.20747   1526553.52045  21887868.7034                   21887865.0234
        47.5004         35.2504
   -652627.66847   -446689.14847  21691888.9774                   21691888.0784
        46.0004         43.5004
   3942840.61746   3111238.93844  24616547.8134                   24616548.4534
        37.0004         28.0004
   3034127.47746   2408991.02344  24732810.5784                   24732809.1094
        40.0004         28.5004
  -1438003.52746  -1020938.72344  24434333.8914                   24434332.2774
        38.5004         28.5004
 25  8  8  8 52 30.0000000  0 11G06G11G13G14G17G19G22G24G30G15G12
  -1328708.78547   -971103.79747  21430674.5394                   21430674.6174
        47.0004         46.5004
  -2397979.05547  -1760405.03144  23518618.2974                   23518617.2974
        42.5004         27.0004
   3354349.98446   2680625.35943  24012486.8594                   24012484.5864
        40.7504         20.5004
   2214970.19947   1760093.49645  22129178.9924                   22129176.9414
        44.0004         32.0004
   2634397.51247   2087148.65247  22023093.0084                   22023089.6844
        47.5004         43.7504
   1197504.52048    979832.12546  20317647.8134                   20317642.3284
        48.2504         40.7504
   1664683.50447   1357988.80945  21846703.4224                   21846699.8164
        47.0004         34.5004
   -955081.74247   -682367.63347  21634333.4774                   21634333.0234
        46.0004         44.0004
   3801029.12546   3000736.36344  24589561.1884                   24589562.9734
        36.7504         28.5004
   2857989.02346   2271740.19544  24699291.6254                   24699291.2664
        39.5004         28.5004
  -1777048.30946  -1285129.40644  24369816.0474                   24369814.4844
        38.2504         28.5004
 25  8  8  8 53  0.0000000  0 11G06G11G13G14G17G19G22G24G30G15G12
  -1644308.72347  -1217025.80547  21370618.3984                   21370617.6294
        46.2504         46.5004
  -2757077.60547  -2040222.03144  23450284.5634                   23450283.0864
        42.0004         27.5004
   3196030.62546   2557259.50443  23982358.5944                   23982357.2934
        38.7504         20.2504
   2019586.95347   1607846.79745  22091998.6254                   22091996.4184
        44.2504         31.0004
   2452950.49248   1945761.35947  21988564.8054                   21988561.4264
        48.2504         43.2504
    968942.08248    801731.52346  20274153.7664                   20274148.4964
        48.2504         41.0004
   1448518.18447   1189548.29745  21805568.4144                   21805564.9064
        47.5004         34.2504
  -1257002.02047   -917630.17647  21576880.2034                   21576879.5664
        45.7504         43.7504
   3659299.63746   2890297.71944  24562592.4694                   24562592.4224
        36.7504         27.7504
   2681941.29746   2134560.06344  24665791.2664                   24665790.4064
        39.5004         29.0004
  -2116092.90246  -1549319.99644  24305297.8204                   24305295.9264
        38.2504         28.5004
 25  8  8  8 53 30.0000000  0 11G06G11G13G14G17G19G22G24G30G15G12
  -1959408.27348  -1462557.91447  21310656.5944                   21310656.2464
        48.0004         46.7504
  -3116039.58647  -2319932.60944  23381976.9384                   23381974.5904
        43.0004         26.7504
   3037724.52046   2433903.97343  23952233.9924                   23952232.4774
        40.5004         20.5004
   1824410.52047   1455761.24645  22054857.9694                   22054855.8954
        44.7504         31.5004
   2271640.64547   1804480.95747  21954062.4844                   21954059.4184
        47.7504         43.5004
    740738.80547    623910.79346  20230727.7734                   20230722.8404
        47.5004         40.2504
   1232511.33247   1021231.26245  21764463.8054                   21764460.7854
        47.5004         34.7504
  -1558387.87547  -1152476.28147  21519528.5164                   21519527.5744
        47.0004         43.7504
   3517648.76246   2779920.31644  24535636.0554                   24535637.1294
        36.2504         27.7504
   2505980.36346   1997447.59845  24632307.2114                   24632306.3984
        40.0004         30.0004
  -2455138.19146  -1813511.07444  24240779.5474                   24240778.0514
        39.0004         29.7504
 25  8  8  8 54  0.0000000  0 11G06G11G13G14G17G19G22G24G30G15G12
  -2274003.50447  -1707697.03547  21250790.8364                   21250790.8364
        47.2504         46.7504
  -3474860.52347  -2599533.27744  23313694.7344                   23313693.1254
        42.5004         27.5004
   2879430.30146   2310557.79743  23922111.6884                   23922110.6334
        39.2504         20.5004
   1629442.62947   1303838.19945  22017757.2504                   22017754.7154
        43.7504         31.7504
   2090468.00048   1663307.45747  21919586.4924                   21919583.2274
        48.0004         43.2504
    512894.94147    446370.11746  20187370.8364                   20187365.6454
        47.2504         41.0004
   1016664.77347    853039.12945  21723389.8444                   21723385.8094
        47.5004         34.2504
  -1859235.83647  -1386903.26247  21462278.8914                   21462278.2274
        46.2504         43.7504
   3376075.94546   2669603.72744  24508695.8594                   24508696.8484
        38.0004         28.7504
   2330104.56646   1860401.44944  24598838.3134                   24598838.5434
        40.0004         29.7504
  -2794182.05146  -2077701.06644  24176262.4454                   24176259.6134
        39.0004         28.7504
 25  8  8  8 54 30.0000000  0 11G06G11G13G14G17G19G22G24G30G15G12
  -2588093.00447  -1952442.08647  21191021.6644                   21191021.8054
        47.7504         46.7504
  -3833538.47747  -2879022.50844  23245441.1334                   23245438.8874
        43.0004         27.2504
   2721144.07046   2187217.69543  23891991.7114                   23891989.3874
        40.5004         19.5004
   1434682.52747   1152077.06645  21980695.4774                   21980692.9654
        43.7504         30.5004
   1909429.69548   1522238.64847  21885135.9924                   21885132.8834
        48.0004         43.5004
    285408.28947    269107.79346  20144081.5704                   20144076.2464
        46.7504         40.5004
    800978.38347    684971.80945  21682346.2114                   21682342.4264
        47.2504         34.7504
  -2159545.03547  -1620910.41447  21405131.5084                   21405131.1374
        47.0004         43.7504
   3234578.03146   2559345.51644  24481768.7894                   24481771.4384
        37.2504         29.0004
   2154309.78946   1723418.43044  24565385.8984                   24565385.6414
        39.2504         29.2504
  -3133224.66846  -2341890.07445  24111744.1564                   24111742.3444
        38.7504         30.0004
 25  8  8  8 55  0.0000000  0 11G06G11G13G14G17G19G22G24G30G15G12
  -1326243.70348   -969182.87547  21431143.6884                   21431143.3484
        48.0004         46.7504
  -2616638.35247  -1930788.57844  23477009.6174                   23477007.7114
        43.0004         26.7504
   4138288.44546   3291486.00043  24161664.9924                   24161663.2584
        40.2504         20.5004
   2815557.10947   2228083.21145  22243467.0314                   22243464.4144
        43.2504         31.0004
   3303950.47747   2608878.20747  22150504.6724                   22150501.2304
        47.7504         43.5004
   1633705.13348   1319728.71546  20400653.6484                   20400648.6024
        48.0004         40.0004
   2160880.09048   1744635.46945  21941126.3674                   21941122.5944
        48.0004         34.7504
   -883883.43047   -626888.38347  21647882.2274                   21647881.7424
        46.5004         44.2504
   4668577.79346   3676747.81844  24754650.9774                   24754652.4104
        38.0004         29.0004
   3554019.45746   2814101.24644  24831742.0864                   24831741.7814
        39.0004         29.5004
  -1896834.03946  -1378468.75844  24347021.2584                   24347019.5394
        37.5004         28.5004
 25  8  8  8 55 30.0000000  0 11G06G11G13G14G17G19G22G24G30G15G12
  -1639314.59847  -1213134.20747  21371567.7974                   21371568.1334
        47.0004         46.7504
  -2975021.43747  -2210048.03544  23408812.0314                   23408809.4884
        43.2504         28.5004
   3980009.78546   3168151.79343  24131545.6564                   24131544.0164
        39.5004         20.0004
   2621213.34847   2076646.49645  22206484.4614                   22206482.4614
        43.5004         30.5004
   3123176.18047   2468015.11347  22116104.4304                   22116100.9494
        47.2504         43.0004
   1406928.59848   1143019.73046  20357499.3524                   20357494.8014
        48.2504         40.5004
   1945515.67647   1576819.03945  21900144.3524                   21900140.3714
        47.5004         34.0004
  -1183109.60247   -860051.62947  21590941.5394                   21590940.6954
        46.0004         43.7504
   4527223.16846   3566601.21544  24727752.0164                   24727753.3014
        36.7504         27.5004
   3378378.09446   2677237.78944  24798318.2894                   24798318.2074
        38.7504         28.7504
  -2235872.57446  -1642654.57444  24282503.6564                   24282501.6174
        37.7504         26.2504
 25  8  8  8 56  0.0000000  0 11G06G11G13G14G17G19G22G24G30G15G12
  -1951873.41447  -1456686.52047  21312090.0554                   21312089.8134
        47.0004         47.0004
  -3333253.48447  -2489189.80144  23340642.0084                   23340639.7664
        42.5004         29.2504
   3821729.71946   3044816.53943  24101426.6724                   24101424.3634
        40.5004         20.7504
   2427077.25047   1925371.60245  22169541.7274                   22169539.3674
        43.0004         31.5004
   2942530.46947   2327252.21947  22081728.6644                   22081725.4454
        47.2504         43.0004
   1180504.48847    966585.36346  20314412.9224                   20314407.8324
        46.5004         40.5004
   1730312.04747   1409127.89845  21859192.1254                   21859188.3674
        47.7504         34.5004
  -1481792.25847  -1092791.35547  21534103.6254                   21534103.5944
        46.0004         43.7504
   4385936.28546   3456507.43044  24700866.4534                   24700867.6294
        37.7504         29.7504
   3202808.24646   2540430.03944  24764908.8984                   24764908.5634
        39.0004         29.7504
  -2574908.65646  -1906838.51645  24217988.0004                   24217986.8754
        39.5004         30.2504
 25  8  8  8 56 30.0000000  0 11G06G11G13G14G17G19G22G24G30G15G12
  -2263917.24247  -1699837.53947  21252710.3444                   21252709.8834
        46.7504         47.0004
  -3691330.97347  -2768211.15644  23272501.9534                   23272499.9184
        43.5004         27.7504
   3663445.73446   2921478.26643  24071305.2814                   24071304.5274
        38.2504         20.2504
   2233149.75847   1774259.25045  22132638.5944                   22132636.4224
        43.5004         30.5004
   2762012.37947   2186588.75847  22047377.3754                   22047374.0124
        47.5004         43.0004
    954432.07047    790425.03946  20271392.4774                   20271387.5824
        47.0004         40.2504
   1515270.36347   1241562.94145  21818271.1174                   21818267.6134
        47.7504         35.2504
  -1779929.03147  -1325105.73447  21477370.7894                   21477369.8404
        45.5004         44.7504
   4244715.50046   3346465.13744  24673992.6094                   24673994.1254
        37.7504         29.2504
   3027307.34846   2403675.98844  24731513.3984                   24731511.8444
        38.0004         27.7504
  -2913941.29746  -2171019.69544  24153471.3364                   24153470.2774
        36.7504         26.5004
 25  8  8  8 57  0.0000000  0 11G06G11G13G14G17G19G22G24G30G15G12
  -2575444.72747  -1942586.21947  21193428.6024                   21193428.0274
        46.7504         47.0004
  -4049251.86747  -3047110.48044  23204391.9454                   23204389.8054
        43.0004         27.7504
   3505154.55946   2798134.33243  24041183.4534                   24041182.3204
        39.0004         20.5004
   2039430.05947   1623308.81345  22095774.8984                   22095772.2624
        43.7504         31.0004
   2581619.24647   2046022.68047  22013049.5944                   22013046.3094
        46.5004         42.7504
    728708.64848    614536.66446  20228438.7424                   20228434.0744
        48.0004         40.2504
   1300390.39848   1074124.00045  21777381.0704                   21777377.3054
        48.2504         34.2504
  -2077519.12947  -1556994.11747  21420740.9534                   21420740.4184
        46.5004         44.0004
   4103557.82046   3236471.97345  24647131.9534                   24647133.2304
        38.5004         31.2504
   2851871.74646   2266972.85244  24698128.6024                   24698128.0124
        39.0004         28.5004
  -3252970.50846  -2435198.32044  24088958.0234                   24088955.1844
        39.0004         29.2504
 25  8  8  8 57 30.0000000  0 11G06G11G13G14G17G19G22G24G30G15G12
  -2886452.98447  -2184930.29747  21134245.3054                   21134245.0944
        47.7504         47.0004
  -4407012.65247  -3325885.06644  23136311.7894                   23136309.6644
        42.7504         28.0004
   3346853.93846   2674783.00843  24011060.3524                   24011059.2774
        39.0004         19.5004
   1845918.99247   1472520.96545  22058951.3984                   22058949.1604
        43.5004         30.5004
   2401349.76247   1905552.92647  21978745.5554                   21978741.9384
        46.5004         43.5004
    503333.73047    438919.84846  20185551.1564                   20185545.9964
        47.5004         40.2504
   1085673.02048    906811.75845  21736521.2814                   21736517.8204
        48.2504         34.7504
  -2374560.16447  -1788454.67247  21364216.0554                   21364215.4884
        46.2504         44.5004
   3962461.61346   3126526.78544  24620282.4454                   24620283.4884
        38.7504         29.7504
   2676498.80546   2130318.53144  24664755.1804                   24664755.4774
        38.5004         27.7504
  -3591995.16846  -2699373.28144  24024442.6254                   24024441.4654
        38.2504         29.2504
 25  8  8  8 58  0.0000000  0 11G06G11G13G14G17G19G22G24G30G15G12
  -1621508.27347  -1199259.07047  21374956.6724                   21374955.9654
        47.2504         47.0004
  -3189177.24647  -2376922.33644  23368058.3284                   23368056.4454
        43.2504         28.0004
   4763967.28146   3779027.01243  24280728.3054                   24280726.7304
        39.0004         19.0004
   3228044.34847   2549501.72745  22321960.5004                   22321958.5664
        42.5004         30.7504
   3796629.85947   2992784.16847  22244258.3134                   22244255.3674
        47.2504         42.5004
   1853734.90247   1491180.50846  20442524.1414                   20442519.2304
        46.2504         39.7504
   2446547.25448   1967233.23045  21995487.4924                   21995483.9734
        48.2504         34.7504
  -1095619.32447   -791877.39847  21607590.1484                   21607589.7854
        46.5004         44.2504
   5396850.59446   4244232.32844  24893236.9064                   24893238.5824
        38.5004         29.0004
   4076612.88746   3221316.43044  24931188.0474                   24931188.3754
        40.0004         29.7504
  -2355582.51246  -1735934.82844  24259724.0234                   24259721.8204
        39.5004         29.2504
 25  8  8  8 58 30.0000000  0 11G06G11G13G14G17G19G22G24G30G15G12
  -1931470.62147  -1440788.16447  21315972.7274                   21315972.4534
        47.5004         47.0004
  -3546608.16847  -2655439.87144  23300041.2274                   23300039.7774
        43.5004         29.0004
   4605639.75846   3655654.73843  24250598.9924                   24250598.1804
        38.5004         19.0004
   3034951.85947   2399040.03145  22285216.2584                   22285214.2734
        43.2504         31.7504
   3616603.87947   2852504.18047  22210000.6174                   22209997.2304
        47.0004         42.7504
   1629054.02747   1316104.50046  20399768.9064                   20399763.7934
        47.2504         40.2504
   2232157.71948   1800176.44945  21954690.6724                   21954686.5984
        48.2504         34.2504
  -1391556.34847  -1022477.68047  21551274.9774                   21551274.6174
        47.0004         44.0004
   5255871.64546   4134378.46544  24866410.2664                   24866411.4184
        38.7504         29.2504
   3901357.37946   3084753.57044  24897838.8444                   24897838.3914
        39.2504         28.7504
  -2694595.73046  -2000100.94144  24195211.4774                   24195209.9774
        37.5004         28.0004
 25  8  8  8 59  0.0000000  0 11G06G11G13G14G17G19G22G24G30G15G12
  -2240905.30548  -1681906.07847  21257089.3914                   21257088.9024
        48.2504         47.0004
  -3903868.39147  -2933824.35944  23232057.0474                   23232055.1994
        42.7504         28.5004
   4447295.82846   3532269.68843  24220468.1334                   24220466.8484
        38.2504         20.0004
   2842070.30147   2248742.69545  22248512.5004                   22248509.8874
        44.0004         30.7504
   3436698.44947   2712318.12147  22175765.3524                   22175762.5004
        47.2504         43.0004
   1404718.77047   1141297.80946  20357078.9384                   20357074.0664
        47.2504         40.0004
   2017933.64848   1633248.60545  21913924.7584                   21913921.3754
        48.0004         34.7504
  -1686937.43747  -1252644.76647  21495066.1334                   21495065.6254
        47.2504         44.7504
   5114949.50846   4024568.85544  24839593.4304                   24839595.2344
        38.2504         29.0004
   3726157.44146   2948234.03944  24864499.3204                   24864499.2154
        40.2504         29.2504
  -3033600.89546  -2264260.73845  24130701.8134                   24130700.0634
        40.2504         30.7504
 25  8  8  8 59 30.0000000  0 11G06G11G13G14G17G19G22G24G30G15G12
  -2549811.73448  -1922612.37547  21198306.2114                   21198305.7934
        48.2504         47.0004
  -4260956.64147  -3212074.88744  23164105.1564                   23164103.4884
        43.7504         28.0004
   4288931.04346   3408868.41843  24190332.1954                   24190331.3594
        40.5004         19.5004
   2649398.30547   2098608.66445  22211847.7034                   22211845.5904
        43.0004         30.0004
   3256910.50048   2572223.61747  22141553.0634                   22141550.1454
        48.0004         42.7504
   1180726.73847    966758.57446  20314454.6414                   20314449.6414
        47.2504         40.2504
   1803874.47747   1466449.25045  21873190.8594                   21873186.9454
        47.5004         34.2504
  -1981762.55147  -1482378.62147  21438962.9844                   21438962.2304
        47.2504         44.0004
   4974080.35946   3914800.53145  24812787.4614                   24812788.6024
        38.7504         30.2504
   3551008.77046   2811754.44545  24831169.6954                   24831169.6334
        38.7504         30.2504
  -3372598.50446  -2528414.66844  24066192.1804                   24066190.0824
        38.2504         29.0004
 25  8  8  9  0  0.0000000  0 11G06G11G13G14G17G19G22G24G30G15G12
  -2858187.93748  -2162905.49647  21139623.9774                   21139624.0784
        48.2504         47.0004
  -4617870.12547  -3490189.23044  23096186.8364                   23096185.0594
        44.2504         29.2504
   4130542.23846   3285448.41843  24160191.3204                   24160190.9414
        37.7504         19.2504
   2456935.86747   1948637.91845  22175223.4534                   22175221.4614
        43.2504         31.0004
   3077238.18047   2432219.20747  22107362.6174                   22107359.2934
        46.5004         42.7504
    957076.61747    792485.75846  20271895.4534                   20271890.5664
        47.5004         40.2504
   1589981.01247   1299779.02045  21832488.2344                   21832484.5204
        47.0004         35.0004
  -2276030.25847  -1711678.14147  21382965.6334                   21382965.0594
        47.0004         44.7504
   4833261.86746   3805071.67245  24785990.1804                   24785991.7734
        38.7504         30.5004
   3375908.06646   2675312.19144  24797849.5004                   24797848.9774
        38.2504         28.5004
  -3711588.44146  -2792562.64545  24001685.1564                   24001683.3874
