     2.11           OBSERVATION DATA    G (GPS)             RINEX VERSION / TYPE
teqc  2019Feb25     K Rivera            20250728 21:41:46UTCPGM / RUN BY / DATE
Linux 2.6.32-573.12.1.x86_64|x86_64|gcc -static|Linux 64|=+ COMMENT
teqc  2019Feb25                         20250728 21:41:30UTCCOMMENT
BIT 2 OF LLI FLAGS DATA COLLECTED UNDER A/S CONDITION       COMMENT
YERMO                                                       MARKER NAME
                                                            MARKER NUMBER
K Baraggiotta       University of California, Riverside     OBSERVER / AGENCY
0220413516          TRIMBLE R7          2.32                REC # / TYPE / VERS
12118428            TRM41249.00                             ANT # / TYPE
 -2365364.9880 -4672584.4678  3629199.2299                  APPROX POSITION XYZ
        1.2326        0.0000        0.0000                  ANTENNA: DELTA H/E/N
     1     1                                                WAVELENGTH FACT L1/2
     7    L1    L2    C1    P1    P2    S1    S2            # / TYPES OF OBSERV
    18                                                      LEAP SECONDS
 SNR is mapped to RINEX snr flag value [0-9]                COMMENT
  L1 & L2: min(max(int(snr_dBHz/6), 0), 9)                  COMMENT
  2025     7    16     0     0   30.0000000     GPS         TIME OF FIRST OBS
                                                            END OF HEADER
 25  7 16  0  0 30.0000000  0 10G01G02G03G25G10G28G31G32G04G26
 -21507469.43057 -16714306.45755  21143252.2894                   21143249.8204
        46.5004         35.0004
 -11686747.51257  -9085886.88355  21992921.0784                   21992916.5664
        45.5004         34.2504
 -27091135.28157 -21303618.76657  21692353.1414                   21692352.2934
        47.0004         42.0004
 -15061719.30155 -12117262.68453  24480830.9534                   24480832.2584
        31.0004         19.2504
  -3856776.20756  -2997260.31655  24226417.5084                   24226418.6724
        39.2504         32.2504
 -12373112.47757  -9618909.86355  21393710.2344                   21393707.8444
        46.0004         35.5004
 -22903090.61758 -17816012.55158  20130199.1414                   20130195.7274
        49.5004         49.0004
  -4345998.63357  -3380078.16456  23569797.5394                   23569797.2034
        42.0004         37.0004
 -21038796.37956 -15320833.25353  23311640.6724                   23311640.5084
        38.5004         21.0004
 -18817504.29756 -14619094.63355  23427959.0394                   23427960.7464
        39.2504         32.5004
 25  7 16  0  1  0.0000000  0 10G01G02G03G25G10G28G31G32G04G26
 -21594925.28547 -16782453.87945  21126610.1484                   21126607.6294
        47.2504         35.2504
 -11717787.72747  -9110074.10245  21987014.2114                   21987009.6884
        45.7504         34.5004
 -27255185.67247 -21431450.19947  21661135.0944                   21661134.6454
        46.2504         42.7504
 -15116494.02345 -12159944.31243  24470407.5864                   24470408.5164
        32.0004         20.2504
  -3856200.30546  -2996811.67245  24226526.8284                   24226528.0664
        38.5004         32.5004
 -12403549.08647  -9642626.71145  21387918.6334                   21387915.8284
        45.7504         35.5004
 -22996366.25848 -17888694.87948  20112449.7424                   20112445.8834
        48.0004         49.0004
  -4363811.86747  -3393958.64146  23566407.6174                   23566407.4304
        42.0004         36.0004
 -21192844.36746 -15440870.61743  23282326.5234                   23282325.9264
        39.2504         21.5004
 -18991083.19546 -14754350.80545  23394927.8444                   23394930.0474
        38.2504         32.0004
 25  7 16  0  1 30.0000000  0 10G01G02G03G25G10G28G31G32G04G26
 -21681750.08647 -16850109.57845  21110087.9064                   21110085.5314
        47.5004         35.2504
 -11748392.34447  -9133921.89845  21981190.6564                   21981185.7934
        46.2504         34.0004
 -27419020.54347 -21559113.69547  21629958.5004                   21629957.8954
        46.2504         42.2504
 -15170691.92645 -12202176.47743  24460094.1724                   24460095.2664
        31.0004         20.2504
  -3855365.51646  -2996161.33245  24226685.1334                   24226687.6094
        37.5004         31.5004
 -12433499.72747  -9665964.87945  21382219.3364                   21382216.6374
        45.2504         35.5004
 -23088979.45348 -17960860.99648  20094826.1254                   20094822.1484
        48.0004         49.0004
  -4381564.48847  -3407791.89846  23563029.0784                   23563029.7704
        42.7504         36.7504
 -21346720.41446 -15560773.95743  23253045.0944                   23253044.2774
        39.5004         21.7504
 -19164476.77346 -14889462.57445  23361932.3204                   23361934.1484
        38.5004         32.2504
 25  7 16  0  2  0.0000000  0 10G01G02G03G25G10G28G31G32G04G26
 -21767950.66447 -16917278.87145  21093684.2814                   21093681.8754
        46.5004         35.5004
 -11778571.03947  -9157437.80945  21975447.9454                   21975443.3014
        46.5004         34.5004
 -27582644.69147 -21686612.99647  21598821.1954                   21598821.1604
        46.5004         42.2504
 -15224320.50055 -12243964.96153  24449889.7194                   24449891.2814
        30.5004         19.0004
  -3854279.50446  -2995315.21144  24226891.9064                   24226893.3874
        37.2504         29.7504
 -12462973.51647  -9688931.48445  21376610.7814                   21376607.8134
        45.5004         34.7504
 -23180937.43748 -18032516.55948  20077326.8984                   20077323.5514
        48.0004         49.0004
  -4399263.58647  -3421583.46546  23559661.6024                   23559661.8204
        43.5004         36.7504
 -21500431.41446 -15680548.70743  23223794.9924                   23223794.0234
        39.0004         21.2504
 -19337688.55546 -15024432.70745  23328971.4224                   23328972.5164
        39.0004         31.5004
 25  7 16  0  2 30.0000000  0 10G01G02G03G25G10G28G31G32G04G26
 -21853527.14847 -16983961.85245  21077399.7274                   21077397.1954
        47.0004         35.2504
 -11808325.57847  -9180623.21145  21969785.5944                   21969781.2734
        46.0004         34.5004
 -27746055.99647 -21813946.44947  21567725.6484                   21567725.3834
        46.0004         42.7504
 -15277380.44154 -12285310.40653  24439792.0474                   24439795.2504
        28.7504         19.5004
  -3852943.12946  -2994273.95744  24227146.1334                   24227148.7384
        37.0004         28.7504
 -12491972.69947  -9711528.25445  21371092.1414                   21371089.7584
        46.2504         35.5004
 -23272240.35948 -18103661.69148  20059952.5634                   20059949.3914
        48.5004         49.0004
  -4416909.45747  -3435333.53546  23556303.9304                   23556303.9264
        43.5004         37.5004
 -21653977.52046 -15800194.93043  23194575.1024                   23194574.8874
        39.0004         20.5004
 -19510715.35946 -15159258.72345  23296045.1254                   23296046.7504
        39.0004         32.2504
 25  7 16  0  3  0.0000000  0 10G01G02G03G25G10G28G31G32G04G26
 -21938470.80548 -17050151.71945  21061235.6094                   21061233.1024
        48.0004         35.2504
 -11837649.23847  -9203472.85245  21964205.6644                   21964201.1524
        46.0004         33.7504
 -27909243.68047 -21941105.65647  21536671.6644                   21536671.5234
        45.7504         42.5004
 -15329863.67255 -12326206.48053  24429805.5084                   24429807.9264
        31.7504         20.5004
  -3851348.51646  -2993031.53145  24227450.1024                   24227452.2624
        37.2504         30.2504
 -12520490.81647  -9733750.18045  21365665.5704                   21365662.5234
        45.2504         35.0004
 -23362879.97748 -18174289.94948  20042704.5634                   20042701.0984
        49.0004         49.0004
  -4434493.50047  -3449035.43446  23552957.9144                   23552958.4844
        44.0004         38.0004
 -21807350.03546 -15919705.92243  23165389.6804                   23165389.1374
        39.5004         21.5004
 -19683545.15646 -15293931.18745  23263156.9774                   23263158.4264
        39.7504         32.7504
 25  7 16  0  3 30.0000000  0 10G01G02G03G25G10G28G31G32G04G26
 -22022780.11347 -17115847.29345  21045192.3134                   21045189.8524
        46.0004         35.7504
 -11866542.57847  -9225987.18745  21958707.5944                   21958703.0204
        46.0004         34.5004
 -28072203.96147 -22068087.66047  21505661.6644                   21505661.3554
        46.7504         43.2504
 -15381769.05945 -12366652.34443  24419927.6174                   24419930.2274
        31.0004         19.2504
  -3849494.76246  -2991587.16444  24227802.5864                   24227804.6804
        38.2504         28.2504
 -12548528.39547  -9755597.66045  21360330.0704                   21360327.0394
        45.7504         35.2504
 -23452855.10547 -18244400.44148  20025582.8594                   20025579.1914
        47.7504         49.2504
  -4452014.38347  -3462688.12946  23549623.6094                   23549624.0434
        43.7504         37.2504
 -21960547.45346 -16039080.46543  23136237.2814                   23136236.1524
        40.5004         22.7504
 -19856172.97346 -15428446.29345  23230306.6174                   23230308.4104
        40.2504         33.0004
 25  7 16  0  4  0.0000000  0 10G01G02G03G25G10G28G31G32G04G26
 -22106450.74247 -17181045.19145  21029269.6724                   21029267.5164
        46.7504         35.2504
 -11895003.28147  -9248164.40245  21953291.6024                   21953287.2734
        46.0004         34.2504
 -28234930.25447 -22194887.34047  21474696.0394                   21474695.5664
        46.7504         43.5004
 -15433092.80945 -12406644.86743  24410162.0474                   24410164.0354
        32.5004         19.5004
  -3847378.27746  -2989938.05544  24228205.3834                   24228207.7544
        36.5004         29.0004
 -12576083.19947  -9777068.94945  21355086.6174                   21355083.9574
        45.5004         35.2504
 -23542161.27748 -18313989.65648  20008588.4304                   20008584.8054
        48.5004         49.0004
  -4469467.78547  -3476288.21946  23546301.9694                   23546302.5554
        43.7504         37.5004
 -22113565.30546 -16158315.08643  23107119.4614                   23107118.5824
        39.5004         22.2504
 -20028591.09046 -15562797.99245  23197495.9694                   23197498.2774
        39.2504         33.0004
 25  7 16  0  4 30.0000000  0 10G01G02G03G25G10G28G31G32G04G26
 -22189487.20347 -17245748.93445  21013468.9774                   21013466.2304
        47.0004         35.5004
 -11923037.65647  -9270009.41445  21947956.9064                   21947952.4884
        46.0004         34.5004
 -28397424.81247 -22321506.44547  21443774.0784                   21443773.4734
        46.7504         43.7504
 -15483840.01645 -12446188.13743  24400505.7664                   24400506.2894
        32.5004         19.5004
  -3845004.31246  -2988088.35244  24228657.2344                   24228658.9534
        36.7504         25.0004
 -12603161.92247  -9798169.26645  21349933.8594                   21349930.9064
        45.2504         34.7504
 -23630803.31647 -18383061.37548  19991720.1174                   19991716.9184
        47.5004         49.0004
  -4486858.31647  -3489839.31246  23542993.4694                   23542993.5394
        44.5004         37.0004
 -22266408.09846 -16277413.30143  23078033.7974                   23078032.9454
        40.5004         21.5004
 -20200800.60546 -15696987.12945  23164725.9384                   23164727.4884
        40.5004         33.5004
 25  7 16  0  5  0.0000000  0 10G01G02G03G25G10G28G31G32G04G26
 -22271886.52348 -17309956.19945  20997788.9224                   20997786.4654
        48.0004         35.0004
 -11950644.89647  -9291521.59245  21942703.2974                   21942699.1094
        45.2504         34.0004
 -28559682.35247 -22447940.85547  21412897.6414                   21412897.7344
        46.7504         43.5004
 -15534008.50845 -12485280.45343  24390957.8204                   24390960.0124
        32.0004         20.7504
  -3842370.50446  -2986036.16044  24229158.8524                   24229160.4534
        37.0004         26.0004
 -12629763.61747  -9818897.87545  21344871.5704                   21344869.1644
        45.0004         35.0004
 -23718778.64548 -18451613.57448  19974979.1484                   19974975.5084
        49.0004         49.0004
  -4504182.95747  -3503339.06646  23539696.5314                   23539696.6214
        44.5004         37.5004
 -22419072.72746 -16396372.69143  23048982.6564                   23048982.4774
        40.2504         22.0004
 -20372795.00046 -15831008.66845  23131996.9224                   23131998.5664
        41.0004         33.5004
 25  7 16  0  5 30.0000000  0 10G01G02G03G25G10G28G31G32G04G26
 -20778227.60948 -16146066.14845  21282022.8364                   21282020.0554
        48.2504         35.5004
 -10402407.10947  -8085102.57845  22237323.0864                   22237318.7154
        46.2504         33.5004
 -27146276.87147 -21346585.90247  21681859.2424                   21681859.0594
        47.5004         43.7504
 -14008178.72345 -11296322.21143  24681315.1024                   24681315.7504
        32.2504         19.0004
  -2264059.41846  -1756183.39844  24529500.5634                   24529502.9064
        36.5004         25.5004
 -11080471.25047  -8611657.07845  21639691.8444                   21639689.0394
        45.7504         34.5004
 -22230665.93447 -17292045.22348  20258157.7664                   20258154.0394
        47.7504         49.0004
  -2946022.88347  -2289188.39846  23836204.8594                   23836204.4774
        45.0004         38.2504
 -20996135.66446 -15287590.48443  23319758.6484                   23319758.1174
        40.5004         22.5004
 -18969146.85546 -14737256.77345  23399101.7894                   23399103.7384
        41.0004         33.0004
 25  7 16  0  6  0.0000000  0 10G01G02G03G25G10G28G31G32G04G26
 -20859357.66048 -16209284.37945  21266583.8524                   21266581.5124
        48.7504         35.2504
 -10429170.44947  -8105957.17645  22232230.7814                   22232226.2074
        47.2504         33.2504
 -27308058.46947 -21472649.45747  21651073.5164                   21651072.9534
        47.5004         43.7504
 -14057196.16844 -11334517.61742  24671986.3834                   24671987.5354
        28.5004         17.2504
  -2260913.05146  -1753731.81644  24530100.1724                   24530102.3874
        37.0004         26.5004
 -11106130.29347  -8631651.16045  21634810.1174                   21634806.6334
        45.5004         35.2504
 -22317313.23447 -17359562.59848  20241669.2664                   20241665.1844
        47.7504         49.0004
  -2963220.89847  -2302589.48046  23832932.0704                   23832931.6884
        44.2504         37.5004
 -21148448.72346 -15406275.89543  23290774.0944                   23290773.6334
        41.0004         23.7504
 -19140705.75046 -14870938.95745  23366455.1484                   23366456.2664
        40.2504         33.0004
 25  7 16  0  6 30.0000000  0 10G01G02G03G25G10G28G31G32G04G26
 -20939857.01647 -16272011.15245  21251266.0314                   21251263.2304
        47.7504         35.7504
 -10455518.89547  -8126488.48045  22227216.5864                   22227212.2854
        47.2504         33.5004
 -27469602.39847 -21598527.82047  21620332.9534                   21620332.0944
        47.5004         44.0004
 -14105642.89144 -11372268.32842  24662765.7814                   24662769.1764
        28.5004         17.7504
  -2257515.32846  -1751084.32844  24530746.7034                   24530748.6644
        37.2504         26.5004
 -11131324.97747  -8651283.39845  21630015.0554                   21630012.4884
        46.2504         35.0004
 -22403300.96948 -17426566.02348  20225306.0864                   20225302.3834
        48.2504         49.0004
  -2980359.40647  -2315944.19946  23829670.7424                   23829670.5634
        43.5004         37.0004
 -21300589.63346 -15524827.18443  23261823.2504                   23261822.3874
        40.2504         23.0004
 -19312045.54346 -15004450.40645  23333850.2504                   23333851.8874
        40.0004         33.5004
 25  7 16  0  7  0.0000000  0 10G01G02G03G25G10G28G31G32G04G26
 -21019725.85247 -16334246.62145  21236066.9064                   21236064.5704
        47.5004         34.7504
 -10481454.36747  -8146697.98445  22222281.1174                   22222276.8484
        45.2504         33.2504
 -27630906.47747 -21724219.27747  21589637.5004                   21589637.0864
        47.2504         44.0004
 -14153519.63754 -11409574.85953  24653655.1174                   24653657.6764
        29.2504         18.2504
  -2253867.09846  -1748241.65644  24531441.4224                   24531443.4654
        38.5004         29.5004
 -11156057.50847  -8670555.50845  21625308.5704                   21625305.7234
        45.0004         34.5004
 -22488629.70348 -17493055.94548  20209068.9064                   20209065.3164
        48.2504         49.0004
  -2997438.48447  -2329252.60946  23826420.2274                   23826419.8714
        44.0004         36.0004
 -21452558.43046 -15643244.37544  23232903.8594                   23232903.3674
        41.2504         25.5004
 -19483162.74646 -15137788.41845  23301286.9694                   23301289.6294
        39.2504         33.2504
 25  7 16  0  7 30.0000000  0 10G01G02G03G25G10G28G31G32G04G26
 -21098967.19947 -16395993.14545  21220987.8834                   21220985.7894
        47.5004         35.5004
 -10506981.69547  -8166589.45345  22217423.8834                   22217419.3634
        46.5004         34.2504
 -27791971.23447 -21849724.25447  21558988.0164                   21558987.4924
        47.2504         44.0004
 -14200829.95355 -11446440.05152  24644654.2974                   24644655.3324
        32.2504         17.7504
  -2249971.87946  -1745206.50844  24532182.9224                   24532184.5204
        39.2504         29.5004
 -11180332.95347  -8689471.46545  21620689.0944                   21620686.2854
        45.7504         34.2504
 -22573302.43448 -17559034.69148  20192955.8674                   20192952.4844
        48.7504         49.2504
  -3014461.10947  -2342517.04345  23823180.9534                   23823180.9304
        43.2504         35.5004
 -21604357.93446 -15761529.64844  23204017.6254                   23204016.7234
        40.5004         24.7504
 -19654056.82046 -15270952.55145  23268766.8984                   23268769.1914
        39.5004         32.7504
 25  7 16  0  8  0.0000000  0 10G01G02G03G25G10G28G31G32G04G26
 -21177582.14547 -16457251.54745  21206028.1094                   21206025.2854
        47.0004         35.0004
 -10532104.11747  -8186165.41045  22212642.9534                   22212638.8054
        45.7504         33.2504
 -27952795.29748 -21975041.69147  21528384.5164                   21528383.3594
        48.0004         43.5004
 -14247575.69554 -11482865.34452  24635759.1254                   24635760.1604
        29.7504         16.7504
  -2245831.41046  -1741980.24244  24532969.5634                   24532972.4064
        38.2504         28.7504
 -11204154.37947  -8708033.62945  21616156.3444                   21616153.4064
        45.2504         34.5004
 -22657320.50048 -17624503.31648  20176968.1804                   20176964.2814
        48.7504         49.0004
  -3031428.05247  -2355738.08645  23819952.0864                   23819951.5904
        43.0004         35.5004
 -21755989.01246 -15879683.66044  23175163.0784                   23175162.4104
        41.2504         25.0004
 -19824725.27546 -15403940.88945  23236289.9534                   23236292.0004
        39.7504         33.5004
 25  7 16  0  8 30.0000000  0 10G01G02G03G25G10G28G31G32G04G26
 -21255572.70747 -16518023.43745  21191187.1254                   21191184.7194
        47.7504         35.0004
 -10556825.30547  -8205428.72345  22207938.7424                   22207934.1954
        45.0004         34.0004
 -28113378.17647 -22100171.16847  21497826.1884                   21497826.0784
        47.2504         43.5004
 -14293759.22355 -11518852.48052  24626970.2504                   24626972.2814
        31.0004         16.2504
  -2241448.28146  -1738564.93745  24533804.3914                   24533807.8444
        38.0004         31.5004
 -11227525.80547  -8726245.15245  21611708.6954                   21611706.2854
        44.7504         34.7504
 -22740686.27748 -17689463.66448  20161103.9694                   20161100.2624
        48.7504         49.0004
  -3048341.32047  -2368917.31245  23816733.8444                   23816734.1684
        43.5004         35.5004
 -21907453.45746 -15997707.82844  23146340.5004                   23146339.9344
        41.0004         25.7504
 -19995166.53146 -15536752.19545  23203856.4534                   23203858.1054
        39.7504         34.0004
 25  7 16  0  9  0.0000000  0 10G01G02G03G25G10G28G31G32G04G26
 -21332941.13748 -16578310.54345  21176464.4384                   21176461.3714
        48.0004         35.5004
 -10581149.37547  -8224382.58645  22203310.0084                   22203305.7504
        45.0004         33.7504
 -28273719.48847 -22225112.44147  21467313.9534                   21467313.7464
        47.5004         43.7504
 -14339383.25444 -11554403.69942  24618286.1254                   24618289.6214
        29.5004         17.7504
  -2236825.24246  -1734962.67245  24534683.9144                   24534686.6524
        39.0004         33.5004
 -11250451.37547  -8744109.24645  21607345.4384                   21607343.3554
        45.0004         34.5004
 -22823402.25048 -17753917.66848  20145364.2194                   20145359.9414
        49.5004         49.0004
  -3065202.73847  -2382056.12945  23813524.8054                   23813525.7854
        42.7504         35.2504
 -22058753.10346 -16115603.59644  23117549.0004                   23117548.2154
        40.7504         24.7504
 -20165379.02746 -15669385.23045  23171466.3594                   23171467.4654
        39.2504         34.2504
 25  7 16  0  9 30.0000000  0 10G01G02G03G25G10G28G31G32G04G26
 -21409683.71948 -16638109.97345  21161860.6644                   21161857.9264
        48.0004         35.5004
 -10605074.49247  -8243025.57045  22198757.1724                   22198752.8554
        45.5004         33.0004
 -28433812.94147 -22349860.55147  21436849.6724                   21436849.0554
        47.2504         43.5004
                                  24609713.9694                   24609714.9454
        28.0004         16.2504
  -2231959.22746  -1731171.09045  24535610.5394                   24535613.1374
        40.0004         33.5004
 -11272929.29747  -8761624.53145  21603068.7894                   21603066.4734
        45.5004         34.5004
 -22905464.52348 -17817862.29348  20129747.7664                   20129744.3714
        48.7504         49.0004
  -3082008.35947  -2395151.46145  23810327.5004                   23810327.6334
        43.0004         34.7504
 -22209884.09046 -16233367.94544  23088789.4534                   23088788.7074
        40.5004         24.2504
 -20335355.37546 -15801834.26245  23139120.6564                   23139121.8794
        39.5004         33.7504
 25  7 16  0 10  0.0000000  0 10G01G02G03G25G10G28G31G32G04G26
 -21485807.96548 -16697427.59445  21147374.5474                   21147372.4104
        48.0004         35.2504
 -10628609.91447  -8261364.89545  22194278.6804                   22194274.2734
        44.7504         32.7504
 -28593663.47347 -22474419.38747  21406430.8524                   21406430.6414
        47.5004         43.5004
 -14428951.68055 -11624197.36752  24601244.7114                   24601245.5704
        30.2504         15.5004
  -2226858.10546  -1727196.28945  24536580.9304                   24536583.9964
        38.2504         31.2504
 -11294969.04747  -8778798.38745  21598874.5784                   21598871.8484
        45.2504         35.0004
 -22986881.36348 -17881303.98048  20114254.6254                   20114250.8674
        48.5004         49.0004
  -3098765.47346  -2408209.01645  23807138.7734                   23807138.9734
        41.5004         33.0004
 -22360853.48046 -16351006.36743  23060061.7344                   23060060.8324
        40.2504         22.2504
 -20505099.38646 -15934102.26145  23106819.6804                   23106820.5634
        39.7504         34.2504
 25  7 16  0 10 30.0000000  0 10G01G02G03G25G10G28G31G32G04G26
 -21561311.95747 -16756261.88745  21133006.7424                   21133003.9414
        47.5004         35.5004
 -10651755.78147  -8279400.67645  22189874.1254                   22189869.9384
        45.5004         33.7504
 -28753266.46148 -22598785.33647  21376059.5084                   21376058.7664
        48.0004         43.7504
                                  24592881.0164                   24592882.9884
        28.5004         14.7504
  -2221520.52046  -1723037.24645  24537597.1024                   24537600.1884
        38.0004         31.5004
 -11316570.58647  -8795630.77745  21594763.9614                   21594761.4104
        45.5004         34.5004
 -23067651.17248 -17944241.49648  20098884.7974                   20098880.6764
        48.7504         49.0004
  -3115471.79746  -2421226.96545  23803959.2344                   23803960.0704
        41.5004         33.7504
 -22511659.00046 -16468517.09443  23031363.5474                   23031362.9654
        39.5004         23.2504
 -20674605.37346 -16066184.76445  23074563.0394                   23074565.1054
        39.5004         34.5004
 25  7 16  0 11  0.0000000  0 10G01G02G03G25G10G28G31G32G04G26
 -21636198.28148 -16814614.88745  21118756.5084                   21118754.1564
        48.5004         35.2504
 -10674516.34047  -8297136.21145  22185542.5394                   22185538.7194
        44.7504         33.0004
 -28912621.90647 -22722958.38747  21345735.1174                   21345735.0704
        47.5004         44.0004
 -14516301.12955 -11692261.82852  24584622.3834                   24584625.0004
        30.5004         15.5004
  -2215949.59046  -1718696.36345  24538657.0554                   24538660.2814
        38.5004         31.0004
 -11337738.40247  -8812125.19545  21590736.1254                   21590733.3834
        45.7504         35.0004
 -23147776.57048 -18006676.87548  20083637.2034                   20083633.3014
        48.0004         49.0004
  -3132129.59046  -2434207.12145  23800789.5704                   23800789.9414
        41.0004         33.5004
 -22662302.93046 -16585901.92244  23002696.9144                   23002696.2304
        39.0004         25.5004
 -20843872.14846 -16198080.88345  23042353.0314                   23042354.3794
        40.5004         35.0004
 25  7 16  0 11 30.0000000  0 10G01G02G03G25G10G28G31G32G04G26
 -21710465.46947 -16872485.44145  21104623.4614                   21104621.0554
        47.5004         35.2504
 -10696891.82047  -8314571.70345  22181285.1024                   22181280.4024
        44.5004         33.2504
 -29071725.45747 -22846935.16447  21315458.7894                   21315457.9534
        47.7504         44.0004
 -14559145.61755 -11725647.10252  24576470.5864                   24576471.8554
        30.5004         14.7504
  -2210144.21945  -1714172.81244  24539762.0704                   24539764.5044
        35.2504         28.0004
 -11358472.77747  -8828281.86745  21586790.5474                   21586787.7464
        45.5004         34.5004
 -23227256.13748 -18068609.00448  20068512.8914                   20068509.2894
        48.2504         48.7504
  -3148736.91046  -2447147.95745  23797629.1644                   23797629.1804
        40.7504         31.7504
 -22812783.25046 -16703159.23844  22974061.5164                   22974061.0984
        39.5004         24.0004
 -21012894.40246 -16329786.47345  23010189.2974                   23010190.3324
        40.0004         34.2504
 25  7 16  0 12  0.0000000  0 10G01G02G03G25G10G28G31G32G04G26
 -21784109.67647 -16929870.55945  21090609.9694                   21090607.2114
        47.7504         35.0004
 -10718879.86347  -8331705.28545  22177100.8754                   22177096.3834
        45.0004         32.2504
 -29230570.67647 -22970710.62947  21285231.4064                   21285230.8364
        47.7504         44.2504
 -14601433.07054 -11758598.49252  24568421.5394                   24568426.3244
        26.7504         16.2504
  -2204101.11745  -1709464.02344  24540912.8674                   24540914.2504
        35.5004         27.0004
 -11378771.84047  -8844099.33645  21582927.3914                   21582924.8404
        45.0004         35.0004
 -23306086.62947 -18130035.35548  20053511.5944                   20053508.4184
        47.7504         49.0004
  -3165289.50446  -2460046.14845  23794480.3284                   23794479.6884
        41.0004         32.7504
 -22963095.78946 -16820285.85944  22945458.0394                   22945457.6804
        39.7504         25.2504
 -21181664.49646 -16461295.55945  22978073.0474                   22978074.5204
        40.0004         34.0004
 25  7 16  0 12 30.0000000  0 10G01G02G03G25G10G28G31G32G04G26
 -21857133.33647 -16986772.14145  21076713.8364                   21076710.8164
        47.5004         34.7504
 -10740484.97347  -8348540.49645  22172989.8054                   22172985.4804
        45.2504         33.2504
 -29389157.17647 -23094284.52047  21255053.2974                   21255053.2704
        47.5004         44.2504
 -14643166.52014                  24560481.086
        26.750
  -2197822.97346  -1704572.11344  24542107.8834                   24542109.3244
        36.7504         28.5004
 -11398639.72747  -8859580.82045  21579147.2664                   21579143.9384
        46.5004         35.0004
 -23384270.56248 -18190957.90248  20038634.0634                   20038630.3364
        48.5004         49.0004
  -3181789.36746  -2472903.24645  23791339.0314                   23791339.4804
        40.7504         33.0004
 -23113242.50046 -16937283.23443  22916885.6884                   22916885.4884
        39.5004         23.7504
 -21350180.96946 -16592607.02745  22946005.7194                   22946006.6684
        41.2504         35.2504
 25  7 16  0 13  0.0000000  0  9G01G02G03G10G28G31G32G04G26
 -21929544.96548 -17043196.80545  21062934.4774                   21062932.2544
        48.0004         35.5004
 -10761717.46947  -8365085.35945  22168949.2894                   22168944.8094
        45.2504         33.5004
 -29547490.59447 -23217661.17647  21224923.3754                   21224922.8364
        47.2504         44.0004
  -2191318.89145  -1699504.08644  24543343.7034                   24543346.3484
        34.0004         26.0004
 -11418086.82847  -8874734.42645  21575446.3674                   21575443.2814
        45.2504         34.5004
 -23461816.55548 -18251383.35248  20023877.1094                   20023873.6644
        48.5004         49.0004
  -3198244.53946  -2485725.52745  23788208.1024                   23788208.8054
        41.2504         33.5004
 -23263231.44546 -17054157.68044  22888343.8364                   22888343.5394
        40.7504         24.5004
 -21518448.47346 -16723724.49245  22913984.8984                   22913986.5664
        40.0004         35.0004
 25  7 16  0 13 30.0000000  0  9G01G02G03G10G28G31G32G04G26
 -22001346.62547 -17099146.17245  21049271.1804                   21049268.3834
        47.0004         35.0004
 -10782581.13747  -8381342.81645  22164979.4924                   22164974.7854
        46.2504         33.5004
 -29705570.21147 -23340840.08647  21194841.9304                   21194841.7814
        47.0004         44.7504
  -2184591.32445  -1694261.93444  24544624.9924                   24544627.7384
        35.5004         28.7504
 -11437116.97747  -8889563.12945  21571824.8134                   21571822.3484
        46.2504         34.5004
 -23538727.15648 -18311313.68448  20009241.9614                   20009237.9454
        49.0004         49.0004
  -3214656.57046  -2498514.17645  23785085.1954                   23785085.8324
        40.0004         32.2504
 -23413064.14147 -17170910.38744  22859831.8204                   22859830.8634
        42.0004         24.2504
 -21686465.15446 -16854646.51445  22882012.7504                   22882013.9024
        40.2504         34.7504
 25  7 16  0 14  0.0000000  0  9G01G02G03G10G28G31G32G04G26
 -22072545.87547 -17154626.11745  21035722.0474                   21035719.9344
        47.5004         35.0004
 -10803085.02747  -8397319.93445  22161077.7034                   22161072.9384
        45.0004         33.0004
 -29863400.69147 -23463824.84847  21164807.4384                   21164807.4694
        46.2504         44.5004
  -2177648.03545  -1688851.75844  24545946.1024                   24545949.0514
        34.2504         28.7504
 -11455739.41847  -8904074.14145  21568281.4064                   21568278.3324
        45.2504         35.0004
 -23615009.96148 -18370754.83248  19994725.5864                   19994721.6884
        49.5004         48.7504
  -3231032.39546  -2511274.61745  23781969.2034                   23781969.9414
        41.2504         33.7504
 -23562747.59046 -17287546.79744  22831347.7894                   22831346.8714
        41.2504         26.0004
 -21854234.56646 -16985375.85945  22850086.3524                   22850088.0434
        40.2504         35.2504
 25  7 16  0 14 30.0000000  0 10G01G02G03G10G28G31G32G04G26G16
 -22143142.31248 -17209636.35945  21022288.4384                   21022285.9264
        48.0004         35.7504
 -10823230.61747  -8413017.85245  22157243.9774                   22157239.6844
        47.0004         33.0004
 -30020978.80947 -23586612.96947  21134821.3984                   21134821.0944
        46.7504         44.5004
  -2170489.19945  -1683273.58644  24547308.3054                   24547311.4384
        33.7504         27.2504
 -11473955.56247  -8918268.57045  21564815.1724                   21564812.1994
        46.5004         34.5004
 -23690664.91848 -18429706.74648  19980328.9924                   19980325.2504
        48.7504         48.7504
  -3247371.10946  -2524006.14845  23778860.0234                   23778860.8674
        39.5004         32.5004
 -23712280.87946 -17404066.19544  22802892.2344                   22802891.8244
        41.0004         26.5004
 -22021752.47746 -17115909.23445  22818209.5554                   22818210.5234
        40.5004         35.5004
   1338759.73855   1082145.12952  25040652.4844                   25040656.4964
        32.2504         12.5004
 25  7 16  0 15  0.0000000  0 10G01G02G03G10G28G31G32G04G26G16
 -20637723.64147 -16036582.85945  21308760.3054                   21308757.4574
        47.5004         35.0004
  -9267608.74247  -7200845.02345  22453269.1024                   22453264.6094
        45.2504         32.5004
 -28602886.28547 -22481605.79347  21404676.0554                   21404675.6414
        47.0004         45.0004
   -587705.19946   -449935.53544  24848502.3284                   24848505.1174
        36.0004         28.0004
  -9916356.52047  -7704555.04345  21861216.3054                   21861213.2384
        45.2504         34.7504
 -22190279.71948 -17260575.41848  20265842.8284                   20265839.4414
        49.2504         48.5004
  -1688261.49246  -1309115.58245  24075549.0084                   24075549.3244
        39.2504         32.0004
 -22286248.41846 -16292872.03544  23074257.0944                   23074256.8134
        41.5004         25.5004
 -20613599.25846 -16018646.92645  23086172.1024                   23086173.0004
        40.5004         34.5004
   2731011.37155   2167016.80552  25305590.1094                   25305593.2934
        34.7504         14.7504
 25  7 16  0 15 30.0000000  0 10G01G02G03G10G28G31G32G04G26G16
 -20707138.17647 -16090672.13745  21295550.7344                   21295548.1914
        47.7504         35.0004
  -9287065.99247  -7216006.57045  22449566.2194                   22449561.5744
        45.7504         32.5004
 -28759974.34047 -22604012.04347  21374782.7734                   21374782.1994
        47.2504         45.2504
   -580139.75846   -444040.45345  24849942.5784                   24849945.1484
        38.5004         30.5004
  -9933788.85947  -7718138.70345  21857898.8364                   21857896.2424
        46.0004         34.2504
 -22264703.20348 -17318567.74248  20251680.5944                   20251676.9344
        49.2504         48.5004
  -1704547.75846  -1321806.23445  24072450.3284                   24072449.4224
        40.5004         30.7504
 -22435503.27046 -16409174.45744  23045854.9534                   23045854.1214
        41.5004         24.2504
 -20780625.69546 -16148797.34445  23054388.2894                   23054388.9104
        41.5004         35.5004
   2547670.25046   2024153.87142  25270701.2194                   25270704.7034
        36.7504         16.2504
 25  7 16  0 16  0.0000000  0 10G01G02G03G10G28G31G32G04G26G16
 -20775960.13347 -16144299.65245  21282454.4774                   21282451.6214
        47.0004         35.0004
  -9306180.01647  -7230900.65645  22445929.0864                   22445924.8134
        45.5004         32.5004
 -28916811.34047 -22726222.68047  21344937.7274                   21344937.0634
        47.2504         45.2504
   -572369.90246   -437986.10245  24851421.0474                   24851423.3444
        38.7504         31.2504
  -9950830.18747  -7731417.67645  21854656.0554                   21854653.3054
        46.5004         34.0004
 -22338510.00048 -17376079.52748  20237635.5084                   20237632.1884
        49.5004         48.7504
  -1720805.13746  -1334474.38345  24069356.3444                   24069355.6724
        40.0004         31.5004
 -22584616.33246 -16525366.41044  23017479.1334                   23017479.1254
        41.2504         26.5004
 -20947398.77346 -16278750.33645  23022651.8054                   23022653.2384
        40.5004         35.5004
   2364169.44545   1881166.43042  25235780.9064                   25235784.8634
        35.5004         16.7504
 25  7 16  0 16 30.0000000  0 10G01G02G03G10G28G31G32G04G26G16
 -20844191.08647 -16197466.65245  21269470.6484                   21269468.0864
        47.7504         35.0004
  -9324953.99647  -7245529.78145  22442356.3054                   22442352.3204
        45.7504         32.5004
 -29073395.75047 -22848236.48847  21315140.4064                   21315140.1134
        47.7504         45.5004
   -564397.45346   -431773.91844  24852938.0704                   24852940.6564
        37.5004         29.5004
  -9967483.71147  -7744394.47345  21851487.2114                   21851484.6844
        46.5004         34.2504
 -22411701.54348 -17433111.89848  20223707.6024                   20223703.7384
        49.5004         49.0004
  -1737034.50046  -1347120.69945  24066267.6024                   24066267.9344
        40.0004         33.2504
 -22733588.50846 -16641448.57844  22989130.9064                   22989130.4344
        41.2504         25.2504
 -21113915.95746 -16408503.93445  22990964.6484                   22990965.9064
        41.0004         35.7504
   2180510.67646   1738055.95342  25200831.2194                   25200834.4264
        36.5004         17.2504
 25  7 16  0 17  0.0000000  0 10G01G02G03G10G28G31G32G04G26G16
 -20911828.42647 -16250171.08245  21256599.2194                   21256596.9654
        46.7504         35.0004
  -9343387.09847  -7259893.29745  22438849.1174                   22438844.5664
        44.5004         33.0004
 -29229721.99247 -22970049.12547  21285392.7194                   21285392.2544
        47.7504         45.5004
   -556220.07845   -425402.05944  24854493.8284                   24854497.1214
        34.7504         26.7504
  -9983748.49647  -7757068.34445  21848391.8594                   21848389.2584
        45.2504         34.0004
 -22484275.52748 -17489663.05948  20209897.2584                   20209893.2974
        49.5004         48.5004
  -1753232.58646  -1359742.62145  24063185.8054                   24063185.6174
        41.5004         32.7504
 -22882416.62147 -16757418.50843  22960810.2274                   22960809.0864
        42.0004         23.5004
 -21280170.64546 -16538052.97746  22959327.7974                   22959329.1414
        41.0004         36.0004
   1996699.93045   1594827.07042  25165852.8674                   25165855.6724
        34.2504         16.7504
 25  7 16  0 17 30.0000000  0 10G01G02G03G10G28G31G32G04G26G16
 -20978871.71148 -16302412.63345  21243841.6724                   21243839.6214
        48.2504         35.5004
  -9361480.01247  -7273991.71945  22435405.8444                   22435401.8244
        45.2504         32.7504
 -29385786.40647 -23091657.74247  21255694.6564                   21255694.1884
        47.5004         45.5004
   -547837.46145   -418870.30144  24856089.4384                   24856092.5354
        35.2504         28.5004
  -9999625.61747  -7769440.14145  21845370.3524                   21845368.1844
        47.0004         34.0004
 -22556231.88348 -17545732.94148  20196204.3054                   20196200.7934
        50.2504         48.5004
  -1769398.01246  -1372339.12945  24060109.5394                   24060109.1844
        41.5004         32.5004
 -23031099.36747 -16873275.14544  22932516.7814                   22932516.0984
        42.2504         25.0004
 -21446158.15647 -16667393.85546  22927741.3834                   22927742.1294
        42.0004         36.0004
   1812741.26646   1451482.90242  25130846.6644                   25130848.8484
        37.0004         17.2504
 25  7 16  0 18  0.0000000  0 10G01G02G03G10G28G31G32G04G26G16
 -21045320.48047 -16354190.91845  21231196.7814                   21231194.1524
        47.7504         35.2504
  -9379234.18047  -7287826.19545  22432027.7664                   22432023.6914
        44.0004         32.2504
 -29541585.53548 -23213059.64547  21226046.7344                   21226046.7074
        48.0004         45.5004
   -539249.66845   -412178.64144  24857724.2814                   24857726.7194
        35.5004         29.7504
 -10015116.28147  -7781510.81245  21842423.0704                   21842420.0824
        45.0004         33.7504
 -22627570.34848 -17601321.35948  20182629.4144                   20182625.4654
        49.7504         48.7504
  -1785529.68046  -1384909.32845  24057039.6954                   24057040.3054
        40.7504         33.0004
 -23179635.65247 -16989017.68044  22904251.3054                   22904249.9264
        42.5004         25.5004
 -21611874.00846 -16796523.04346  22896206.3134                   22896207.5984
        41.0004         36.0004
   1628638.64446   1308026.46842  25095813.1414                   25095815.7274
        38.0004         15.5004
 25  7 16  0 18 30.0000000  0 10G01G02G03G10G28G31G32G04G26G16
 -21111170.90647 -16405502.96145  21218666.1254                   21218663.6764
        47.7504         35.0004
  -9396647.52747  -7301395.09845  22428713.8754                   22428709.9454
        45.2504         32.7504
 -29697112.34848 -23334249.36347  21196451.2894                   21196451.0474
        48.0004         45.7504
   -530452.85946   -405324.17244  24859397.6414                   24859401.4924
        37.2504         29.7504
 -10030218.18747  -7793278.54745  21839548.9694                   21839546.3284
        45.2504         34.0004
 -22698287.10548 -17656425.32048  20169172.2664                   20169168.4384
        50.0004         48.7504
  -1801622.77746  -1397449.46945  24053977.4534                   24053977.5634
        40.7504         33.7504
 -23328020.77746 -17104642.40244  22876014.6484                   22876013.2974
        41.7504         26.7504
 -21777310.12147 -16925434.26646  22864725.1644                   22864726.1294
        42.5004         36.5004
   1444399.19546   1164463.45342  25060753.2974                   25060756.9654
        37.0004         13.7504
 25  7 16  0 19  0.0000000  0 10G01G02G03G10G28G31G32G04G26G16
 -21176424.39848 -16456349.85545  21206248.9454                   21206246.0434
        48.0004         35.0004
  -9413722.77747  -7314700.53945  22425464.4774                   22425460.6414
        45.0004         32.5004
 -29852365.14848 -23455225.54747  21166907.7584                   21166907.3134
        48.0004         46.0004
   -521448.88346   -398308.18744  24861110.8594                   24861113.5784
        37.2504         26.0004
 -10044934.39847  -7804745.74245  21836748.5704                   21836745.8244
        46.7504         34.0004
 -22768384.01248 -17711046.28948  20155833.1884                   20155829.2624
        49.2504         48.5004
  -1817678.00046  -1409960.10245  24050922.1414                   24050922.7894
        40.7504         33.5004
 -23476255.49247 -17220149.91844  22847806.2034                   22847805.4924
        42.7504         26.5004
 -21942463.83247 -17054125.43045  22833297.1644                   22833298.6764
        42.2504         35.7504
   1260024.98046   1020795.50042  25025667.5164                   25025672.2154
        36.2504         14.7504
 25  7 16  0 19 30.0000000  0 10G01G02G03G10G28G31G32G04G26G16
 -21241082.42248 -16506732.75445  21193944.4924                   21193942.3244
        48.7504         35.2504
  -9430462.65247  -7327744.66045  22422279.4384                   22422275.3484
        45.2504         31.2504
 -30007342.12148 -23575986.81247  21137416.3524                   21137416.0394
        48.7504         46.0004
   -512239.10946   -391131.87544  24862863.9694                   24862866.1764
        36.7504         24.0004
 -10059267.75847  -7815914.62545  21834021.1174                   21834018.1884
        46.5004         33.0004
 -22837862.71548 -17765185.53948  20142612.0084                   20142608.0594
        50.0004         48.5004
  -1833695.82446  -1422441.57445  24047874.1954                   24047874.5594
        40.0004         34.5004
 -23624340.37946 -17335540.69544  22819626.3914                   22819625.7544
        41.7504         25.5004
 -22107332.32847 -17182594.33645  22801923.2734                   22801924.7974
        42.0004         35.7504
   1075518.49246    877024.42242  24990557.6954                   24990561.5474
        38.0004         15.5004
 25  7 16  0 20  0.0000000  0 10G01G02G03G10G28G31G32G04G26G16
 -21305151.52747 -16556656.75445  21181752.8364                   21181749.9964
        47.7504         35.0004
  -9446875.37547  -7340533.85545  22419156.1954                   22419151.0744
        46.2504         32.0004
 -30162046.60947 -23696535.74647  21107977.3914                   21107976.6024
        47.0004         45.7504
   -502830.37946   -383800.48444  24864654.5704                   24864657.9614
        37.5004         25.5004
 -10073226.41047  -7826791.51245  21831364.9064                   21831362.2274
        46.0004         33.5004
 -22906730.04348 -17818848.38348  20129507.0554                   20129503.1094
        49.5004         48.5004
  -1849681.84446  -1434898.27745  24044832.2814                   24044832.9304
        40.0004         34.5004
 -23772281.19146 -17450819.20744  22791474.5234                   22791473.5084
        41.0004         25.5004
 -22271917.97746 -17310842.84445  22770604.7034                   22770605.6484
        41.5004         35.7504
    890876.430 6                  24955421.109
        36.750
 25  7 16  0 20 30.0000000  0 10G01G02G03G10G28G31G32G04G26G16
 -21368628.03547 -16606118.99245  21169673.6414                   21169671.4804
        47.2504         35.2504
  -9462958.59047  -7353066.29745  22416095.3134                   22416091.1374
        45.0004         32.0004
 -30316471.64847 -23816866.92647  21078591.1954                   21078590.6134
        47.0004         45.7504
   -493219.09445   -376311.35243  24866483.8284                   24866486.6914
        35.7504         23.0004
 -10086808.05547  -7837374.63745  21828780.2894                   21828777.4884
        46.5004         33.2504
 -22974982.34848 -17872032.00448  20116518.9454                   20116515.3954
        48.7504         48.5004
  -1865631.52747  -1447326.65645  24041797.0554                   24041797.2304
        42.2504         35.5004
 -23920073.37146 -17565981.91044  22763350.3594                   22763350.1484
        41.0004         26.0004
 -22436212.81247 -17438864.75845  22739339.4454                   22739340.5434
        42.0004         35.5004
    706106.328 6                  24920260.820
        36.000
 25  7 16  0 21  0.0000000  0 10G01G02G03G10G28G31G32G04G26G16
 -21431509.29747 -16655117.40245  21157707.7034                   21157705.1254
        46.5004         35.0004
  -9478711.64147  -7365341.45745  22413097.7504                   22413093.7664
        45.2504         33.0004
 -30470611.34047 -23936975.75447  21049259.1644                   21049258.9454
        46.5004         45.7504
   -483402.89146   -368662.47344  24868351.9774                   24868354.8834
        39.0004         26.0004
 -10100011.61347  -7847663.14845  21826268.1804                   21826265.0004
        46.0004         33.5004
 -23042617.28548 -17924734.55148  20103648.8914                   20103644.9414
        49.0004         48.5004
  -1881541.16446  -1459723.82445  24038769.4384                   24038769.9964
        40.5004         34.5004
 -24067713.41446 -17681026.05544  22735254.9924                   22735254.8634
        40.7504         26.2504
 -22600209.96947 -17566654.69145  22708132.8594                   22708133.1844
        42.0004         35.5004
    521214.570 5                  24885076.656
        35.000
 25  7 16  0 21 30.0000000  0 10G01G02G03G10G28G31G32G04G26G16
 -21493797.26647 -16703653.50445  21145854.4774                   21145852.5234
        46.0004         34.7504
  -9494137.67647  -7377361.80945  22410162.4844                   22410158.1644
        46.0004         31.7504
 -30624464.30547 -24056861.16447  21019981.9224                   21019981.2154
        46.5004         45.5004
   -473383.80546   -360855.46544  24870258.3834                   24870260.8634
        40.5004         26.5004
 -10112840.44547  -7857659.66845  21823826.7114                   21823823.9884
        46.0004         33.5004
 -23109637.00048 -17976957.70348  20090894.8594                   20090891.1214
        48.5004         48.5004
  -1897411.71147  -1472090.55145  24035750.0084                   24035750.6804
        42.5004         35.2504
 -24215202.35547 -17795952.45744  22707189.4224                   22707188.3674
        42.0004         26.5004
 -22763907.06646 -17694210.82845  22676981.9384                   22676982.7074
        41.7504         35.7504
    336202.77746    811800.93852  24849870.0234                   24849870.4304
        36.2504         16.2504
 25  7 16  0 22  0.0000000  0 10G01G02G03G10G28G31G32G04G26G16
 -21555488.89847 -16751724.94145  21134115.2974                   21134113.0634
        47.0004         34.7504
  -9509235.03147  -7389126.03945  22407289.2274                   22407285.2154
        45.0004         32.0004
 -30778024.07047 -24176518.10247  20990760.5784                   20990759.8794
        46.0004         45.5004
   -463158.79346   -352887.99244  24872204.6024                   24872206.5124
        41.0004         25.7504
 -10125292.87947  -7867362.88745  21821456.7734                   21821454.5164
        45.5004         34.0004
 -23176038.87548 -18028699.42648  20078259.2664                   20078255.4654
        48.7504         48.5004
  -1913239.08247  -1484423.64845  24032738.6804                   24032738.5514
        42.0004         35.0004
 -24362536.16047 -17910757.98044  22679152.5944                   22679151.6484
        42.2504         25.5004
 -22927296.76646 -17821527.43446  22645889.6804                   22645890.4924
        41.5004         36.7504
    151078.00045    667548.03942  24814641.1884                   24814643.9734
        35.5004         14.7504
 25  7 16  0 22 30.0000000  0 10G01G02G03G10G28G31G32G04G26G16
 -21616587.64847 -16799334.37545  21122488.6414                   21122486.0704
        46.7504         34.7504
  -9524008.49247  -7400637.88745  22404478.2734                   22404474.3634
        44.2504         32.0004
 -30931290.85247 -24295946.73447  20961594.6954                   20961594.0124
        46.2504         45.7504
   -452731.55546   -344762.92244  24874188.0634                   24874190.4774
        39.5004         26.7504
 -10137373.81247  -7876776.61345  21819158.2584                   21819156.1374
        44.7504         34.0004
 -23241826.46548 -18079962.48048  20065740.2894                   20065736.0044
        48.2504         48.5004
  -1929025.61746  -1496724.90245  24029733.9844                   24029734.3554
        41.7504         35.0004
 -24509717.43046 -18025444.64844  22651144.8444                   22651143.7774
        41.2504         25.2504
 -23090378.21546 -17948603.82446  22614856.1334                   22614857.4884
        41.2504         36.7504
    -34159.28945    523207.52042  24779392.7274                   24779394.8674
        35.0004         15.5004
 25  7 16  0 23  0.0000000  0 10G01G02G03G10G28G31G32G04G26G16
 -21677100.62147 -16846487.37945  21110973.2734                   21110971.0984
        45.7504         35.0004
  -9538466.74247  -7411904.12145  22401726.9304                   22401723.0824
        45.5004         32.2504
 -31084268.29747 -24415149.92247  20932484.3204                   20932483.6294
        46.2504         46.0004
   -442109.16046   -336485.81644  24876209.4614                   24876212.8594
        39.2504         26.5004
 -10149091.72347  -7885907.47745  21816928.1564                   21816926.2894
        46.2504         34.0004
 -23307006.91848 -18130752.45348  20053336.8674                   20053332.9614
        48.5004         48.5004
  -1944777.39546  -1508999.05945  24026736.6174                   24026736.7114
        41.7504         35.5004
 -24656752.21546 -18140017.16844  22623165.1804                   22623164.1844
        41.5004         26.0004
 -23253154.19546 -18075442.21545  22583880.5784                   22583881.7034
        41.5004         35.7504
   -219512.97745    378776.21142  24744119.9924                   24744123.0164
        33.2504         14.7504
 25  7 16  0 23 30.0000000  0 10G01G02G03G10G28G31G32G04G26G16
 -21737027.09447 -16893183.35545  21099569.5314                   21099567.1844
        47.0004         34.7504
  -9552610.38347  -7422925.19145  22399035.6484                   22399031.5594
        45.5004         31.5004
 -31236952.21547 -24534124.37547  20903429.2974                   20903428.5904
        46.0004         46.0004
   -431290.81646   -328056.08244  24878268.9384                   24878271.9264
        38.5004         25.2504
 -10160447.19147  -7894755.90245  21814767.2034                   21814765.0434
        46.2504         34.2504
 -23371579.86747 -18181069.03548  20041049.0164                   20041045.1414
        47.5004         48.5004
  -1960492.44947  -1521244.61745  24023746.4064                   24023746.6914
        42.2504         35.7504
 -24803638.76647 -18254474.19144  22595213.4774                   22595212.5044
        42.2504         26.5004
 -23415619.53147 -18202038.53946  22552964.8674                   22552965.6764
        42.0004         36.0004
   -404977.97745    234258.31342  24708828.1484                   24708830.0744
        35.2504         16.2504
 25  7 16  0 24  0.0000000  0 10G01G02G03G10G28G31G32G04G26G16
 -20220953.21547 -15711827.11745  21388068.7974                   21388066.7974
        46.0004         35.0004
  -7991028.39847  -6206108.12545  22696195.2114                   22696190.3204
        45.7504         32.0004
 -29813922.24647 -23425269.84447  21174222.9454                   21174222.4924
        46.7504         46.0004
   1155134.77746    908119.61344  25180155.5164                   25180158.0004
        39.2504         25.2504
  -8596029.30547  -6675729.00045  22112466.3134                   22112463.7814
        45.7504         33.7504
 -21860131.56248 -17003317.10548  20328668.2504                   20328664.6334
        49.0004         48.5004
   -400757.32446   -305866.63745  24320554.3984                   24320554.2814
        41.2504         35.0004
 -23374959.39847 -17141217.49244  22867082.4844                   22867081.2074
        42.0004         25.2504
 -22002352.62946 -17100791.55546  22821900.3914                   22821901.9614
        41.7504         36.0004
    984867.74645   1317255.19542  24973306.2894                   24973308.9494
        33.5004         16.7504
 25  7 16  0 24 30.0000000  0 10G01G02G03G10G28G31G32G04G26G16
 -20279727.53547 -15757625.31245  21376884.6724                   21376882.1254
        47.0004         34.7504
  -8004567.75447  -6216658.34845  22693618.3054                   22693614.5594
        45.7504         31.0004
 -29966029.63747 -23543795.06247  21145277.8364                   21145277.0744
        47.0004         46.0004
   1166323.78146    916838.24644  25182284.6094                   25182287.4534
        38.2504         25.0004
  -8606684.73847  -6684031.96945  22110438.8914                   22110435.8484
        47.5004         34.0004
 -21923510.98448 -17052703.67248  20316607.1954                   20316603.5204
        48.7504         48.5004
   -416416.41846   -318068.59845  24317573.6254                   24317574.7734
        40.7504         34.5004
 -23521567.43247 -17255457.49244  22839183.4924                   22839182.4144
        42.2504         27.0004
 -22164204.45746 -17226909.81246  22791100.2424                   22791101.7664
        41.2504         36.0004
    799171.234 5                  24937968.570
        32.500
 25  7 16  0 25  0.0000000  0 10G01G02G03G10G28G31G32G04G26G16
 -20337929.30547 -15802977.37145  21365809.1484                   21365807.0204
        47.2504         35.5004
  -8017810.64847  -6226977.55145  22691098.8054                   22691094.3634
        44.7504         31.2504
 -30117846.96947 -23662094.25447  21116388.3284                   21116387.6134
        47.5004         46.5004
   1177694.62145    925698.57043  25184447.7504                   25184451.3324
        35.7504         22.0004
  -8616995.59847  -6692066.43045  22108476.6334                   22108474.3524
        46.2504         34.0004
 -21986297.42648 -17101628.17648  20304659.6644                   20304655.6994
        49.0004         48.5004
   -432049.18046   -330250.03945  24314599.1564                   24314599.9414
        40.5004         35.0004
 -23668037.97747 -17369590.34844  22811310.8444                   22811310.1994
        42.2504         26.2504
 -22325746.33646 -17352786.56245  22760360.1334                   22760361.8404
        41.5004         35.5004
    613360.910 5                  24902610.461
        34.000
 25  7 16  0 25 30.0000000  0 10G01G02G03G10G28G31G32G04G26G16
