     2.11           OBSERVATION DATA    G (GPS)             RINEX VERSION / TYPE
teqc  2019Feb25                         20250819 03:23:48UTCPGM / RUN BY / DATE
Linux 2.6.32-573.12.1.x86_64|x86_64|gcc -static|Linux 64|=+ COMMENT
BIT 2 OF LLI FLAGS DATA COLLECTED UNDER A/S CONDITION       COMMENT
38333560                                                    MARKER NAME
3833                                                        MARKER NUMBER
-Unknown-           -Unknown-                               OBSERVER / AGENCY
0440103833          TRIMBLE 5700        2.32                REC # / TYPE / VERS
-Unknown-           TRM39105.00     NONE                    ANT # / TYPE
 -2403216.1483 -4605389.6506  3689993.4990                  APPROX POSITION XYZ
        0.0000        0.0000        0.0000                  ANTENNA: DELTA H/E/N
     1     1                                                WAVELENGTH FACT L1/2
     7    L1    L2    C1    P1    P2    S1    S2            # / TYPES OF OBSERV
    18                                                      LEAP SECONDS
 SNR is mapped to RINEX snr flag value [0-9]                COMMENT
  L1 & L2: min(max(int(snr_dBHz/6), 0), 9)                  COMMENT
  2005    12    22    17    35    0.0000000     GPS         TIME OF FIRST OBS
                                                            END OF HEADER
 05 12 22 17 35  0.0000000  0  4G18G27G23G10
    -28676.35957    -14768.91456  20958916.4064                   20958917.4734
        47.5004         39.2504
   -198632.25857   -120528.70756  21926028.4774                   21926030.8954
        45.0004         41.5004
    -25487.16457    -13049.83656  20523722.2734                   20523722.1294
        46.0004         36.2504
   -115344.31658    -56986.75057  21435899.8284                   21435902.6564
        48.5004         47.5004
 05 12 22 17 35 30.0000000  0  9G18G15G27G32G23G24G29G16G10
    -49355.31647    -30882.40646  20954981.8204                   20954981.8834
        46.2504         37.2504
     77826.72757     44214.39556  22476215.9454                   22476217.9264
        42.2504         37.5004
   -301005.16047   -200299.74647  21906547.0314                   21906550.2704
        45.2504         42.0004
   -252214.79757   -174006.61756  22985984.2894                   22985988.5704
        46.0004         38.0004
    -43817.79747    -27333.47746  20520233.7114                   20520234.2584
        45.7504         38.0004
   -145487.41855    -91666.36353  23808019.5164                   23808024.7854
        34.5004         21.5004
     93603.73455     59033.00454  24462530.3594                   24462535.4414
        35.7504         26.5004
     14518.44156      8147.83253  24245210.6804                   24245214.0824
        37.2504         18.5004
   -195952.53548   -119798.32847  21420560.6174                   21420563.1954
        48.5004         47.7504
 05 12 22 17 36  0.0000000  0  9G18G15G27G32G23G24G29G16G10
    -69791.78547    -46806.94946  20951092.7034                   20951093.1334
        47.5004         37.5004
    121113.50046     77944.04746  22484453.1644                   22484455.6214
        41.2504         37.5004
   -402941.43747   -279730.54747  21887149.0944                   21887152.2154
        45.7504         42.0004
   -400265.00447   -289370.34446  22957810.9694                   22957815.8284
        46.0004         39.0004
    -61991.29347    -41494.67646  20516775.1414                   20516775.8284
        46.2504         37.2504
   -252156.30946   -174784.96144  23787720.0634                   23787726.5124
        38.5004         29.5004
    160440.46544    111113.24644  24475247.6804                   24475254.3834
        28.7504         24.5004
     28335.17646     18914.02742  24247839.2344                   24247843.5594
        36.2504         17.7504
   -276377.19548   -182466.87147  21405256.6094                   21405259.3134
        48.2504         47.5004
 05 12 22 17 36 30.0000000  0  9G18G15G27G32G23G24G29G16G10
    -89959.78547    -62522.30146  20947254.7894                   20947255.7624
        45.5004         37.0004
    164705.50046    111911.74246  22492748.6334                   22492751.0044
        41.0004         36.5004
   -504413.87547   -358799.93447  21867839.5394                   21867842.7584
        45.5004         42.0004
   -548152.44157   -404607.23056  22929669.0314                   22929673.6644
        44.5004         38.0004
    -79983.47747    -55514.59446  20513351.5234                   20513351.9924
        45.5004         37.7504
   -358527.97356   -257671.95355  23767479.7814                   23767484.4304
        38.0004         30.0004
    227289.39556    154173.57054  24487971.0234                   24487975.5514
        37.5004         28.5004
     42371.69556     25200.43453  24250511.6484                   24250515.7584
        37.7504         19.5004
   -356593.50848   -244973.07847  21389992.0164                   21389994.2114
        48.7504         47.7504
 05 12 22 17 37  0.0000000  0 10G18G15G27G08G32G23G24G29G16G10
   -109853.65247    -78024.04346  20943469.8594                   20943469.9614
        47.0004         37.2504
    208604.06347    146118.32846  22501102.9454                   22501104.1134
        42.0004         36.7504
   -605415.46547   -437502.41847  21848619.6564                   21848622.8754
        45.5004         42.5004
   -573471.69156   -396584.81254  24348184.2274                   24348191.9694
        36.0004         28.2504
   -695869.48847   -519711.35946  22901559.3524                   22901563.8244
        45.5004         38.2504
    -97790.57047    -69390.27746  20509963.4304                   20509963.5164
        46.0004         37.7504
   -464594.13346   -340320.87544  23747294.7344                   23747301.0554
        38.0004         29.7504
    294157.33645    206278.14844  24500693.3594                   24500700.5984
        33.5004         26.7504
     56629.95746     36310.64843  24253224.8444                   24253229.0594
        38.2504         18.2504
   -436597.03548   -307313.47747  21374767.6334                   21374770.3204
        48.7504         47.7504
 05 12 22 17 37 30.0000000  0 10G18G15G27G08G32G23G24G29G16G10
   -129467.17248    -93307.34446  20939736.9774                   20939737.4104
        48.0004         37.5004
    252811.57046    180565.64144  22509514.3914                   22509516.3554
        38.0004         29.7504
   -705938.77747   -515832.19947  21829490.5314                   21829493.6764
        46.0004         43.0004
   -713027.66846   -505329.65244  24321627.6884                   24321634.2664
        38.0004         26.7504
   -843408.19947   -634676.53146  22873483.5634                   22873487.8094
        45.5004         38.0004
   -115408.19547    -83118.31646  20506610.7584                   20506610.8874
        46.5004         37.7504
   -570346.21146   -422725.06644  23727171.0164                   23727176.5984
        37.5004         28.5004
    361045.54745    258398.41444  24513423.6644                   24513429.5904
        35.7504         27.5004
     71112.57046     47595.78542  24255979.8984                   24255984.3014
        38.0004         17.7504
   -516382.75848   -369484.14547  21359584.3914                   21359587.4344
        48.7504         47.7504
 05 12 22 17 38  0.0000000  0 10G18G15G27G08G32G23G24G29G16G10
   1426638.27347   1119242.32446  21235854.0704                   21235854.5394
        47.5004         37.0004
   1872761.12146   1442863.89145  22817781.6024                   22817783.0234
        41.0004         33.2504
    769458.63747    633828.16447  22110249.0944                   22110252.1054
        46.0004         42.2504
    723086.47746    613720.38744  24594911.3524                   24594918.1174
        37.7504         24.0004
    584676.12547    478116.52346  23145238.8834                   23145243.5434
        45.0004         38.5004
   1442600.29347   1130914.23446  20803089.7664                   20803090.2154
        45.7504         38.0004
    899659.60546    722734.06344  24006903.1334                   24006908.7034
        38.2504         28.0004
   2003386.30146   1538144.14544  24825951.1804                   24825956.5784
        36.5004         26.0004
   1661253.41446   1286666.50843  24558575.1094                   24558577.9694
        40.0004         21.0004
    979488.62148    796129.91847  21644239.4774                   21644242.4734
        48.7504         47.7504
 05 12 22 17 38 30.0000000  0  9G18G27G08G32G23G24G29G16G10
   1407631.96547   1104432.17246  21232237.3834                   21232237.9534
        47.7504         37.7504
    669942.07047    556282.84847  22091311.8284                   22091314.8484
        46.0004         42.5004
    584034.12146    505367.97343  24568450.1174                   24568456.5944
        38.5004         22.7504
    437546.07447    363469.78946  23117241.2814                   23117245.7664
        45.7504         39.7504
   1425402.57847   1117513.38746  20799817.2424                   20799817.4804
        45.7504         38.5004
    794589.43046    640861.26245  23986910.0784                   23986914.8014
        38.0004         30.0004
   2070351.81645   1590324.62144  24838693.7194                   24838700.2894
        34.0004         24.0004
   1676220.56346   1298329.15643  24561421.8364                   24561426.5124
        38.5004         20.7504
    900181.27748    734331.99648  21629147.8984                   21629150.3014
        48.2504         48.0004
 05 12 22 17 39  0.0000000  0 10G18G15G27G08G32G23G24G29G16G10
   1388943.81347   1089869.95346  21228681.1724                   21228681.8244
        47.0004         37.0004
   1962820.90656   1513040.14556  22834919.2424                   22834921.2504
        41.2504         36.0004
    570945.18447    479142.47347  22072473.4924                   22072476.6174
        46.5004         42.7504
    445250.89846    397225.24243  24542040.8204                   24542047.4104
        37.0004         22.0004
    290637.65647    248995.76246  23089285.2584                   23089290.0474
        45.5004         38.7504
   1408426.59847   1104285.32446  20796586.9064                   20796587.8164
        46.5004         38.0004
    689878.34046    559268.24645  23966983.2974                   23966989.1524
        39.7504         30.7504
   2137366.17646   1642543.25844  24851448.3284                   24851453.4184
        38.5004         28.5004
   1691439.28946   1310187.72343  24564317.2114                   24564323.0084
        36.0004         19.0004
    821125.87548    672730.40248  21614104.1724                   21614106.3634
        49.0004         48.0004
 05 12 22 17 39 30.0000000  0 10G18G15G27G08G32G23G24G29G16G10
   1370578.62147   1075559.38346  21225186.3524                   21225186.7504
        47.2504         36.7504
   2008356.59446   1548522.40645  22843584.3134                   22843586.4454
        40.7504         35.2504
    472474.09447    402411.79347  22053734.8444                   22053737.8674
        46.7504         43.0004
    306743.62145    289297.48843  24515682.6414                   24515690.1334
        35.0004         22.0004
    143957.47347    134699.58246  23061372.7504                   23061377.6174
        45.0004         38.7504
   1391675.40647   1091232.42646  20793399.3914                   20793399.6844
        46.5004         38.0004
    585533.59046    477960.69545  23947127.1644                   23947132.2274
        38.5004         30.7504
   2204430.78546   1694801.09044  24864208.8444                   24864215.9614
        38.0004         29.7504
   1706910.81645   1322243.37943  24567262.3914                   24567267.3674
        34.7504         19.2504
    742326.02348    611327.93048  21599109.0944                   21599111.1884
        49.5004         48.0004
 05 12 22 17 40  0.0000000  0 10G18G15G27G08G32G23G24G29G16G10
   1352536.73447   1061500.74246  21221753.1094                   21221753.8874
        47.2504         36.5004
   2054226.76247   1584265.30945  22852313.6094                   22852315.7624
        42.0004         35.5004
    374530.35247    326092.03547  22035096.8984                   22035099.8444
        47.0004         42.7504
    168514.67245    181586.68043  24489378.9454                   24489386.1374
        35.2504         22.2504
     -2492.30547     20582.93446  23033504.2274                   23033508.9614
        45.0004         38.5004
   1375147.50447   1078353.51646  20790254.1024                   20790254.3524
        45.7504         37.5004
    481557.90246    396940.73045  23927340.8054                   23927346.8134
        38.5004         30.0004
   2271543.38745   1747096.28144  24876979.7734                   24876987.0744
        34.7504         25.0004
   1722631.87145   1334493.41842  24570253.7584                   24570259.3794
        35.2504         16.2504
    663780.88748    550123.93848  21584162.4534                   21584164.7584
        48.7504         48.0004
 05 12 22 17 40 30.0000000  0 10G18G15G27G08G32G23G24G29G16G10
   1334817.93847   1047693.84046  21218381.3754                   21218381.7774
        46.2504         37.0004
   2100427.71547   1620265.93846  22861104.7734                   22861107.2734
        42.5004         36.0004
    277114.85247    250183.90247  22016559.3054                   22016561.8404
        46.5004         42.5004
     30565.54345     74093.98043  24463127.0004                   24463135.2424
        34.0004         23.2504
   -148710.12147    -93352.96146  23005679.6884                   23005684.1724
        45.0004         38.7504
   1358840.89147   1065647.03146  20787150.9384                   20787151.3094
        46.2504         38.5004
    377953.46546    316210.06645  23907625.7114                   23907631.5314
        39.0004         30.0004
   2338700.72746   1799426.23844  24889760.2504                   24889766.7344
        37.0004         24.7504
   1738598.55146   1346934.92242  24573293.0944                   24573297.3054
        38.2504         17.2504
    585488.98848    489117.26648  21569263.9064                   21569266.5434
        49.2504         48.0004
 05 12 22 17 41  0.0000000  0 10G18G15G27G08G32G23G24G29G16G10
   1317420.92247   1034137.68846  21215071.0864                   21215071.4614
        46.7504         37.0004
   2146954.52046   1656520.49646  22869958.7974                   22869961.3954
        40.7504         36.0004
    180227.47747    174687.28947  21998122.1564                   21998125.0314
        46.0004         42.2504
   -107103.19145    -33180.30144  24436930.0634                   24436938.2934
        35.5004         27.0004
   -294695.41047   -207107.67246  22977899.7894                   22977904.1174
        45.2504         39.5004
   1342752.44547   1053110.55946  20784089.6414                   20784089.7814
        46.0004         37.2504
    274721.35246    235769.51245  23887981.2034                   23887986.8444
        38.7504         30.2504
   2405898.10946   1851787.53144  24902548.1724                   24902554.0434
        38.7504         29.5004
   1754805.94946   1359563.93843  24576377.6414                   24576381.3834
        38.2504         20.7504
    507447.83648    428305.98848  21554413.3364                   21554415.6844
        48.2504         48.2504
 05 12 22 17 41 30.0000000  0 10G18G15G27G08G32G23G24G29G16G10
   1300344.12547   1020831.06346  21211821.1484                   21211821.5554
        45.5004         37.2504
   2193801.89846   1693024.84446  22878873.8204                   22878876.1604
        41.5004         36.0004
     83867.89847     99601.94547  21979785.5634                   21979788.2074
        46.2504         42.2504
   -244490.71946   -140235.38344  24410785.9064                   24410794.0204
        37.0004         28.7504
   -440447.91847   -320680.98046  22950164.0704                   22950168.4144
        45.2504         39.2504
   1326878.89147   1040741.52046  20781069.1954                   20781068.8484
        45.7504         38.5004
    171862.33646    155619.71945  23868407.6564                   23868412.8954
        39.0004         30.0004
   2473131.23446   1904176.64144  24915341.8754                   24915348.5204
        36.0004         27.7504
   1771249.12946   1372376.71143  24579506.6564                   24579510.6604
        38.2504         20.5004
    429654.68048    367687.95748  21539609.6024                   21539611.9774
        48.5004         48.0004
 05 12 22 17 42  0.0000000  0 10G18G15G27G08G32G23G24G29G16G10
   1283587.25847   1007773.71946  21208632.8674                   21208632.7194
        46.0004         36.5004
   2240966.62546   1729776.49246  22887848.7194                   22887851.0044
        41.5004         36.0004
    -11963.09447     24928.48047  21961549.6724                   21961552.3324
        47.0004         43.0004
   -381595.62946   -247070.28144  24384696.3284                   24384703.4264
        39.2504         29.7504
   -585966.10947   -434071.71546  22922472.7424                   22922476.8524
        45.5004         39.0004
   1311218.15647   1028538.31646  20778088.6564                   20778089.0824
        45.7504         37.5004
     69378.59056     75762.32055  23848905.7584                   23848910.7034
        38.5004         30.7504
   2540396.78545   1956590.91844  24928141.9694                   24928149.4654
        33.5004         25.7504
   1787924.14546   1385370.09443  24582679.0394                   24582684.5164
        36.7504         18.5004
    352108.07448    307262.03948  21524853.0554                   21524855.5944
        48.5004         48.0004
 05 12 22 17 42 30.0000000  0 10G18G15G27G08G32G23G24G29G16G10
   1267146.09447    994962.39546  21205503.8834                   21205504.3404
        46.2504         36.7504
   2288440.66447   1766769.15246  22896883.0944                   22896885.5164
        42.0004         36.5004
   -107268.56647    -49335.48847  21943413.4454                   21943416.3204
        46.7504         43.0004
   -518420.22746   -353686.76244  24358659.2894                   24358666.3444
        39.2504         27.7504
   -731252.41447   -547281.76246  22894825.4534                   22894829.7464
        45.7504         39.5004
   1295764.23047   1016496.27346  20775148.0164                   20775148.0164
        46.0004         37.7504
    -32731.72346     -3804.09445  23829474.4384                   23829480.0824
        39.0004         30.2504
   2607687.53546   2009024.93044  24940947.3054                   24940954.7464
        37.7504         27.5004
   1804823.43046   1398538.23443  24585894.9924                   24585899.8204
        37.2504         18.2504
    274802.58648    247024.01248  21510142.3524                   21510144.8204
        48.7504         48.2504
 05 12 22 17 43  0.0000000  0 10G18G15G27G08G32G23G24G29G16G10
   1251020.92647    982397.28946  21202435.4304                   21202436.0554
        46.0004         36.7504
   2336221.21147   1804000.65246  22905975.0234                   22905977.6884
        42.0004         36.0004
   -202047.10547   -123188.84847  21925377.7424                   21925380.6844
        46.7504         42.7504
   -654962.37946   -460083.20344  24332675.5704                   24332683.7234
        38.2504         26.0004
   -876304.68747   -660309.43746  22867223.1484                   22867227.4224
        45.0004         40.2504
   1280515.71147   1004614.28946  20772246.6094                   20772246.4224
        46.5004         37.7504
   -134466.06246    -83077.53544  23810115.5164                   23810120.7234
        39.7504         29.0004
   2675000.96546   2061476.65244  24953757.5084                   24953764.6254
        38.0004         29.0004
   1821943.47346   1411878.43043  24589153.2584                   24589157.6054
        38.0004         19.2504
    197737.27748    186973.13348  21495477.1334                   21495479.5434
        48.5004         48.2504
 05 12 22 17 43 30.0000000  0 10G18G15G27G08G32G23G24G29G16G10
   1235213.21947    970079.56646  21199427.4614                   21199427.9414
        46.2504         37.0004
   2384305.75846   1841469.03945  22915125.3834                   22915128.3954
        40.5004         35.5004
   -296296.09447   -196629.57847  21907442.6174                   21907445.4224
        46.7504         42.5004
   -791218.47746   -566256.73043  24306747.7504                   24306754.4104
        36.0004         22.5004
  -1021119.59847   -773152.16046  22839665.3674                   22839669.8134
        45.5004         39.7504
   1265472.32447    992892.14846  20769384.1644                   20769384.1454
        46.7504         37.7504
   -235820.46146   -162054.93445  23790828.5314                   23790833.3874
        40.2504         30.5004
   2742335.49646   2113944.76244  24966571.9064                   24966577.9804
        36.2504         27.0004
   1839282.41846   1425389.25043  24592452.4304                   24592456.6214
        38.0004         18.2504
    120912.50448    127109.69148  21480857.8204                   21480859.9964
        49.0004         48.2504
 05 12 22 17 44  0.0000000  0 10G18G15G27G08G32G23G24G29G16G10
   1219723.82847    958009.86346  21196480.1724                   21196480.3984
        47.5004         37.0004
   2432691.84046   1879172.39145  22924333.1484                   22924335.3244
        40.5004         35.2504
   -390013.67647   -269656.21947  21889608.7274                   21889611.6564
        46.5004         42.7504
   -927185.77045   -672205.21543  24280875.1094                   24280880.7154
        35.2504         19.0004
  -1165694.54347   -885807.88746  22812153.8674                   22812158.1954
        45.2504         39.7504
   1250633.18847    981329.16446  20766559.8524                   20766559.9264
        46.7504         37.2504
   -336791.80146   -240733.82045  23771614.1884                   23771619.5984
        40.2504         31.0004
   2809689.07046   2166427.65244  24979389.3524                   24979395.2734
        37.5004         29.5004
   1856837.43846   1439068.39843  24595792.8754                   24595798.0984
        36.7504         18.2504
     44327.84848     67433.35548  21466284.4614                   21466286.2464
        49.5004         48.0004
 05 12 22 17 44 30.0000000  0 10G18G15G27G08G32G23G24G29G16G10
   1204552.16847    946187.76246  21193592.9144                   21193593.5354
        46.5004         36.5004
   2481375.28946   1917107.46945  22933597.1644                   22933599.7624
        41.7504         35.2504
   -483199.18047   -342268.26647  21871876.1334                   21871878.9224
        47.5004         43.5004
  -1062862.85245   -777927.56243  24255054.4774                   24255062.3754
        35.0004         20.2504
  -1310028.16447   -998275.57446  22784687.5234                   22784692.0314
        46.0004         40.0004
   1235996.07047    969923.59846  20763774.5394                   20763774.4264
        46.2504         37.5004
   -437378.13346   -319112.71545  23752473.1954                   23752478.4574
        40.2504         31.0004
   2877058.12546   2218922.61745  24992208.9694                   24992216.0944
        39.5004         30.7504
   1874604.52746   1452912.75042  24599175.4614                   24599179.2664
        36.2504         17.7504
    -32018.33248      7942.83648  21451756.0474                   21451758.2114
        48.5004         48.2504
 05 12 22 17 45  0.0000000  0 10G18G15G27G08G32G23G24G29G16G10
   1189700.87947    934615.28946  21190767.0084                   21190767.2464
        45.7504         36.7504
   2530355.36346   1955273.67245  22942917.9924                   22942920.3594
        41.5004         35.2504
   -575849.05547   -414462.93747  21854245.8444                   21854248.3524
        47.0004         43.0004
  -1198245.03546   -883420.08244  24229292.3134                   24229299.8914
        37.5004         26.0004
  -1454116.08247  -1110551.80146  22757268.9384                   22757272.9024
        45.7504         40.0004
   1221561.85547    958676.14146  20761028.1564                   20761028.4924
        46.5004         37.0004
   -537574.60946   -397187.84445  23733406.0084                   23733411.5474
        39.5004         31.2504
   2944442.18446   2271429.38744  25005031.8054                   25005038.0514
        38.7504         27.7504
   1892582.43045   1466921.35242  24602595.1484                   24602600.8914
        34.0004         17.2504
   -108124.64148    -51360.75848  21437273.5634                   21437275.9884
        49.0004         48.2504
 05 12 22 17 45 30.0000000  0 10G18G15G27G08G32G23G24G29G16G10
   1175171.21547    923293.44946  21188001.9774                   21188002.6294
        47.0004         36.2504
   2579630.06646   1993669.44145  22952294.5634                   22952297.2274
        41.2504         35.2504
   -667960.92247   -486238.38747  21836717.0394                   21836719.5164
        46.7504         42.7504
  -1333329.31246   -988680.45344  24203587.6954                   24203594.1254
        39.2504         29.5004
  -1597955.21147  -1222634.16446  22729897.1954                   22729901.2584
        45.5004         40.2504
   1207330.10947    947586.44946  20758319.8674                   20758319.9654
        47.7504         36.7504
   -637377.59446   -474956.33645  23714414.1174                   23714419.5744
        40.0004         31.5004
   3011840.00046   2323946.84844  25017857.4064                   25017864.1804
        37.0004         27.2504
   1910769.09046   1481092.75842  24606056.4064                   24606061.2544
        38.2504         16.7504
   -183990.98848   -110477.37948  21422836.4614                   21422839.4144
        49.7504         48.5004
 05 12 22 17 46  0.0000000  0 10G18G15G27G08G32G23G24G29G16G10
   1160964.21947    912223.03146  21185298.5704                   21185298.7734
        46.2504         36.2504
   2629197.10546   2032293.02745  22961727.2894                   22961729.5474
        41.2504         35.0004
   -759532.68747   -557592.96947  21819291.5234                   21819294.1334
        47.0004         43.0004
  -1468112.41446  -1093706.14545  24177938.9384                   24177945.8444
        40.5004         31.2504
  -1741542.63347  -1334520.39546  22702573.4384                   22702577.7584
        46.0004         40.2504
   1193300.24647    936654.07846  20755649.7344                   20755650.4924
        47.0004         37.2504
   -736783.73446   -552415.60245  23695497.4534                   23695503.3834
        39.5004         30.7504
   3079249.57046   2376473.35944  25030684.9454                   25030692.6954
        37.5004         28.2504
   1929162.12146   1495424.91042  24609556.5474                   24609561.1914
        37.2504         16.2504
   -259617.47348   -169407.08248  21408445.2894                   21408447.9454
        48.2504         48.2504
 05 12 22 17 46 30.0000000  0 10G18G15G27G08G32G23G24G29G16G10
   1147081.15647    901405.02746  21182656.5004                   21182657.1094
        46.2504         37.0004
   2679054.22746   2071142.64145  22971214.7584                   22971217.1914
        40.7504         34.5004
   -850562.01647   -628524.88347  21801969.3594                   21801971.8444
        47.0004         43.2504
  -1602591.27346  -1198494.76245  24152348.5004                   24152355.2774
        40.5004         31.0004
  -1884875.26247  -1446208.07846  22675297.8754                   22675301.9734
        45.7504         40.2504
   1179471.81647    925878.66846  20753018.3834                   20753018.3834
        47.5004         37.5004
   -835789.34846   -629562.77045  23676657.2274                   23676662.7234
        39.7504         31.5004
   3146668.86346   2429007.55545  25043514.9534                   25043522.3954
        39.2504         30.2504
   1947759.31645   1509916.18842  24613095.8284                   24613100.6954
        35.2504         17.7504
   -335003.96948   -228149.78948  21394099.5084                   21394102.0234
        48.7504         48.2504
 05 12 22 17 47  0.0000000  0 10G18G15G27G08G32G23G24G29G16G10
   1133526.26247    890842.74246  21180077.1644                   21180077.3754
        46.7504         36.5004
   2729201.96946   2110218.70745  22980757.4844                   22980759.9494
        40.5004         34.7504
   -941043.69947   -699030.06247  21784750.9224                   21784753.9694
        46.7504         43.2504
  -1736759.54746  -1303041.35945  24126817.2344                   24126823.4924
        39.5004         30.0004
  -2027947.04347  -1557692.51246  22648071.9614                   22648076.5704
        46.0004         40.0004
   1165847.50447    915262.29746  20750425.5784                   20750425.8364
        45.7504         37.0004
   -934387.88746   -706392.73445  23657895.0554                   23657900.1684
        40.0004         31.5004
   3214099.53146   2481550.56644  25056347.1414                   25056354.1334
        38.2504         28.5004
   1966561.40245   1524566.96942  24616672.3364                   24616679.2114
        33.5004         17.7504
   -410147.42648   -286703.10548  21379800.4144                   21379802.7424
        48.5004         48.2504
 05 12 22 17 47 30.0000000  0 10G18G15G27G08G32G23G24G29G16G10
   1120306.96547    880541.95746  21177561.9454                   21177562.3484
        47.2504         36.2504
   2779644.85946   2149524.76245  22990356.2344                   22990359.3204
        41.0004         34.5004
  -1030969.20747   -769101.85947  21767638.3594                   21767641.5704
        47.0004         43.5004
  -1870607.96546  -1407338.69544  24101345.6024                   24101352.4414
        37.5004         26.0004
  -2170748.64147  -1668966.40246  22620898.0944                   22620901.6724
        45.7504         41.0004
   1152433.02747    904809.44946  20747873.0634                   20747873.2934
        47.2504         37.7504
  -1032569.59846   -782897.91845  23639210.9304                   23639217.1884
        40.2504         32.5004
   3281546.04346   2534105.96944  25069181.0474                   25069189.1024
        36.7504         27.0004
   1985572.14545   1539380.45342  24620291.3754                   24620297.0864
        33.2504         16.7504
   -485041.51248   -345062.12148  21365548.6954                   21365551.1724
        48.0004         48.5004
 05 12 22 17 48  0.0000000  0 10G18G15G27G08G32G23G24G29G16G10
   1107433.43847    870510.60946  21175111.9224                   21175112.2504
        45.5004         36.2504
   2830389.12946   2189065.66445  23000012.9694                   23000015.3594
        41.0004         34.7504
  -1120327.45747   -838731.63347  21750634.7344                   21750636.9844
        46.5004         43.5004
  -2004124.22745  -1511377.18743  24075938.5944                   24075945.0634
        35.5004         22.5004
  -2313268.11747  -1780020.46146  22593777.3364                   22593781.0474
        46.0004         40.7504
   1139236.93847    894526.77046  20745362.1174                   20745362.3244
        47.0004         37.5004
  -1130321.98046   -859068.53145  23620609.4384                   23620615.1604
        40.2504         31.5004
   3349015.79746   2586679.44145  25082020.9614                   25082028.5554
        39.7504         30.5004
   2004798.02045   1554361.55142  24623950.2584                   24623955.7974
        35.5004         16.7504
   -559677.23848   -403219.81648  21351345.7344                   21351348.1884
        48.7504         48.5004
 05 12 22 17 48 30.0000000  0 10G18G15G27G08G32G23G24G29G16G10
   1094912.32847    860753.86346  21172729.1954                   21172729.9104
        46.0004         36.2504
   2881438.26246   2228844.12145  23009726.9614                   23009730.2034
        41.5004         35.0004
  -1209110.78147   -907913.40247  21733739.8284                   21733742.1844
        46.5004         43.5004
  -2137299.80545  -1615150.27043  24050595.9694                   24050601.9304
        35.7504         21.2504
  -2455496.96547  -1890848.06246  22566712.1174                   22566716.1764
        45.5004         41.0004
   1126264.31347    884418.21546  20742893.4304                   20742893.9224
        47.0004         37.2504
  -1227636.05946   -934897.64145  23602091.8914                   23602097.0474
        40.5004         32.5004
   3416512.59046   2639274.03145  25094865.2894                   25094873.2464
        39.5004         31.0004
   2024242.24646   1569512.80542  24627650.6414                   24627655.8984
        36.0004         17.2504
   -634049.05148   -461171.86348  21337193.4924                   21337195.9344
        49.0004         48.5004
 05 12 22 17 49  0.0000000  0 10G18G15G27G08G32G23G24G29G16G10
   1082742.47747    851270.82446  21170413.4064                   21170413.6724
        47.0004         36.0004
   2932787.79346   2268856.65645  23019499.3984                   23019501.3754
        41.5004         34.7504
  -1297319.33247   -976647.30547  21716953.9844                   21716956.3634
        46.0004         43.2504
  -2270133.78546  -1718657.23043  24025318.5314                   24025323.4104
        39.0004         22.7504
  -2597434.50047  -2001448.66046  22539702.4304                   22539706.4414
        45.0004         40.7504
   1113512.36347    874481.62146  20740466.7504                   20740466.8674
        47.0004         37.2504
  -1324510.71546  -1010384.30945  23583657.3674                   23583662.1334
        41.2504         31.7504
   3484032.32846   2691886.47745  25107714.5864                   25107722.2304
        40.7504         33.0004
   2043900.44946   1584830.73442  24631392.2034                   24631396.4924
        36.2504         15.5004
   -708159.25848   -518920.07448  21323090.7194                   21323093.2774
        48.7504         48.5004
 05 12 22 17 49 30.0000000  0 10G18G15G27G08G32G23G24G29G16G10
   1070918.28947    842057.14146  21168162.9454                   21168164.0514
        45.5004         36.5004
   2984428.64847   2309096.20345  23029326.3984                   23029328.5124
        42.0004         35.2504
  -1384957.74647  -1044936.93747  21700276.7814                   21700279.5474
        46.0004         43.5004
  -2402629.67646  -1821900.74644  24000105.0554                   24000111.3634
        40.5004         26.2504
  -2739084.43047  -2111825.15646  22512747.2114                   22512751.2114
        46.0004         41.0004
   1100973.90647    864711.38346  20738080.8754                   20738081.2814
        46.5004         37.0004
  -1420949.12546  -1085531.05945  23565305.0474                   23565310.0784
        40.7504         32.5004
   3551566.65646   2744510.26645  25120566.0394                   25120574.4494
        37.5004         30.5004
   2063763.53545   1600308.29742  24635170.4614                   24635176.9924
        32.7504         15.5004
   -782014.53948   -576469.63348  21309036.5944                   21309038.9064
        48.2504         48.5004
 05 12 22 17 50  0.0000000  0 10G18G15G27G08G32G23G24G29G16G10
   1059441.15647    833113.88746  21165979.5394                   21165980.1914
        46.0004         36.2504
   3036358.80547   2349561.17245  23039207.9614                   23039210.5474
        42.5004         35.5004
  -1472023.70747  -1112780.50847  21683708.7504                   21683711.3524
        47.0004         43.5004
  -2534784.21946  -1924878.21544  23974957.0944                   23974963.6524
        40.0004         27.7504
  -2880443.56247  -2221975.05146  22485847.3524                   22485851.1174
        45.2504         41.5004
   1088648.79747    855107.39146  20735735.4064                   20735735.6024
        47.2504         37.0004
  -1516947.69546  -1160335.08245  23547037.5554                   23547042.4884
        41.5004         32.7504
   3619113.93846   2797144.09444  25133420.0634                   25133427.8554
        36.7504         28.5004
   2083829.44145   1615943.95342  24638988.5394                   24638995.3984
        34.2504         14.7504
   -855614.66448   -633820.38348  21295030.7114                   21295032.8324
        49.0004         48.7504
 05 12 22 17 50 30.0000000  0 10G18G15G27G08G32G23G24G29G16G10
   1048315.66047    824444.64146  21163862.2114                   21163862.4924
        45.2504         36.2504
   3088579.77047   2390252.74645  23049144.7504                   23049148.0044
        42.0004         35.0004
  -1558511.71147  -1180173.71947  21667250.4924                   21667253.0864
        46.0004         43.5004
  -2666590.76646  -2027584.49244  23949875.3134                   23949881.8404
        40.5004         29.5004
  -3021505.49647  -2331893.35546  22459003.8914                   22459007.9534
        46.0004         41.5004
   1076539.98048    845671.93046  20733431.2894                   20733431.3484
        48.0004         37.0004
  -1612499.57446  -1234791.00845  23528853.7344                   23528859.2274
        41.0004         32.5004
   3686675.99646   2849789.47344  25146276.5474                   25146285.4024
        37.2504         28.2504
   2104099.17246   1631738.47342  24642846.3524                   24642851.8714
        36.2504         16.2504
   -928956.17648   -690969.60248  21281074.4224                   21281076.4654
        49.2504         48.5004
 05 12 22 17 51  0.0000000  0 10G18G15G27G08G32G23G24G29G16G10
   1037540.79747    816048.60946  21161812.0634                   21161812.5704
        45.7504         36.0004
   3141087.11747   2431167.47345  23059137.4774                   23059139.3284
        42.2504         34.2504
  -1644421.84047  -1247116.65247  21650902.3754                   21650904.9654
        47.0004         44.0004
  -2798048.41046  -2130018.86744  23924859.8524                   23924866.4774
        38.2504         29.0004
  -3162269.41847  -2441579.44946  22432217.6094                   22432221.5124
        46.2504         41.5004
   1064644.98047    836403.08646  20731167.6414                   20731168.1564
        46.2504         37.0004
  -1707603.40246  -1308897.84845  23510756.2504                   23510761.6564
        40.2504         32.0004
   3754249.18846   2902443.55944  25159136.0784                   25159144.2344
        39.2504         27.7504
   2124568.19146   1647688.32842  24646742.7504                   24646747.2704
        38.0004         16.2504
  -1002041.15248   -747918.93448  21267166.9144                   21267169.1214
        49.5004         48.7504
 05 12 22 17 51 30.0000000  0 10G18G15G27G08G32G23G24G29G16G10
   1027121.02747    807929.28146  21159829.1024                   21159829.8014
        45.5004         36.0004
   3193882.00047   2472306.25445  23069183.6024                   23069186.4414
        42.0004         34.5004
  -1729748.69947  -1313605.07847  21634665.4454                   21634668.2734
        46.5004         43.7504
  -2929150.64546  -2232176.27344  23899911.5474                   23899918.3554
        36.2504         27.2504
  -3302728.93047  -2551028.34046  22405488.3134                   22405492.8484
        46.0004         41.5004
   1052966.67647    827303.09446  20728945.2734                   20728945.5554
        46.5004         36.7504
  -1802252.48046  -1382650.31645  23492745.8674                   23492750.4024
        41.0004         31.7504
   3821834.95746   2955107.48445  25171997.0004                   25172005.8164
        40.0004         30.5004
   2145237.71945   1663794.31642  24650675.6884                   24650681.0234
        34.5004         14.7504
  -1074866.23848   -804665.74248  21253308.7814                   21253310.5744
        49.0004         48.5004
 05 12 22 17 52  0.0000000  0 10G18G15G27G08G32G23G24G29G16G10
   1017059.80547    800089.32446  21157914.9064                   21157915.0984
        47.0004         36.0004
   3246964.25447   2513668.96946  23079285.3524                   23079287.7584
        43.0004         36.2504
  -1814487.88747  -1379635.58647  21618539.8204                   21618542.3404
        46.0004         44.2504
  -3059891.90246  -2334052.40644  23875031.3444                   23875038.8164
        37.2504         26.0004
  -3442878.75847  -2660235.92246  22378818.7814                   22378822.8324
        46.5004         41.2504
   1041507.05548    818373.50846  20726764.7734                   20726764.9494
        48.2504         36.7504
  -1896440.99246  -1456043.91445  23474821.9534                   23474826.5944
        40.0004         32.5004
   3889434.35546   3007781.95744  25184860.9844                   25184869.8164
        37.7504         28.5004
   2166107.60545   1680056.48442  24654646.1094                   24654652.6174
        34.0004         14.7504
  -1147428.99648   -861208.14548  21239500.5474                   21239502.9574
        50.2504         48.7504
 05 12 22 17 52 30.0000000  0 10G18G15G27G08G32G23G24G29G16G10
   1007364.28147    792534.34046  21156069.8754                   21156070.3284
        46.5004         36.7504
   3300337.96147   2555258.77745  23089442.1094                   23089444.6414
        42.5004         35.0004
  -1898631.47747  -1445201.98847  21602527.4224                   21602530.5984
        46.7504         44.0004
  -3190263.09046  -2435640.21944  23850222.7734                   23850229.1914
        39.2504         27.5004
  -3582709.97347  -2769195.23846  22352209.6724                   22352213.7274
        46.5004         41.7504
   1030271.73847    809618.69946  20724626.3914                   20724627.1564
        47.2504         37.0004
  -1990159.61746  -1529071.35545  23456987.2344                   23456992.8284
        40.0004         32.2504
   3957051.13346   3060469.85244  25197729.0864                   25197737.6214
        36.7504         28.0004
   2187181.20746   1696477.27042  24658657.0314                   24658662.3594
        37.0004         16.2504
  -1219723.42648   -917541.46948  21225743.1804                   21225745.5434
        49.2504         49.0004
 05 12 22 17 53  0.0000000  0  9G18G15G27G08G32G23G24G16G10
    998040.14147    785268.73846  21154295.4454                   21154296.0474
        46.0004         36.5004
   3354005.48047   2597077.53545  23099654.1884                   23099657.3364
        42.0004         34.2504
  -1982172.82847  -1510299.11347  21586630.3594                   21586632.9454
        46.7504         44.0004
  -3320256.48446  -2536933.68444  23825486.1174                   23825491.9694
        40.5004         27.0004
  -3722215.02347  -2877900.39146  22325663.2034                   22325666.7664
        46.2504         41.7504
   1019264.93448    801041.94946  20722532.5314                   20722532.5164
        48.0004         36.7504
  -2083400.38746  -1601726.45345  23439244.4384                   23439249.9064
        39.2504         31.2504
   2208461.05546   1713058.92643  24662706.5474                   24662711.2854
        36.5004         18.2504
  -1291744.95348   -973662.12148  21212038.1724                   21212040.2304
        50.0004         49.0004
 05 12 22 17 53 30.0000000  0  9G18G15G27G08G32G23G24G16G10
    989093.35247    778297.18846  21152592.7034                   21152593.7664
        46.0004         36.2504
   3407969.43447   2639127.27045  23109923.3834                   23109925.8834
        42.0004         34.7504
  -2065105.18447  -1574921.69947  21570849.0164                   21570851.2074
        46.2504         44.0004
  -3449864.06646  -2637926.51644  23800823.2974                   23800828.6054
        39.7504         29.0004
  -3861386.04747  -2986345.27746  22299179.8674                   22299183.4224
        46.5004         41.7504
   1008491.07447    792646.71546  20720481.9224                   20720482.3404
        47.5004         37.2504
  -2176155.08646  -1674002.80545  23421593.3444                   23421598.9534
        39.7504         32.0004
   2229950.29745   1729803.69542  24666795.6174                   24666802.2894
        35.5004         14.7504
  -1363488.65248  -1029566.30148  21198385.4614                   21198387.7934
        48.7504         49.0004
 05 12 22 17 54  0.0000000  0  9G18G15G27G08G32G23G24G16G10
    980539.02047    771631.44145  21150964.9534                   21150965.6414
        46.2504         35.5004
   3462241.66847   2681417.23045  23120251.4144                   23120254.0354
        42.0004         34.5004
  -2147412.56247  -1639057.28947  21555186.6644                   21555189.2814
        45.7504         44.5004
  -3579068.77046  -2738605.37144  23776235.3054                   23776242.1214
        38.5004         29.5004
  -4000206.14547  -3094516.71546  22272763.1094                   22272767.1374
        46.2504         41.7504
    997963.81647    784443.64146  20718478.5864                   20718479.2814
        47.7504         36.0004
  -2268406.29346  -1745886.82445  23404038.9144                   23404043.8794
        40.0004         31.7504
   2251659.949 5                  24670927.172
        34.500
  -1434940.44548  -1085243.00448  21184788.5864                   21184790.9184
        50.0004         48.5004
 05 12 22 17 54 30.0000000  0  9G18G15G27G08G32G23G24G16G10
   2547804.87947   1992877.53946  21449205.8134                   21449206.5354
        47.0004         36.0004
   5092244.60547   3951549.31645  23430430.7274                   23430433.3874
        43.0004         34.0004
   -653663.93747   -475097.29347  21839436.9224                   21839439.7384
        46.0004         44.0004
  -2132436.85946  -1611359.57444  24051520.1884                   24051527.0204
        37.0004         28.5004
  -2563241.35247  -1974803.81646  22546208.0314                   22546211.7504
        47.0004         41.7504
   2563109.55148   2004037.69546  21016316.0234                   21016316.4224
        48.7504         37.2504
   -784721.31246   -589768.61745  23686374.9694                   23686380.2304
        39.7504         32.0004
   3849013.477 6                  24974893.789
        36.000
     69328.41048     86914.55548  21471041.8364                   21471043.6914
        49.7504         48.7504
 05 12 22 17 55  0.0000000  0  9G18G15G27G08G32G23G24G16G10
   2540054.11747   1986837.94546  21447730.8204                   21447731.4734
        46.0004         36.0004
   5147142.57447   3994326.88345  23440877.4694                   23440879.8954
        42.0004         34.0004
   -734700.27047   -538242.45747  21824016.2344                   21824019.1374
        45.7504         44.0004
  -2260811.13346  -1711391.29744  24027091.3284                   24027097.9304
        37.0004         29.2504
  -2701335.31247  -2082409.42247  22519930.0164                   22519933.5664
        46.7504         42.0004
   2553089.84847   1996230.11346  21014409.2504                   21014409.4534
        47.7504         36.0004
   -875940.15246   -660848.20745  23669016.6484                   23669021.7504
        41.0004         33.0004
   3871172.53546   2970278.86353  24979111.1564                   24979115.6214
        37.5004         18.2504
     -1524.09048     31704.83248  21457558.3984                   21457561.0204
        49.5004         49.2504
 05 12 22 17 55 30.0000000  0  9G18G15G27G08G32G23G24G16G10
   2532709.10247   1981114.53946  21446333.0084                   21446333.5394
        46.5004         36.0004
   5202352.52047   4037347.53145  23451383.6024                   23451386.2704
        42.0004         33.5004
   -815095.86347   -600888.35247  21808717.6564                   21808720.3244
        45.7504         44.0004
  -2388763.10246  -1811093.97345  24002742.7894                   24002749.0634
        38.2504         31.5004
  -2839059.48847  -2189726.89547  22493721.8914                   22493725.5204
        47.0004         42.0004
   2543325.74647   1988621.69946  21012551.4384                   21012551.2624
        47.5004         36.5004
   -966635.66446   -731520.00845  23651757.7194                   23651763.4184
        40.7504         33.0004
   3893555.29746   2987719.84442  24983369.3984                   24983375.2194
        36.7504         16.7504
    -72074.58248    -23269.55948  21444133.4614                   21444135.6764
        50.0004         49.0004
 05 12 22 17 56  0.0000000  0  9G18G15G27G08G32G23G24G16G10
   2525771.49647   1975708.57045  21445013.1954                   21445014.0744
        46.2504         35.7504
   5257872.57047   4080609.82845  23461948.5474                   23461951.7384
        42.0004         34.2504
   -894848.31647   -663033.10247  21793541.3204                   21793544.1134
        46.0004         44.2504
  -2516289.13346  -1910464.76645  23978475.2114                   23978481.6954
        39.5004         30.7504
  -2976410.39847  -2296753.51247  22467584.8054                   22467588.5824
        46.5004         42.0004
   2533817.50847   1981212.65646  21010741.9844                   21010742.1094
        47.7504         37.0004
  -1056803.82846   -801780.90245  23634598.9534                   23634604.7814
        40.5004         33.5004
   3916160.07845   3005333.83642  24987670.7664                   24987676.3444
        34.0004         16.7504
   -142322.44548    -78008.13748  21430765.6884                   21430768.4454
        50.0004         49.0004
 05 12 22 17 56 30.0000000  0  9G18G15G27G08G32G23G24G16G10
   2519247.98447   1970625.29345  21443771.4304                   21443772.0594
        46.0004         35.5004
   5313706.94546   4124117.06645  23472573.6484                   23472576.5354
        41.5004         33.5004
   -973950.13747   -724670.85547  21778488.6254                   21778491.2544
        46.5004         44.5004
  -2643380.43046  -2009496.82045  23954291.0864                   23954296.6134
        38.7504         30.0004
  -3113379.45347  -2403482.57847  22441520.0314                   22441524.0864
        45.5004         42.2504
   2524570.41047   1974007.10246  21008982.1094                   21008982.5434
        46.7504         36.2504
  -1146435.73846   -871623.92645  23617543.2344                   23617548.2464
        40.5004         32.5004
   3938990.10915                  24992015.625
        31.250
   -212261.94548   -132506.42648  21417456.5164                   21417458.6334
        50.0004         49.0004
 05 12 22 17 57  0.0000000  0  9G18G15G27G08G32G23G24G16G10
   2513141.82447   1965867.20746  21442610.1334                   21442610.4384
        47.0004         36.0004
   5369855.09046   4167868.79745  23483258.0864                   23483261.5554
        41.5004         32.5004
  -1052397.33647   -785798.52347  21763560.5234                   21763562.9454
        46.5004         44.5004
  -2770031.77346  -2108186.07445  23930189.4224                   23930195.6764
        39.2504         30.2504
  -3249961.58647  -2509910.14847  22415529.6414                   22415533.2544
        46.5004         42.2504
   2515586.30947   1967006.48446  21007272.9534                   21007272.9654
        47.5004         37.0004
  -1235526.00846   -941044.89145  23600589.1644                   23600594.6134
        39.7504         32.7504
   3962045.148 6                  24996404.000
        37.000
   -281890.92648   -186762.75848  21404206.5704                   21404208.7934
        49.5004         49.0004
 05 12 22 17 57 30.0000000  0  9G18G15G27G08G32G23G24G16G10
   2507453.69547   1961434.85945  21441527.0784                   21441528.0594
        46.0004         35.7504
   5426314.14547   4211862.78945  23494002.1724                   23494005.2074
        42.0004         33.2504
  -1130188.52047   -846415.00847  21748757.8134                   21748760.2894
        46.7504         44.5004
  -2896240.44546  -2206530.37944  23906172.1884                   23906178.2854
        39.0004         29.5004
  -3386154.26647  -2616034.25447  22389612.3834                   22389616.4494
        46.5004         42.2504
   2506864.50847   1960210.25446  21005613.1174                   21005613.1644
        47.5004         36.7504
  -1324071.66446  -1010041.46145  23583739.8754                   23583744.7584
        40.5004         33.5004
   3985322.45746   3021485.41053  25000832.9304                   25000838.8794
        37.2504         19.0004
   -351209.66848   -240777.34048  21391015.7584                   21391018.0664
        50.0004         49.0004
 05 12 22 17 58  0.0000000  0  9G18G15G27G08G32G23G24G16G10
   2502191.17647   1957334.16845  21440525.9694                   21440526.4064
        45.7504         35.5004
   5483089.09447   4256102.93845  23504806.1954                   23504809.1954
        42.0004         33.5004
  -1207315.32047   -906513.79347  21734080.8914                   21734083.1094
        46.7504         44.5004
  -3021996.81246  -2304522.23845  23882242.2814                   23882247.8954
        40.0004         30.2504
  -3521948.07047  -2721847.54347  22363772.0554                   22363775.7734
        47.0004         42.2504
   2498411.27047   1953623.28546  21004004.6414                   21004004.7854
        47.0004         36.7504
  -1412063.00446  -1078606.09845  23566995.5084                   23567000.5824
        40.5004         33.0004
   4008826.34446   3039800.07443  25005305.5164                   25005310.7774
        36.7504         19.0004
   -420211.62148   -294545.07848  21377885.2344                   21377887.3054
        49.7504         49.0004
 05 12 22 17 58 30.0000000  0  9G18G15G27G08G32G23G24G16G10
   2497352.03547   1953563.37945  21439604.9844                   21439605.7424
        47.2504         35.5004
   5540174.57847   4300585.05945  23515669.1254                   23515672.1644
        42.0004         32.2504
  -1283779.27347   -966096.07047  21719530.3834                   21719532.5514
        46.7504         44.5004
  -3147301.04346  -2402161.76645  23858397.1094                   23858402.6174
        39.0004         30.5004
  -3657343.36347  -2827350.30547  22338007.1804                   22338010.9064
        46.5004         42.2504
   2490222.99648   1947242.78546  21002446.4144                   21002446.7854
        48.5004         36.0004
  -1499500.06246  -1146738.83645  23550357.1254                   23550362.3284
        40.5004         33.2504
   4032551.54345   3058287.08243  25009820.6094                   25009826.1644
        32.5004         18.5004
   -488899.99648   -348068.47348  21364813.8284                   21364816.3714
        50.5004         49.0004
 05 12 22 17 59  0.0000000  0  9G18G15G27G08G32G23G24G16G10
   2492936.31347   1950122.53145  21438764.8284                   21438765.6644
        47.2504         34.7504
   5597567.17646   4345306.50045  23526590.8054                   23526593.8204
        41.5004         32.5004
  -1359579.64547  -1025161.27047  21705105.6804                   21705108.2464
        47.0004         44.5004
  -3272151.08646  -2499447.37945  23834638.5474                   23834644.9344
        39.2504         31.0004
  -3792338.28547  -2932541.09847  22312318.4534                   22312321.8484
        47.7504         42.5004
   2482298.44948   1941067.78946  21000938.7274                   21000938.8364
        48.5004         36.0004
  -1586380.63346  -1214437.94945  23533823.8914                   23533828.9064
        39.7504         32.7504
   4056494.66814                  25014376.695
        29.750
   -557275.76648   -401348.28548  21351802.3524                   21351805.0784
        50.2504         49.0004
 05 12 22 17 59 30.0000000  0  9G18G15G27G08G32G23G24G16G10
   2488945.92247   1947013.09445  21438005.5634                   21438006.1684
        47.2504         35.5004
   5655265.97746   4390266.53145  23537570.7424                   23537573.3444
        41.2504         30.5004
  -1434713.87147  -1083707.40247  21690808.2274                   21690810.9264
        47.0004         45.0004
  -3396542.99246  -2596376.00045  23810968.3204                   23810974.0704
        39.0004         32.0004
  -3926929.05548  -3037416.96947  22286706.6484                   22286710.0824
        48.0004         42.7504
   2474638.17648   1935098.71946  20999480.7974                   20999481.1454
        48.5004         36.7504
  -1672700.61746  -1281700.23845  23517397.3284                   23517402.5984
        39.5004         33.0004
   4080654.000 5                  25018974.242
        34.250
   -625337.97748   -454383.76648  21338850.8594                   21338853.2774
        50.5004         49.0004
 05 12 22 18  0  0.0000000  0  9G18G15G27G08G32G23G24G16G10
   2485380.20347   1944234.56645  21437327.6174                   21437327.7344
        46.0004         35.5004
   5713267.23047   4435462.25445  23548608.0864                   23548610.8914
        42.5004         31.5004
  -1509181.80947  -1141734.34847  21676637.4454                   21676639.8594
        47.0004         45.0004
  -3520475.22746  -2692946.43745  23787384.6564                   23787390.3094
        39.5004         30.2504
  -4061114.41447  -3141976.92247  22261171.6484                   22261175.6884
        47.5004         43.0004
   2467240.35247   1929334.15246  20998073.0394                   20998073.4414
        47.7504         36.7504
  -1758458.41846  -1348524.46945  23501078.9774                   23501083.7504
        40.0004         32.5004
   4105026.000 6                  25023612.617
        38.250
   -693088.18448   -507176.12948  21325958.3284                   21325960.4344
        51.0004         49.0004
 05 12 22 18  0 30.0000000  0  9G18G15G27G08G32G23G24G16G10
   2482237.25847   1941785.48045  21436729.0164                   21436729.9804
        46.5004         35.0004
   5771565.59447   4480889.47345  23559702.4534                   23559704.8244
        42.0004         31.0004
  -1582984.85947  -1199243.19947  21662593.2974                   21662595.6334
        47.7504         45.0004
  -3643947.85246  -2789158.72745  23763887.6174                   23763893.6054
        38.0004         30.0004
  -4194894.49647  -3246221.08647  22235714.5864                   22235718.1174
        47.5004         42.7504
   2460101.65648   1923771.50446  20996714.7034                   20996714.8324
        48.0004         37.0004
  -1843653.95346  -1414910.56645  23484866.5314                   23484871.6294
        40.0004         33.5004
   4129605.363 6                  25028288.688
        38.000
   -760529.31648   -559727.64848  21313124.7344                   21313126.8754
        50.7504         49.0004
 05 12 22 18  1  0.0000000  0  9G18G15G27G08G32G23G24G16G10
   2479514.19147   1939663.57045  21436210.9304                   21436211.6174
        47.0004         35.5004
   5830155.43447   4526543.83245  23570851.1094                   23570853.7814
        42.2504         30.7504
  -1656125.21947  -1256235.67647  21648674.5784                   21648677.6994
        47.7504         45.0004
  -3766961.64546  -2885013.50044  23740478.8054                   23740485.2304
        39.0004         29.7504
