     2.11           OBSERVATION DATA    G (GPS)             RINEX VERSION / TYPE
teqc  2019Feb25     K Rivera            20250725 01:43:59UTCPGM / RUN BY / DATE
Linux 2.6.32-573.12.1.x86_64|x86_64|gcc -static|Linux 64|=+ COMMENT
teqc  2019Feb25                         20250725 01:41:11UTCCOMMENT
BIT 2 OF LLI FLAGS DATA COLLECTED UNDER A/S CONDITION       COMMENT
RAIN                                                        MARKER NAME
                                                            MARKER NUMBER
K Baraggiotta       University of California, Riverside     OBSERVER / AGENCY
0220413523          TRIMBLE R7          2.32                REC # / TYPE / VERS
1441040465          TRM57971.00                             ANT # / TYPE
 -2392436.0681 -4653677.1783  3636005.9935                  APPROX POSITION XYZ
        0.9444        0.0000        0.0000                  ANTENNA: DELTA H/E/N
     1     1                                                WAVELENGTH FACT L1/2
     7    L1    L2    C1    P1    P2    S1    S2            # / TYPES OF OBSERV
    18                                                      LEAP SECONDS
 SNR is mapped to RINEX snr flag value [0-9]                COMMENT
  L1 & L2: min(max(int(snr_dBHz/6), 0), 9)                  COMMENT
  2025     7    15     0     0   30.0000000     GPS         TIME OF FIRST OBS
                                                            END OF HEADER
 25  7 15  0  0 30.0000000  0 10G03G10G02G28G25G04G31G01G26G32
 -34021180.37957 -26468561.55157  21633672.4304                   21633669.8324
        45.5004         43.5004
 -38131924.14156 -29676012.34055  23966962.2194                   23966962.8794
        40.5004         34.0004
 -57433478.46957 -44713295.26256  21741238.3444                   21741231.8164
        47.0004         36.2504
 -58685691.36757 -45689103.41856  21165901.0164                   21165895.8244
        46.7504         37.0004
 -11207959.83655 -12602641.71954  24296702.0234                   24296703.0514
        35.0004         27.2504
 -20343660.61356 -15805514.79354  23235058.5474                   23235056.7894
        39.2504         25.2504
 -55911596.63758 -43522750.04758  19997690.2664                   19997684.0594
        48.7504         49.2504
 -47836472.13757 -37232303.14856  20972244.4534                   20972239.3554
        46.2504         36.7504
 -17763299.40256 -13792473.33255  23435413.9384                   23435414.3554
        38.7504         32.5004
 -52442644.60957 -40755691.33256  23328084.5634                   23328082.4694
        43.2504         38.2504
 25  7 15  0  1  0.0000000  0 10G03G10G02G28G25G04G31G01G26G32
 -32619775.28947 -25376557.54747  21900350.6804                   21900347.9924
        46.0004         43.0004
 -36566854.31246 -28456477.53945  24264785.1724                   24264785.5004
        38.5004         32.5004
 -55901286.65647 -43519379.61346  22032804.8674                   22032798.4534
        46.5004         37.2504
 -57153570.84047 -44495243.28946  21457453.7814                   21457448.8244
        46.5004         36.5004
  -9701376.11346 -11428680.45744  24583397.3674                   24583396.2154
        37.5004         26.0004
 -18932503.16446 -14705911.43744  23503592.6884                   23503590.7664
        39.0004         26.0004
 -54443651.91448 -42378897.00848  20277030.7584                   20277024.7704
        49.0004         49.2504
 -46362232.20347 -36083544.77346  21252782.6094                   21252777.9694
        46.2504         36.0004
 -16371516.10246 -12707966.76245  23700261.4534                   23700261.2624
        38.7504         32.5004
 -50893879.94547 -39548861.76246  23622804.1884                   23622802.7074
        43.0004         38.7504
 25  7 15  0  1 30.0000000  0 10G03G10G02G28G25G04G31G01G26G32
 -32793587.10547 -25511995.29747  21867275.7734                   21867272.7584
        45.2504         43.5004
 -36576933.25846 -28464331.41445  24262867.6484                   24262868.7814
        40.0004         33.0004
 -55944055.46147 -43552705.99646  22024666.7194                   22024660.1214
        47.0004         36.7504
 -57196357.59047 -44528583.62146  21449311.5944                   21449306.4964
        46.2504         37.0004
  -9769625.06645 -11481861.32044  24570409.0634                   24570408.2624
        35.0004         26.5004
 -19096587.17246 -14833768.98444  23472368.5554                   23472366.8244
        39.0004         25.5004
 -54550457.44948 -42462122.09448  20256706.3204                   20256700.5824
        48.2504         49.2504
 -46462776.18447 -36161890.73446  21233649.7194                   21233645.2664
        46.0004         36.2504
 -16554993.84046 -12850936.28945  23665347.1414                   23665346.7544
        40.0004         33.0004
 -50920465.38347 -39569577.76646  23617745.0944                   23617743.4534
        44.7504         38.5004
 25  7 15  0  2  0.0000000  0 10G03G10G02G28G25G04G31G01G26G32
 -32967200.92247 -25647278.75047  21834237.9924                   21834235.3244
        45.7504         43.0004
 -36586754.19146 -28471984.22345  24260997.9144                   24260999.2814
        38.2504         31.7504
 -55986378.73447 -43585685.21146  22016612.5314                   22016606.0234
        47.0004         36.5004
 -57238645.28947 -44561535.08246  21441264.8284                   21441259.4804
        46.0004         36.7504
  -9837297.50845 -11534593.18043  24557531.4304                   24557531.2624
        33.5004         23.5004
 -19260500.30546 -14961493.36744  23441176.8284                   23441175.0634
        38.7504         25.0004
 -54656602.90648 -42544832.82848  20236507.4844                   20236501.7114
        48.5004         49.2504
 -46562693.49647 -36239748.39146  21214636.1884                   21214631.5944
        46.7504         36.5004
 -16738316.23846 -12993784.77345  23630461.5704                   23630461.8754
        40.5004         34.0004
 -50946993.33647 -39590248.94946  23612697.6724                   23612695.7464
        44.0004         39.0004
 25  7 15  0  2 30.0000000  0 10G03G10G02G28G25G04G31G01G26G32
 -33140612.09847 -25782404.31647  21801238.5554                   21801236.3284
        45.5004         43.5004
 -36596315.44546 -28479434.65245  24259178.6094                   24259179.0904
        39.5004         31.7504
 -56028255.28147 -43618316.33246  22008644.2194                   22008636.7194
        47.0004         36.7504
 -57280433.42647 -44594097.28146  21433312.6484                   21433307.6414
        45.5004         37.0004
  -9904391.48445 -11586874.22344  24544762.2114                   24544764.6254
        34.2504         25.0004
 -19424239.92246 -15089082.56244  23410017.4144                   23410016.4574
        39.0004         25.7504
 -54762085.16048 -42627026.78548  20216435.1024                   20216429.2734
        48.2504         49.2504
 -46661981.25447 -36317115.48846  21195742.3984                   21195738.1134
        45.7504         36.2504
 -16921477.34046 -13136507.59845  23595607.5784                   23595607.4614
        41.2504         33.7504
 -50973461.41047 -39610873.47746  23607660.9534                   23607658.5234
        42.5004         38.0004
 25  7 15  0  3  0.0000000  0 10G03G10G02G28G25G04G31G01G26G32
 -33313817.41447 -25917369.46547  21768278.6644                   21768276.5004
        45.5004         43.5004
 -36605616.26246 -28486682.22345  24257409.1884                   24257408.9064
        39.7504         32.5004
 -56069686.23047 -43650600.23046  22000759.5314                   22000753.4964
        46.5004         36.5004
 -57321722.93747 -44626270.93746  21425455.4454                   21425450.2934
        46.2504         37.2504
  -9970905.99646 -11638703.82844  24532109.2114                   24532105.4534
        40.0004         26.0004
 -19587804.92246 -15216535.65644  23378892.0634                   23378890.6764
        40.0004         24.5004
 -54866903.51647 -42708703.42248  20196488.7974                   20196482.6604
        47.5004         49.2504
 -46760638.18447 -36393991.02346  21176968.8834                   21176963.6644
        47.2504         36.2504
 -17104472.80946 -13279101.33645  23560784.2194                   23560783.8284
        40.2504         33.0004
 -50999868.76647 -39631450.68046  23602635.4774                   23602634.3164
        43.0004         38.5004
 25  7 15  0  3 30.0000000  0 10G03G10G02G28G25G04G31G01G26G32
 -33486812.94547 -26052171.14847  21735358.5784                   21735356.0084
        46.2504         43.5004
 -36614655.67646 -28493726.12145  24255688.6094                   24255689.7934
        37.2504         31.0004
 -56110671.32847 -43682536.71946  21992960.6484                   21992954.4574
        46.5004         37.0004
 -57362514.09047 -44658056.26646  21417693.2504                   21417688.1524
        46.2504         36.2504
 -10036839.80146 -11690080.76244  24519560.5554                   24519559.1484
        39.0004         26.2504
 -19751193.34446 -15343851.20744  23347801.0554                   23347798.6094
        40.5004         26.0004
 -54971055.98047 -42789861.18048  20176669.3284                   20176663.2894
        47.7504         49.5004
 -46858662.20747 -36470373.38746  21158315.3364                   21158310.6954
        46.5004         36.5004
 -17287297.37546 -13421561.89545  23525993.1254                   23525993.8444
        40.2504         33.5004
 -51026213.73447 -39651979.28546  23597622.1884                   23597620.1604
        44.5004         38.5004
 25  7 15  0  4  0.0000000  0 10G03G10G02G28G25G04G31G01G26G32
 -33659597.89847 -26186808.74247  21702478.7344                   21702476.2304
        46.5004         43.5004
 -36623435.69146 -28500567.88745  24254019.5164                   24254020.3674
        38.2504         32.7504
 -56151213.73047 -43714128.23846  21985245.8134                   21985239.1914
        46.0004         36.5004
 -57402810.30147 -44689455.92246  21410025.2274                   21410019.8594
        45.7504         36.2504
 -10102194.44146 -11741006.45344  24507124.6094                   24507122.2624
        39.0004         24.2504
 -19914406.57446 -15471030.20744  23316741.5784                   23316740.5474
        40.7504         26.0004
 -55074544.00047 -42870501.18448  20156975.9774                   20156969.8954
        47.7504         49.2504
 -46956054.49647 -36546263.49246  21139781.8984                   21139777.8364
        45.7504         36.2504
 -17469949.10546 -13563887.84045  23491235.5864                   23491236.4884
        40.2504         33.7504
 -51052497.90647 -39672460.50446  23592620.7894                   23592619.6054
        43.7504         38.7504
 25  7 15  0  4 30.0000000  0 10G03G10G02G28G25G04G31G01G26G32
 -33832159.86747 -26321272.58647  21669641.3134                   21669638.8204
        46.5004         43.7504
 -36631946.74246 -28507199.98045  24252399.1174                   24252400.3284
        36.7504         31.2504
 -56191305.47347 -43745368.60246  21977616.4774                   21977610.0274
        45.7504         36.5004
 -57442603.45347 -44720463.58246  21402452.7504                   21402447.7544
        46.0004         37.2504
 -10166960.19145 -11791473.35244  24494799.2734                   24494799.0864
        35.5004         26.0004
 -20077434.35946 -15598064.74244  23285718.7814                   23285717.1994
        40.5004         26.5004
 -55177357.22347 -42950615.37548  20137411.6484                   20137405.0864
        47.7504         49.2504
 -47052804.69547 -36621653.27346  21121371.3984                   21121366.2194
        46.0004         36.2504
 -17652414.39146 -13706068.47745  23456513.9614                   23456513.3714
        39.7504         33.0004
 -51078711.23047 -39692886.52746  23587632.9384                   23587630.4734
        43.5004         38.0004
 25  7 15  0  5  0.0000000  0 10G03G10G02G28G25G04G31G01G26G32
 -34004497.82047 -26455561.86747  21636846.6414                   21636843.8404
        46.0004         43.5004
 -36640190.56646 -28513623.96945  24250830.8834                   24250832.2424
        39.7504         33.5004
 -56230949.57847 -43776260.16046  21970072.2504                   21970065.6844
        46.2504         36.5004
 -57481896.65647 -44751081.68746  21394975.2584                   21394970.3674
        45.7504         36.2504
 -10231138.48846 -11841482.49244  24482587.6414                   24482586.9064
        36.0004         26.5004
 -20240277.71946 -15724955.53944  23254730.5944                   23254728.6024
        40.5004         27.0004
 -55279497.02747 -43030204.82848  20117974.7504                   20117968.9184
        47.2504         49.5004
 -47148913.72747 -36696543.43746  21103082.2424                   21103077.4104
        46.2504         36.5004
 -17834690.88746 -13848102.00445  23421828.2424                   23421827.6804
        39.5004         33.5004
 -51104854.94547 -39713258.28946  23582657.1254                   23582655.7584
        44.2504         38.0004
 25  7 15  0  5 30.0000000  0 10G03G10G02G28G25G04G31G01G26G32
 -34176606.20747 -26589672.26247  21604095.6484                   21604093.0084
        46.2504         44.0004
 -36648164.43046 -28519837.53145  24249313.2034                   24249314.4494
        37.0004         30.5004
 -56270144.52747 -43806801.71946  21962613.7344                   21962607.5474
        46.2504         36.2504
 -57520688.68447 -44781309.25046  21387593.5864                   21387588.4534
        45.5004         36.7504
 -10294726.56646 -11891031.62544  24470486.9144                   24470487.0904
        39.2504         28.0004
 -20402933.28546 -15851700.00444  23223778.3284                   23223776.2774
        40.7504         25.2504
 -55380960.05547 -43109266.92648  20098666.9694                   20098660.9494
        47.5004         49.2504
 -47244378.08247 -36770931.26246  21084916.1254                   21084911.1374
        46.5004         36.0004
 -18016771.95346 -13989983.24645  23387179.1094                   23387179.1994
        40.0004         34.5004
 -51130925.69147 -39733573.22746  23577697.2734                   23577695.0164
        45.2504         38.5004
 25  7 15  0  6  0.0000000  0 10G03G10G02G28G25G04G31G01G26G32
 -34348477.85547 -26723598.19547  21571389.3054                   21571386.6294
        46.2504         43.7504
 -36655864.07846 -28525837.39845  24247849.4064                   24247848.8554
        39.5004         32.2504
 -56308886.93447 -43836990.65645  21955241.6564                   21955235.0234
        45.5004         35.5004
 -57558976.62147 -44811144.03146  21380307.7974                   21380302.6954
        45.5004         36.7504
 -10357719.69146 -11940117.26244  24458498.2344                   24458498.2344
        36.5004         24.2504
 -20565395.95746 -15978294.17644  23192862.4534                   23192860.4964
        40.7504         24.5004
 -55481741.46947 -43187797.89148  20079488.8524                   20079482.7114
        47.7504         49.2504
 -47339192.66847 -36844812.76246  21066873.4774                   21066868.6054
        46.5004         36.2504
 -18198649.17646 -14131705.66845  23352568.4924                   23352568.5044
        40.2504         34.2504
 -51156918.79747 -39753827.67246  23572750.7894                   23572748.2194
        44.2504         37.5004
 25  7 15  0  6 30.0000000  0 10G03G10G02G28G25G04G31G01G26G32
 -34520103.11747 -26857332.13747  21538729.9614                   21538727.2034
        46.2504         44.0004
 -36663282.72746 -28531618.39145  24246437.4924                   24246437.4344
        38.5004         31.2504
 -56347171.48047 -43866822.81645  21947956.1804                   21947949.6994
        45.7504         35.2504
 -57596755.14547 -44840581.84846  21373118.6644                   21373113.3594
        46.0004         36.5004
 -10420111.10546 -11988733.91444  24446627.6954                   24446626.5434
        38.2504         26.5004
 -20727658.25446 -16104732.21944  23161984.5394                   23161982.8554
        40.5004         27.2504
 -55581833.93047 -43265792.01248  20060441.6884                   20060436.3404
        47.7504         49.2504
 -47433349.93747 -36918182.07046  21048955.7894                   21048950.9144
        46.5004         36.5004
 -18380311.69146 -14273260.74645  23317999.6414                   23317999.5394
        39.7504         34.5004
 -51182826.90647 -39774015.84046  23567820.7114                   23567819.1214
        43.7504         37.7504
 25  7 15  0  7  0.0000000  0 10G03G10G02G28G25G04G31G01G26G32
 -34691485.96147 -26990877.18047  21506116.9224                   21506114.3164
        46.0004         44.5004
 -36670427.15646 -28537185.69144  24245078.9774                   24245078.1294
        39.0004         29.5004
 -56385006.59047 -43896304.77045  21940756.4844                   21940750.0634
        46.0004         35.2504
 -57634032.46547 -44869629.12146  21366024.9534                   21366020.0394
        46.0004         37.0004
 -10481907.23446 -12036886.74644  24434866.9774                   24434868.1334
        36.2504         27.0004
 -20889726.25046 -16231018.85244  23131144.1254                   23131142.5664
        40.7504         26.5004
 -55681243.84847 -43343254.28148  20041524.6564                   20041518.9024
        47.0004         49.5004
 -47526855.95747 -36991043.91846  21031162.1724                   21031157.8284
        46.5004         36.0004
 -18561762.27046 -14414650.69545  23283470.0634                   23283470.8444
        40.0004         35.2504
 -51208656.26247 -39794142.66446  23562905.3594                   23562902.4144
        44.7504         38.0004
 25  7 15  0  7 30.0000000  0 10G03G10G02G28G25G04G31G01G26G32
 -34862622.76647 -27124230.49647  21473550.6334                   21473548.0434
        46.2504         44.0004
 -36677296.85946 -28542538.83245  24243770.9064                   24243771.5984
        37.7504         31.2504
 -56422392.37547 -43925436.59446  21933642.3444                   21933636.2194
        46.0004         36.0004
 -57670809.31647 -44898286.42246  21359026.7504                   21359021.5164
        45.2504         36.5004
 -10543107.28546 -12084575.17244  24423220.2894                   24423221.5314
        37.2504         25.7504
 -21051598.55546 -16357153.01244  23100340.1884                   23100338.8244
        41.2504         26.7504
 -55779969.81247 -43420183.59848  20022737.8594                   20022731.9534
        46.2504         49.5004
 -47619709.37147 -37063397.23446  21013492.6564                   21013488.0204
        46.7504         36.0004
 -18742996.11346 -14555871.78145  23248982.0394                   23248982.9414
        40.2504         35.5004
 -51234405.59847 -39814207.15646  23558005.3984                   23558003.8484
        44.0004         37.5004
 25  7 15  0  8  0.0000000  0 10G03G10G02G28G25G04G31G01G26G32
 -35033514.69147 -27257393.00447  21441031.5784                   21441028.0744
        46.5004         44.5004
 -36683895.79346 -28547681.09844  24242515.2664                   24242515.2974
        37.7504         28.0004
 -56459334.47747 -43954222.69945  21926612.4534                   21926606.1684
        45.7504         35.5004
 -57707091.24647 -44926558.06646  21352122.5164                   21352117.4144
        46.5004         36.2504
 -10603715.30946 -12131802.28144  24411688.5554                   24411688.3674
        37.7504         27.0004
 -21213278.44546 -16483137.21144  23069574.1254                   23069571.8484
        41.5004         27.0004
 -55878015.57447 -43496582.88348  20004080.3594                   20004074.8094
        46.7504         49.2504
 -47711913.52747 -37135244.62946  20995947.1724                   20995942.4534
        46.5004         36.5004
 -18924013.25446 -14696923.98445  23214536.2894                   23214535.8094
        41.0004         33.7504
 -51260078.37147 -39834211.95346  23553119.5474                   23553117.4734
        44.5004         36.7504
 25  7 15  0  8 30.0000000  0 10G03G10G02G28G25G04G31G01G26G32
 -35204158.08247 -27390361.85547  21408558.3834                   21408556.1844
        46.2504         44.5004
 -36690223.24246 -28552611.69144  24241310.4844                   24241311.0204
        38.2504         27.5004
 -56495833.43047 -43982663.48845  21919667.0704                   21919660.7074
        46.5004         34.7504
 -57742878.92647 -44954444.58246  21345312.4844                   21345307.4064
        46.2504         36.7504
 -10663730.25446 -12178567.18444  24400269.1954                   24400267.3554
        38.5004         26.5004
 -21374764.50046 -16608970.41844  23038844.2344                   23038842.2344
        41.7504         26.2504
 -55975379.89148 -43572451.17648  19985552.5944                   19985546.5164
        48.0004         49.5004
 -47803467.00847 -37206585.02346  20978525.2034                   20978519.8874
        47.2504         36.5004
 -19104808.79746 -14837803.50045  23180132.0784                   23180131.8754
        41.0004         35.0004
 -51285673.32447 -39854156.12946  23548248.8674                   23548247.7544
        44.7504         37.0004
 25  7 15  0  9  0.0000000  0 10G03G10G02G28G25G04G31G01G26G32
 -33799129.26247 -26295534.17247  21675926.6174                   21675924.3874
        46.7504         45.0004
 -35120863.91046 -27329734.50045  24539949.8134                   24539952.3444
        38.0004         31.7504
 -54956474.18747 -42783162.81245  22212597.3524                   22212591.0784
        46.7504         35.0004
 -56202757.52347 -43754349.99646  21638387.6414                   21638382.8094
        46.0004         36.7504
  -9147735.10546 -10997272.31243  24688752.1254                   24688751.3794
        36.5004         22.7504
 -19960635.49247 -15507051.56244  23307944.3914                   23307941.7234
        42.0004         26.5004
 -54496644.07048 -42420189.48848  20266946.7664                   20266940.3834
        48.5004         49.5004
 -46318951.05547 -36049819.34046  21261019.2504                   21261014.3754
        46.7504         36.7504
 -17709957.50846 -13750906.29345  23445563.1484                   23445563.6684
        41.5004         35.5004
 -49735773.80947 -38646442.29346  23843185.9924                   23843183.4844
        45.0004         37.2504
 25  7 15  0  9 30.0000000  0 10G03G10G02G28G25G04G31G01G26G32
 -33969275.69547 -26428115.78147  21643548.9694                   21643546.3914
        47.0004         45.0004
 -35126657.38746 -27334249.10244  24538847.8134                   24538847.9104
        38.7504         27.7504
 -54992099.58247 -42810922.91045  22205818.2274                   22205811.4924
        47.0004         35.0004
 -56237570.00047 -43781476.60946  21631763.2114                   21631758.0864
        46.5004         37.5004
  -9206572.79346 -11043119.81244  24677555.5784                   24677554.4884
        36.7504         24.2504
 -20121740.52746 -15632587.85244  23277286.9534                   23277284.5514
        41.7504         26.0004
 -54592653.31247 -42495001.87948  20248676.3134                   20248670.2544
        47.0004         49.5004
 -46409210.19547 -36120151.15646  21243843.1954                   21243838.4734
        47.7504         36.5004
 -17890306.41446 -13891437.81645  23411243.3284                   23411243.6914
        40.0004         35.0004
 -49761220.05947 -38666270.59046  23838343.3054                   23838340.9024
        43.0004         37.0004
 25  7 15  0 10  0.0000000  0 10G03G10G02G28G25G04G31G01G26G32
 -34139173.67247 -26560503.79347  21611218.3754                   21611215.7074
        47.2504         45.0004
 -35132188.36346 -27338559.18745  24537796.4224                   24537796.5124
        39.7504         30.0004
 -55027294.39847 -42838347.49245  22199120.8984                   22199114.3594
        46.2504         35.2504
 -56271901.40247 -43808228.37146  21625230.3444                   21625224.9964
        45.2504         36.7504
  -9264826.14846 -11088512.03144  24666469.5164                   24666471.6804
        37.5004         28.0004
 -20282658.26247 -15757978.19144  23246664.9614                   23246662.9024
        42.0004         27.2504
 -54687988.86747 -42569289.31648  20230534.7894                   20230528.7734
        46.2504         49.5004
 -46498825.64848 -36189981.37946  21226790.0394                   21226785.1724
        48.0004         36.5004
 -18070430.30946 -14031793.97345  23376967.1174                   23376966.3244
        41.0004         33.5004
 -49786595.43746 -38686043.63746  23833514.0634                   23833512.6414
        41.2504         36.2504
 25  7 15  0 10 30.0000000  0 10G03G10G02G28G25G04G31G01G26G32
 -34308824.18047 -26692698.96547  21578935.2894                   21578932.7194
        47.5004         44.7504
 -35137460.89546 -27342667.83645  24536791.8284                   24536794.5784
        37.2504         31.0004
 -55062064.18047 -42865440.86745  22192504.2894                   22192498.1914
        46.2504         35.5004
 -56305757.28547 -43834609.59446  21618787.3134                   21618782.5394
        45.2504         37.0004
  -9322499.09446 -11133452.01644  24655493.7274                   24655497.0594
        38.0004         28.7504
 -20443392.06646 -15883225.20744  23216078.1644                   23216076.3834
        41.5004         26.5004
 -54782654.38347 -42643054.64548  20212520.7664                   20212514.8284
        46.7504         49.2504
 -46587800.78947 -36259312.66846  21209858.6564                   21209854.0704
        47.5004         36.7504
 -18250328.97746 -14171974.62945  23342733.5314                   23342733.6174
        41.2504         34.5004
 -49811903.29747 -38705764.12546  23828697.8284                   23828696.6454
        43.0004         37.2504
 25  7 15  0 11  0.0000000  0 10G03G10G02G28G25G04G31G01G26G32
 -34478222.84447 -26824697.89547  21546699.4304                   21546697.1604
        47.0004         45.0004
 -35142473.60946 -27346574.07044  24535839.5554                   24535839.2974
        37.7504         28.7504
 -55096408.83647 -42892202.99245  22185968.9614                   22185962.6804
        46.7504         34.7504
 -56339137.59847 -43860620.24246  21612435.2034                   21612430.3914
        46.0004         36.5004
  -9379590.02346 -11177938.55944  24644631.4774                   24644632.1524
        36.7504         27.0004
 -20603939.70346 -16008327.15244  23185527.2814                   23185524.4694
        41.2504         26.7504
 -54876647.95347 -42716296.37948  20194634.3984                   20194628.3954
        46.2504         49.5004
 -46676133.63748 -36328143.46946  21193049.8054                   21193044.9064
        48.0004         36.5004
 -18429996.95346 -14311975.53545  23308543.4924                   23308543.9494
        40.2504         34.7504
 -49837141.58246 -38725430.36345  23823894.7114                   23823894.1844
        41.7504         35.5004
 25  7 15  0 11 30.0000000  0 10G03G10G02G28G25G04G31G01G26G32
 -34647358.02747 -26956491.52047  21514513.6804                   21514511.5044
        47.2504         45.0004
 -35147218.01246 -27350271.16444  24534935.2114                   24534937.6524
        36.0004         29.7504
 -55130321.29347 -42918628.32845  22179515.4694                   22179509.4964
        46.0004         34.7504
 -56372035.25047 -43886254.79746  21606175.6484                   21606170.1454
        45.0004         36.0004
  -9436090.59446 -11221965.01244  24633879.8914                   24633879.9804
        37.7504         26.5004
 -20764291.78946 -16133276.73044  23155012.5164                   23155010.5944
        41.5004         27.5004
 -54969960.79747 -42789007.67248  20176877.3674                   20176871.4804
        46.7504         49.2504
 -46763815.07447 -36396466.68046  21176364.1254                   21176359.6334
        47.2504         36.5004
 -18609421.43446 -14451786.74645  23274400.2274                   23274400.2274
        39.5004         34.5004
 -49862300.98847 -38745035.19146  23819109.2424                   23819106.2234
        42.5004         36.2504
 25  7 15  0 12  0.0000000  0 10G03G10G02G28G25G04G31G01G26G32
 -34816219.11747 -27088071.56247  21482380.3284                   21482377.9654
        47.5004         45.2504
 -35151686.30146 -27353753.10945  24534085.3054                   24534087.0474
        38.5004         31.0004
 -55163795.03547 -42944711.81645  22173145.7974                   22173139.2154
        45.5004         35.0004
 -56404444.04747 -43911508.42246  21600008.3754                   21600003.4694
        45.5004         36.5004
  -9491992.98845 -11265525.27344  24623240.8204                   24623240.7664
        34.5004         24.0004
 -20924439.91846 -16258067.38344  23124537.7664                   23124535.1294
        41.5004         26.7504
 -55062584.96948 -42861182.34048  20159251.2274                   20159245.2854
        48.7504         49.2504
 -46850836.89547 -36464275.89846  21159804.6334                   21159800.1214
        47.2504         36.5004
 -18788590.62546 -14591398.98845  23240304.8754                   23240304.9104
        39.0004         34.7504
 -49887373.23847 -38764572.09045  23814338.5394                   23814335.0904
        42.5004         35.2504
 25  7 15  0 12 30.0000000  0 10G03G10G02G28G25G04G31G01G26G32
 -34984801.87547 -27219434.72347  21450300.3594                   21450297.9534
        47.5004         45.2504
 -35155877.46946 -27357019.19545  24533287.7114                   24533290.3554
        37.2504         30.5004
 -55196830.22347 -42970453.56645  22166859.4454                   22166852.9414
        45.2504         35.0004
 -56436364.25447 -43936381.32846  21593934.1254                   21593929.3834
        44.7504         36.0004
  -9547296.15246 -11308618.74644  24612717.4144                   24612719.2664
        38.0004         27.5004
 -21084382.14547 -16382697.57844  23094101.8834                   23094099.6024
        42.0004         27.2504
 -55154518.91047 -42932819.17248  20141756.9694                   20141750.8444
        47.5004         49.2504
 -46937197.38348 -36531569.80146  21143370.6564                   21143365.6374
        48.0004         36.5004
 -18967499.19546 -14730808.14845  23206260.1024                   23206259.5864
        39.7504         34.7504
 -49912356.42647 -38784039.53146  23809583.6024                   23809581.8634
        42.0004         36.0004
 25  7 15  0 13  0.0000000  0 10G03G10G02G28G25G04G31G01G26G32
 -35153110.93747 -27350584.60947  21418272.1724                   21418269.7194
        47.5004         45.2504
 -35159799.16446 -27360075.39845  24532543.6884                   24532545.5474
        38.0004         30.7504
 -55229435.60547 -42995860.41045  22160654.7194                   22160648.2854
        45.0004         35.0004
 -56467804.99247 -43960880.62546  21587950.5554                   21587945.8594
        45.5004         36.2504
  -9602007.62955 -11351251.08654  24602304.6414                   24602307.0704
        35.0004         25.0004
 -21244125.35546 -16507172.70344  23063703.3444                   23063700.8914
        41.5004         26.7504
 -55245770.05147 -43003923.94948  20124392.8284                   20124386.6214
        46.7504         49.0004
 -47022903.75448 -36598354.00046  21127061.4384                   21127056.6134
        48.5004         36.2504
 -19146150.66846 -14870016.97745  23172263.6334                   23172264.5984
        40.0004         35.0004
 -49937257.51247 -38803443.01246  23804845.6724                   23804842.4494
        44.7504         36.5004
 25  7 15  0 13 30.0000000  0 10G03G10G02G28G25G04G31G01G26G32
 -35321147.20347 -27481521.93047  21386296.4304                   21386293.4734
        47.5004         45.2504
 -35163455.44946 -27362924.56644  24531847.8524                   24531847.0234
        38.2504         29.2504
 -55261616.84047 -43020936.74645  22154530.6954                   22154524.4804
        45.5004         35.0004
 -56498771.58647 -43985010.45746  21582058.1094                   21582053.1454
        46.0004         36.5004
  -9656131.45746 -11393425.59044  24592008.2584                   24592007.1174
        39.0004         27.7504
 -21403672.61746 -16631495.14144  23033342.5234                   23033339.8284
        40.7504         27.5004
 -55336342.20747 -43074499.64548  20107157.3364                   20107151.2074
        47.0004         49.2504
 -47107959.35547 -36664631.10546  21110875.5944                   21110871.0744
        47.7504         36.5004
 -19324544.69546 -15009025.23045  23138316.9144                   23138316.7504
        40.0004         35.0004
 -49962079.60947 -38822784.99246  23800121.7344                   23800119.8754
        43.2504         36.0004
 25  7 15  0 14  0.0000000  0 10G03G10G02G28G25G04G31G01G26G32
 -35488904.14547 -27612241.59047  21354372.9224                   21354370.1484
        47.7504         45.7504
 -35166842.98846 -27365564.42644  24531201.2664                   24531203.2464
        37.0004         28.7504
 -55293371.93747 -43045681.02745  22148488.2584                   22148482.0084
        45.5004         34.5004
 -56529262.20347 -44008769.40246  21576255.8054                   21576250.8874
        46.2504         36.2504
  -9709664.22745 -11435139.50044  24581819.0084                   24581820.2704
        34.2504         24.5004
 -21563019.84047 -16755661.71544  23003019.1884                   23003017.0664
        42.2504         27.2504
 -55426231.59847 -43144543.31648  20090051.7114                   20090045.8954
        47.0004         49.0004
 -47192360.40648 -36730398.16446  21094814.8594                   21094810.2464
        48.0004         36.2504
 -19502673.80146 -15147827.02345  23104420.0474                   23104418.9264
        39.0004         35.0004
 -49986818.72747 -38842062.25045  23795413.4694                   23795411.6914
        42.5004         35.7504
 25  7 15  0 14 30.0000000  0 10G03G10G02G28G25G04G31G01G26G32
 -35656378.63347 -27742741.16047  21322503.8444                   21322500.9734
        47.0004         45.5004
 -35169961.68046 -27367994.85245  24530610.3444                   24530610.1414
        40.0004         31.7504
 -55324701.85247 -43070094.00045  22142526.2894                   22142520.0164
        45.5004         34.2504
 -56559278.12147 -44032158.44946  21570544.1484                   21570539.1414
        46.2504         36.5004
  -9762605.99246 -11476392.80144  24571746.3524                   24571744.9534
        37.5004         24.5004
 -21722166.03147 -16879671.64144  22972734.8984                   22972732.4024
        42.0004         27.0004
 -55515437.78547 -43214054.62148  20073076.8204                   20073070.6414
        47.5004         49.2504
 -47276106.34447 -36795654.75046  21078878.6644                   21078873.9534
        47.5004         36.0004
 -19680533.64546 -15286418.99645  23070574.1564                   23070573.6054
        39.7504         34.7504
 -50011473.96147 -38861274.18745  23790722.2034                   23790720.5084
        43.2504         35.2504
 25  7 15  0 15  0.0000000  0 10G03G10G02G28G25G04G31G01G26G32
 -35823570.45748 -27873020.46147  21290688.2114                   21290685.1994
        48.0004         45.5004
 -35172814.24246 -27370217.91044  24530068.3594                   24530067.1804
        39.7504         27.0004
 -55355611.41447 -43094179.42645  22136644.2034                   22136638.1844
        44.5004         35.5004
 -56588823.66447 -44055180.97345  21564921.8444                   21564917.0474
        44.5004         35.7504
  -9814959.61745 -11517187.85544  24561782.8754                   24561784.4924
        34.5004         25.0004
 -21881113.27347 -17003526.52744  22942488.3444                   22942486.0274
        42.0004         28.0004
 -55603963.68448 -43283035.82848  20056230.4144                   20056224.6724
        48.0004         49.2504
 -47359199.59848 -36860402.75446  21063066.4614                   21063061.7464
        48.0004         36.5004
 -19858122.90246 -15424800.13345  23036779.8054                   23036779.4414
        39.5004         35.0004
 -50036047.25846 -38880422.29345  23786045.9144                   23786044.1294
        40.2504         34.7504
 25  7 15  0 15 30.0000000  0 10G03G10G02G28G25G04G31G01G26G32
 -35990473.31647 -28003074.60547  21258927.5704                   21258924.8954
        47.5004         45.7504
 -35175397.81246 -27372231.28945  24529575.1334                   24529577.6024
        38.2504         30.2504
 -55386097.98447 -43117935.24245  22130843.0084                   22130837.0434
        46.0004         35.2504
 -56617897.12947 -44077835.64146  21559389.3914                   21559384.3014
        46.5004         36.2504
  -9866722.26245 -11557522.32443  24551930.8364                   24551930.7074
        34.0004         22.5004
 -22039857.59847 -17127223.31244  22912279.8914                   22912277.4734
        42.2504         27.5004
 -55691805.82448 -43351484.24648  20039514.6804                   20039508.6054
        48.0004         49.5004
 -47441636.59047 -36924639.38746  21047378.6564                   21047374.4534
        47.0004         36.5004
 -20035434.15646 -15562964.67646  23003038.6174                   23003039.4774
        40.0004         36.0004
 -50060534.82847 -38899503.55946  23781386.4454                   23781383.8794
        42.5004         36.5004
 25  7 15  0 16  0.0000000  0 10G03G10G02G28G25G04G31G01G26G32
 -36157088.39848 -28132904.50447  21227221.2034                   21227218.9884
        48.0004         45.7504
 -35177716.68046 -27374038.47345  24529133.0704                   24529136.4734
        36.5004         30.2504
 -55416167.28547 -43141365.91045  22125121.1094                   22125115.0234
        44.5004         35.0004
 -56646504.23047 -44100126.91046  21553945.6564                   21553940.8634
        45.0004         36.5004
  -9917898.00045 -11597399.59844  24542193.1724                   24542194.8914
        33.7504         26.0004
 -22198402.49647 -17250764.67644  22882110.4534                   22882107.3444
        42.7504         28.0004
 -55778968.53147 -43419403.23048  20022928.5704                   20022922.3954
        47.2504         49.5004
 -47523421.21547 -36988367.68046  21031815.9534                   21031811.4384
        47.0004         36.2504
 -20212467.50446 -15700912.62945  22969350.5164                   22969350.4964
        41.2504         35.7504
 -50084940.10546 -38918520.70345  23776742.3134                   23776740.1214
        41.0004         35.2504
 25  7 15  0 16 30.0000000  0 10G03G10G02G28G25G04G31G01G26G32
 -36323408.21147 -28262504.32847  21195572.0944                   21195569.1764
        47.5004         45.7504
 -35179766.45746 -27375635.94144  24528744.8984                   24528745.1024
        39.7504         29.2504
 -55445816.82047 -43164469.50045  22119479.1334                   22119473.2504
        45.5004         35.5004
 -56674642.08247 -44122052.53146  21548591.0314                   21548586.1724
        45.7504         36.2504
  -9968482.82446 -11636816.38344  24532567.7114                   24532569.9144
        36.0004         28.2504
 -22356742.69947 -17374146.55544  22851979.5944                   22851976.1604
        42.5004         27.0004
 -55865447.19947 -43486789.19948  20006471.9774                   20006465.5044
        47.7504         49.2504
 -47604548.76647 -37051583.95346  21016378.2974                   21016373.1254
        47.7504         36.0004
 -20389214.35946 -15838637.37145  22935715.7274                   22935715.6684
        40.5004         34.7504
 -50109257.89546 -38937469.72745  23772114.8204                   23772113.3984
        40.0004         35.2504
 25  7 15  0 17  0.0000000  0  9G03G10G02G28G04G31G01G26G32
 -36489429.91847 -28391871.84847  21163979.1094                   21163976.2544
        47.0004         45.7504
 -35181547.62546 -27377024.05944  24528405.4924                   24528406.8484
        38.0004         29.5004
 -55475048.40247 -43187247.41045  22113916.7734                   22113910.2624
        44.5004         35.2504
 -56702312.48047 -44143613.89846  21543325.8674                   21543320.8244
        44.5004         36.5004
 -22514877.76647 -17497368.58644  22821886.6414                   22821883.7034
        42.7504         28.2504
 -55951242.07447 -43553642.34048  19990145.6954                   19990139.5004
        47.5004         49.2504
 -47685019.24247 -37114288.23846  21001064.9774                   21001060.1994
        47.7504         36.0004
 -20565670.81246 -15976135.78946  22902137.2814                   22902137.2304
        40.5004         36.0004
 -50133487.77747 -38956350.18045  23767503.8204                   23767500.5594
        42.2504         35.7504
 25  7 15  0 17 30.0000000  0 10G03G10G02G28G25G04G31G01G26G32
 -35079724.16447 -27293399.80147  21432237.1954                   21432234.3204
        47.7504         45.7504
 -33607639.37546 -26150602.35244  24827909.7664                   24827912.0744
        38.0004         29.2504
 -53928441.25447 -41982099.02345  22408226.2584                   22408220.0204
        46.2504         34.7504
 -55154095.27047 -42937210.89846  21837941.7274                   21837936.5634
        46.2504         36.0004
  -8492457.71556 -10486666.87154  24813447.9844                   24813446.3674
        37.2504         25.0004
 -21097380.87547 -16392825.48044  23091627.2274                   23091624.7464
        43.7504         27.5004
 -54460929.43048 -42392359.74648  20273742.8134                   20273736.9184
        48.0004         49.2504
 -46189408.87548 -35948877.57046  21285670.0314                   21285665.1414
        48.0004         36.0004
 -19166406.07046 -14885799.54746  23168408.9844                   23168408.5004
        40.5004         36.0004
 -48582207.30146 -37747560.27345  24062703.4454                   24062701.1454
        40.5004         35.0004
 25  7 15  0 18  0.0000000  0 10G03G10G02G28G25G04G31G01G26G32
 -35245137.86747 -27422293.56247  21400759.6884                   21400756.9534
        47.5004         46.2504
 -33608881.16446 -26151570.18744  24827673.6094                   24827675.7074
        37.5004         27.5004
 -53956837.85947 -42004226.31245  22402822.8984                   22402816.2274
        46.2504         34.7504
 -55180832.71547 -42958045.29746  21832853.7194                   21832848.8014
        46.7504         36.5004
   4704438.90655 -10508238.70353  24804173.6174                   24804159.0784
        35.5004         21.5004
 -21255100.75847 -16515723.99644  23061613.8364                   23061611.5434
        42.7504         27.5004
 -54545353.81247 -42458144.97348  20257677.0314                   20257671.0274
        47.5004         49.2504
 -46268561.78547 -36010555.17246  21270608.0864                   21270603.5044
        47.5004         36.0004
 -19342266.69146 -15022833.72346  23134943.5704                   23134943.2384
        40.7504         36.0004
 -48606256.41846 -37766299.88345  24058125.6884                   24058125.6254
        41.5004         35.2504
 25  7 15  0 18 30.0000000  0 10G03G10G02G28G25G04G31G01G26G32
 -35410248.80947 -27550951.40647  21369340.5234                   21369337.4574
        47.5004         46.0004
 -33609859.10246 -26152332.53544  24827487.0634                   24827490.5004
        36.0004         29.2504
 -53984825.00847 -42026034.52745  22397496.9614                   22397490.4804
        46.0004         34.7504
 -55207111.86747 -42978522.57846  21827852.7664                   21827848.2624
        45.7504         36.2504
   4656212.46546 -10545817.84044  24794984.8054                   24794983.1094
        39.7504         28.5004
 -21412617.79347 -16638464.44544  23031639.2274                   23031636.8484
        43.2504         25.7504
 -54629098.83647 -42523400.82848  20241741.2194                   20241735.5824
        47.5004         49.2504
 -46347061.47347 -36071723.77346  21255669.8834                   21255665.2114
        47.5004         36.0004
 -19517828.99646 -15159635.43745  23101535.6724                   23101534.1254
        41.5004         35.2504
 -48630219.87546 -37784972.77345  24053565.5394                   24053564.5904
        40.5004         35.0004
 25  7 15  0 19  0.0000000  0 11G03G10G02G28G25G04G31G01G26G32G16
 -35575052.53147 -27679369.85947  21337979.3204                   21337976.5234
        46.2504         46.2504
 -33610572.33146 -26152888.51345  24827352.2504                   24827355.3324
        38.0004         31.2504
 -54012403.25047 -42047524.12145  22392248.6094                   22392242.6884
        45.5004         34.5004
 -55232932.89147 -42998642.87946  21822939.4614                   21822934.8324
        46.2504         36.2504
                                  24785912.3444                   24785916.1094
        31.7504         22.7504
 -21569929.82447 -16761045.14144  23001704.3834                   23001701.5044
        43.5004         27.0004
 -54712163.47348 -42588126.51248  20225934.7274                   20225928.6174
        48.2504         49.2504
 -46424906.40647 -36132382.16846  21240856.3914                   21240851.8984
        47.2504         36.0004
 -19693087.48846 -15296200.41045  23068184.4454                   23068183.7814
        40.7504         35.5004
 -48654095.56247 -37803577.22745  24049021.9454                   24049021.0314
        42.0004         34.5004
   4483315.24655   3558790.84053  25276678.5084                   25276681.6294
        35.0004         19.2504
 25  7 15  0 19 30.0000000  0 11G03G10G02G28G25G04G31G01G26G32G16
 -35739551.21947 -27807550.63347  21306676.0004                   21306673.4454
        46.7504         46.5004
 -33611026.05546 -26153242.32044  24827266.3984                   24827267.3244
        38.5004         28.7504
 -54039579.19547 -42068700.23845  22387077.1804                   22387071.4304
        44.2504         34.5004
 -55258302.62547 -43018411.52346  21818112.0944                   21818107.2154
        45.0004         36.5004
   4561512.77055 -10619609.82053  24776960.9304                   24776962.7544
        34.5004         22.0004
 -21727041.43747 -16883469.66444  22971806.7424                   22971804.1254
        43.0004         27.0004
 -54794552.79348 -42652325.98048  20210255.9924                   20210250.2384
        48.2504         49.2504
 -46502101.73847 -36192534.38746  21226166.5234                   21226162.1684
        46.7504         36.5004
 -19868043.25046 -15432529.48446  23034891.5234                   23034891.0594
        40.2504         36.0004
 -48677887.84446 -37822116.75445  24044495.5314                   24044493.8524
        40.2504         35.5004
   4292397.94545   3410024.51242  25240348.0554                   25240352.2194
        33.0004         15.5004
 25  7 15  0 20  0.0000000  0 11G03G10G02G28G25G04G31G01G26G32G16
 -35903756.16847 -27935502.51247  21275429.1254                   21275426.2504
        47.5004         46.2504
 -33611234.84846 -26153405.39145  24827229.0234                   24827230.6024
        40.2504         32.2504
 -54066368.72747 -42089575.25845  22381979.4924                   22381973.2814
        45.7504         34.0004
 -55283237.02047 -43037840.94546  21813366.8834                   21813362.1804
        46.5004         36.0004
   4515019.07055 -10655838.65253  24768110.5784                   24768114.4884
        31.0004         22.5004
 -21883966.25847 -17005748.65244  22941945.3524                   22941942.0274
        43.2504         26.7504
 -54876281.50048 -42716010.68448  20194703.9144                   20194698.1294
        48.0004         49.2504
 -46578661.72347 -36252191.52746  21211597.8594                   21211593.4884
        46.7504         36.2504
 -20042706.57446 -15568630.71146  23001654.5394                   23001653.7624
        40.7504         36.0004
 -48701610.52746 -37840602.00445  24039980.3444                   24039980.7114
        41.5004         35.7504
   4101361.29345   3261165.23442  25203993.3444                   25203999.4414
        33.5004         14.7504
 25  7 15  0 20 30.0000000  0 11G03G10G02G28G25G04G31G01G26G32G16
 -36067677.00447 -28063233.01247  21244235.9694                   21244232.9304
        47.2504         46.5004
 -33611211.75846 -26153387.67244  24827230.6334                   24827234.1804
        37.5004         27.7504
 -54092786.01247 -42110160.20345  22376952.3444                   22376946.4384
        46.0004         34.5004
 -55307750.35547 -43056942.27045  21808702.2504                   21808697.4844
        46.7504         35.7504
   4469078.10546 -10691636.77044  24759371.2894                   24759369.5354
        36.5004         25.5004
 -22040716.17247 -17127891.34044  22912115.5864                   22912113.0044
        43.2504         27.5004
 -54957362.29748 -42779190.52048  20179274.6724                   20179268.5664
        48.2504         49.2504
 -46654598.98047 -36311363.42646  21197147.3444                   21197142.6094
        47.0004         36.0004
 -20217085.99246 -15704510.70346  22968470.5784                   22968470.0084
        40.7504         36.5004
 -48725275.39146 -37859042.23045  24035477.7194                   24035477.0704
        41.2504         35.0004
   3910196.363 5                  25167616.531
        33.500
 25  7 15  0 21  0.0000000  0 11G03G10G02G28G25G04G31G01G26G32G16
 -36231303.41447 -28190734.08247  21213099.1564                   21213096.1094
        47.0004         46.5004
 -33610949.72746 -26153183.68044  24827280.9304                   24827284.2934
        38.0004         29.7504
 -54118825.43747 -42130450.72345  22371997.6254                   22371991.6214
        46.0004         34.5004
 -55331836.99647 -43075711.09846  21804119.0084                   21804113.6914
        46.2504         36.0004
   4423696.66845 -10726998.96943  24750733.8984                   24750736.0394
        35.2504         23.5004
 -22197283.27747 -17249891.59444  22882322.4924                   22882319.4964
        43.0004         27.5004
 -55037788.20348 -42841860.05148  20163970.1094                   20163964.4414
        48.5004         49.5004
 -46729906.22347 -36370044.40646  21182817.0864                   21182812.5354
        46.5004         36.2504
 -20391170.16846 -15840160.62146  22935343.7974                   22935342.8914
        41.2504         36.0004
 -48748874.55947 -37877431.27345  24030987.7974                   24030985.7194
        43.5004         35.5004
   3718913.441 5                  25131215.836
        30.250
 25  7 15  0 21 30.0000000  0 11G03G10G02G28G25G04G31G01G26G32G16
 -36394633.48848 -28318004.24247  21182018.2274                   21182015.0474
        48.2504         46.5004
 -33610450.14146 -26152794.68745  24827378.5234                   24827378.9534
        40.5004         30.7504
 -54144489.69547 -42150448.89845  22367113.6954                   22367107.7774
        43.7504         34.0004
 -55355499.73847 -43094149.62945  21799615.5084                   21799611.0204
        45.7504         35.5004
   4378873.36355 -10761926.26653  24742207.3984                   24742206.0434
        33.2504         22.2504
 -22353668.07447 -17371749.78944  22852563.1724                   22852560.3714
        43.0004         26.0004
 -55117560.69548 -42904020.43048  20148789.7814                   20148783.8164
        49.0004         49.2504
 -46804584.65647 -36428235.41446  21168606.1644                   21168601.5864
        47.5004         36.2504
 -20564956.18746 -15975578.21146  22902273.5164                   22902272.0554
        41.5004         36.5004
 -48772408.36347 -37895769.33645  24026509.5164                   24026506.9734
        42.0004         35.0004
   3527514.78115                  25094793.430
        33.500
 25  7 15  0 22  0.0000000  0 11G03G10G02G28G25G04G31G01G26G32G16
 -36557667.53548 -28445043.74247  21150993.5164                   21150990.8204
        48.0004         46.7504
 -33609716.68746 -26152223.53945  24827516.2814                   24827520.4064
        37.7504         30.0004
 -54169783.90247 -42170158.73045  22362300.2734                   22362294.1604
        43.7504         33.5004
 -55378743.53947 -43112261.70345  21795192.5784                   21795187.9494
        45.2504         35.5004
                                  24733807.125
        26.250
 -22509873.21547 -17493467.96944  22822838.3914                   22822835.3484
        43.0004         26.7504
 -55196683.26248 -42965674.37948  20133733.4304                   20133727.6024
        49.2504         49.2504
 -46878637.63747 -36485939.05146  21154514.3134                   21154510.0904
        47.7504         36.2504
 -20738443.28147 -16110762.86746  22869259.5784                   22869258.8954
        42.5004         36.7504
 -48795879.43047 -37914058.53946  24022043.4144                   24022042.1414
        42.0004         36.2504
   3336000.63345   3125036.83652  25058349.8204                   25058353.6884
        35.0004         15.5004
 25  7 15  0 22 30.0000000  0 11G03G10G02G28G25G04G31G01G26G32G16
 -36720399.65248 -28571847.96147  21120026.9844                   21120024.1604
        48.0004         46.7504
 -33608746.70346 -26151467.90644  24827701.3524                   24827703.9924
        37.5004         29.5004
 -54194706.76247 -42189579.19145  22357557.9384                   22357551.9184
        44.0004         32.5004
 -55401567.22347 -43130046.41445  21790849.7114                   21790844.9264
        45.0004         35.0004
   4690142.51254 -10794320.73453  24725459.0004                   24725463.7074
        28.7504         22.2504
 -22665895.16447 -17615043.43444  22793148.1804                   22793145.8204
        42.7504         26.2504
 -55275153.33248 -43026819.88748  20118801.2344                   20118795.2034
        49.2504         49.2504
 -46952062.43447 -36543153.19546  21140541.9924                   21140537.0234
        47.5004         36.0004
 -20911624.53947 -16245709.22746  22836304.1414                   22836303.2384
        42.5004         36.7504
 -48819284.23446 -37932296.11345  24017588.5704                   24017587.3054
        41.7504         35.5004
   3144377.29345   2975720.24242  25021884.8444                   25021888.4104
        30.5004         15.5004
 25  7 15  0 23  0.0000000  0 11G03G10G02G28G25G04G31G01G26G32G16
 -36882819.15248 -28698408.58647  21089119.5554                   21089116.4304
        48.0004         47.0004
 -33607532.92246 -26150522.34844  24827933.4144                   24827934.2154
        38.7504         28.2504
 -54219252.34447 -42208705.67245  22352887.0394                   22352880.5984
        45.0004         33.5004
 -55423964.78947 -43147499.08245  21786587.5234                   21786582.4614
        46.0004         35.7504
   4646993.19156 -10827943.57054  24717252.5634                   24717254.2854
        37.0004         28.5004
 -22821725.55147 -17736469.62144  22763494.9844                   22763492.0314
        43.0004         27.7504
 -55352963.79748 -43087451.41848  20103994.2504                   20103988.1994
        48.7504         49.2504
 -47024851.43747 -36599871.91446  21126691.3204                   21126686.1684
        47.5004         36.0004
 -21084488.30146 -16380408.18046  22803409.3674                   22803408.7544
        41.7504         36.7504
 -48842614.28147 -37950475.43046  24013149.3054                   24013148.3794
        43.0004         36.2504
   2952655.62545   2826327.19542  24985400.5164                   24985405.6454
        33.5004         14.7504
 25  7 15  0 23 30.0000000  0 10G03G10G02G28G04G31G01G26G32G16
 -37044916.03148 -28824717.81247  21058273.4454                   21058270.3364
        48.2504         47.0004
 -33606068.57045 -26149381.67644  24828210.5784                   24828215.1374
        35.7504         28.0004
 -54243415.17247 -42227533.90245  22348288.8674                   22348283.0594
        44.0004         34.0004
 -55445931.00047 -43164615.62946  21782407.3054                   21782402.3754
        44.0004         36.0004
 -22977356.87547 -17857740.69544  22733879.2504                   22733876.0824
        43.0004         26.5004
 -55430107.90648 -43147563.71148  20089314.4304                   20089308.3054
        49.0004         49.2504
 -47096997.92247 -36656089.97345  21112962.0164                   21112957.0944
        47.0004         35.7504
 -21257023.46947 -16514851.08246  22770576.7194                   22770576.5354
        42.0004         36.2504
 -48865862.00046 -37968590.59045  24008725.4614                   24008724.3014
        40.2504         35.5004
   2760846.03945   2676865.59042  24948900.0944                   24948904.9534
        35.0004         15.5004
 25  7 15  0 24  0.0000000  0 10G03G10G02G28G04G31G01G26G32G16
 -37206681.14147 -28950768.52047  21027490.5394                   21027487.7234
        47.7504         47.2504
 -33604348.19946 -26148041.37944  24828539.2504                   24828542.6524
        38.0004         29.7504
 -54267191.02347 -42246060.59845  22343764.6484                   22343758.7544
        45.2504         33.5004
 -55467461.39147 -43181392.58245  21778310.0864                   21778305.1884
        46.2504         35.5004
 -23132782.29747 -17978851.31644  22704302.2344                   22704299.7974
        42.7504         28.0004
 -55506580.02748 -43207152.36748  20074762.0554                   20074756.4144
        48.5004         49.2504
 -47168495.91847 -36711802.71146  21099356.4304                   21099352.0164
        47.5004         36.0004
 -21429219.97746 -16649030.10546  22737809.3204                   22737808.0664
        41.5004         37.2504
 -48889020.47747 -37986636.22345  24004319.1954                   24004317.0824
        42.2504         35.5004
   2568958.23046   2527342.94942  24912385.6254                   24912389.3914
        36.5004         14.7504
 25  7 15  0 24 30.0000000  0 10G03G10G02G28G04G31G01G26G32G16
 -37368108.78548 -29076556.27347  20996772.1174                   20996769.3754
        48.0004         47.2504
 -33602369.20346 -26146499.60544  24828916.4304                   24828918.7934
        37.2504         27.0004
 -54290578.70347 -42264284.83245  22339314.4844                   22339307.9924
        45.7504         33.0004
 -55488555.00447 -43197829.18045  21774296.2504                   21774291.1914
        46.0004         35.2504
 -23287998.54347 -18099798.96944  22674764.9774                   22674762.9414
        42.2504         28.2504
 -55582377.75048 -43266215.52748  20060338.7344                   20060332.8404
        48.5004         49.2504
 -47239342.95747 -36767008.21145  21085874.4534                   21085869.8984
        47.7504         35.5004
 -21601071.12946 -16782940.02046  22705106.5314                   22705105.5314
        41.5004         36.5004
 -48912086.28146 -38004609.65246  23999929.4844                   23999927.8244
        40.7504         36.0004
