     2.11           OBSERVATION DATA    G (GPS)             RINEX VERSION / TYPE
teqc  2019Feb25     K Baraggiotta       20250819 04:04:18UTCPGM / RUN BY / DATE
Linux 2.6.32-573.12.1.x86_64|x86_64|gcc -static|Linux 64|=+ COMMENT
teqc  2019Feb25                         20250819 03:47:05UTCCOMMENT
BIT 2 OF LLI FLAGS DATA COLLECTED UNDER A/S CONDITION       COMMENT
ATLL                                                        MARKER NAME
                                                            MARKER NUMBER
Gareth Funning, Li-CUniversity of California, Riverside     OBSERVER / AGENCY
0220263645          TRIMBLE 5700        2.32                REC # / TYPE / VERS
0220061489          TRM22020.00+GP                          ANT # / TYPE
 -2415091.3379 -4617799.7909  3666831.0382                  APPROX POSITION XYZ
        1.4139        0.0000        0.0000                  ANTENNA: DELTA H/E/N
     1     1                                                WAVELENGTH FACT L1/2
     7    L1    L2    C1    P1    P2    S1    S2            # / TYPES OF OBSERV
    18                                                      LEAP SECONDS
 SNR is mapped to RINEX snr flag value [0-9]                COMMENT
  L1 & L2: min(max(int(snr_dBHz/6), 0), 9)                  COMMENT
  2025     8     7     0    13   30.0000000     GPS         TIME OF FIRST OBS
                                                            END OF HEADER
 25  8  7  0 13 30.0000000  0  6G01G03G04G16G26G31
     47898.27757     20468.28555  23219916.7114                   23219919.7034
        43.0004         35.0004
      4175.19558      2007.10959  20050433.1884                   20050434.9804
        50.0004         54.2504
    -17716.03558     -7510.86757  21181731.4064                   21181732.6334
        48.7504         42.5004
    -39669.86757    -16868.25056  22079982.7894                   22079983.3794
        45.5004         37.0004
      4203.93857      1850.04758  21595069.9614                   21595073.7034
        47.2504         49.5004
     47189.61357     20165.69558  22078405.5234                   22078406.0474
        47.7504         49.0004
 25  8  7  0 14  0.0000000  0  6G01G03G04G16G26G31
    141216.23047     93183.40245  23237674.3284                   23237677.9844
        43.7504         33.0004
     12396.60948      8413.39549  20051997.2034                   20051999.9574
        51.0004         54.2504
    -52560.74648    -34662.57446  21175100.4224                   21175101.6954
        48.7504         41.2504
   -117210.14547    -77289.16446  22065227.1884                   22065228.1054
        46.2504         36.2504
     12517.40647      8328.07048  21596652.2974                   21596655.8204
        47.2504         49.5004
    139171.57047     91839.90247  22095909.2734                   22095909.4264
        47.7504         47.7504
 25  8  7  0 14 30.0000000  0  7G01G03G04G16G26G31G28
    234230.59447    165661.95345  23255374.4614                   23255378.1644
        42.0004         32.2504
     20716.17248     14896.15249  20053580.5164                   20053582.8164
        51.2504         54.0004
    -87724.18448    -62062.61746  21168409.1724                   21168410.3444
        48.7504         41.0004
   -194834.71547   -137775.75446  22050455.9454                   22050456.7234
        45.7504         36.2504
     20983.74647     14925.24248  21598263.3524                   21598267.1484
        47.0004         49.5004
    230905.15647    163320.56647  22113365.8284                   22113365.8754
        47.0004         47.2504
    180608.82856    116478.07454  24918231.7974                   24918235.8244
        38.5004         26.5004
 25  8  7  0 15  0.0000000  0  7G01G03G04G16G26G31G28
    327033.44547    237975.67245  23273034.7114                   23273038.1134
        43.0004         30.7504
     29229.78948     21530.11749  20055200.8444                   20055202.9024
        50.7504         54.0004
   -123110.61748    -89636.42646  21161675.5314                   21161676.1764
        48.0004         40.2504
   -272444.93447   -198251.16846  22035686.7664                   22035687.6294
        46.0004         36.0004
     29698.30547     21715.81648  21599921.6484                   21599925.4654
        47.0004         49.5004
    322483.60247    234680.34048  22130792.8674                   22130792.7934
        47.7504         48.0004
    283457.36746    196619.67644  24937805.5474                   24937807.4494
        39.2504         25.5004
 25  8  7  0 15 30.0000000  0  7G01G03G04G16G26G31G28
    419652.84446    310146.47344  23290659.0634                   23290663.1684
        40.5004         28.5004
     37969.26248     28340.08648  20056864.0314                   20056865.9144
        50.5004         53.7504
   -158688.47348   -117359.41046  21154905.1954                   21154905.7384
        48.7504         41.2504
   -350006.22747   -258688.43745  22020927.3914                   22020928.4224
        45.5004         35.0004
     38692.33247     28724.14548  21601633.4384                   21601636.9064
        47.7504         50.0004
    413935.19547    305941.25447  22148195.3594                   22148195.3834
        47.7504         47.7504
    385953.37545    276486.66843  24957306.2814                   24957311.3754
        33.2504         22.0004
 25  8  7  0 16  0.0000000  0  7G01G03G04G16G26G31G28
    512113.60247    382193.62545  23308253.7894                   23308258.5004
        43.0004         31.2504
     46963.00848     35348.18448  20058575.2734                   20058577.4844
        51.0004         53.7504
   -194429.46548   -145209.50446  21148103.8594                   21148104.5434
        49.2504         40.5004
   -427487.44947   -319063.35945  22006183.2734                   22006183.9344
        43.7504         32.5004
     47993.73048     35972.02748  21603403.3364                   21603406.6294
        48.0004         49.2504
    505285.46147    377123.29347  22165578.3524                   22165578.6214
        45.5004         46.7504
    488123.13745    356099.44143  24976749.4144                   24976753.5784
        34.0004         22.5004
 25  8  7  0 16 30.0000000  0  7G01G03G04G16G26G31G28
    604429.58247    454127.96545  23325821.2034                   23325825.6914
        44.0004         32.5004
     56228.65648     42568.15649  20060338.6954                   20060340.4184
        50.2504         54.0004
   -230316.00447   -173173.02346  21141274.7814                   21141275.7934
        47.2504         39.5004
   -504868.27347   -379360.01646  21991458.1024                   21991458.6414
        45.5004         36.0004
     57619.56648     43472.70348  21605234.9924                   21605238.4344
        48.7504         50.7504
    596549.14547    448237.76247  22182945.7584                   22182945.8324
        47.0004         47.2504
    589985.06655    421172.93853  24996133.3754                   24996136.7814
        34.7504         20.0004
 25  8  7  0 17  0.0000000  0  8G01G03G04G16G26G31G02G28
    696619.83246    525964.37944  23343364.6094                   23343368.9924
        40.2504         26.5004
     65788.94948     50017.70748  20062157.8364                   20062160.3054
        50.2504         53.7504
   -266325.40648   -201232.28546  21134422.8914                   21134423.1684
        48.0004         41.7504
   -582123.12547   -439558.53546  21976756.6484                   21976757.1454
        45.5004         36.0004
     67592.07447     51243.48848  21607132.6414                   21607136.2154
        47.5004         49.7504
    687745.90647    519300.10247  22200300.0164                   22200299.9534
        46.2504         47.0004
    136624.34455     84913.53152  25310237.9694                   25310247.8954
        34.2504         17.2504
    691554.00455    500317.45753  25015460.5634                   25015464.7544
        32.2504         19.5004
 25  8  7  0 17 30.0000000  0  8G01G03G04G16G26G31G02G28
    788696.27346    597712.07445  23360886.3674                   23360890.9654
        41.2504         30.2504
     75659.27048     57708.84049  20064036.3134                   20064038.3754
        51.5004         54.2504
   -302442.32448   -229375.31646  21127549.4614                   21127550.5474
        48.5004         40.7504
   -659233.98447   -499644.82846  21962082.9454                   21962083.9344
        45.2504         36.5004
     77926.09447     59296.01648  21609099.1884                   21609102.6024
        47.7504         49.7504
    778888.00847    590319.89147  22217643.5234                   22217643.7304
        47.2504         47.5004
    222193.84455    151590.79752  25326522.5474                   25326531.2894
        34.0004         16.2504
    792846.13345    579246.37943  25034736.8524                   25034740.7774
        35.5004         19.5004
 25  8  7  0 18  0.0000000  0  8G01G03G04G16G26G31G02G28
    880669.48847    669379.33645  23378388.2194                   23378392.6884
        42.2504         30.0004
     85853.90648     65652.69149  20065976.0864                   20065978.3984
        50.5004         54.5004
   -338652.50848   -257591.02746  21120658.7424                   21120660.0514
        48.5004         40.7504
   -736183.68747   -559605.56246  21947439.5554                   21947440.5864
        44.5004         36.0004
     88635.35248     67640.90648  21611136.7664                   21611140.7194
        48.7504         49.7504
    869987.27348    661306.28547  22234979.1564                   22234979.1764
        48.0004         47.5004
    307367.03145    217959.28143  25342731.1174                   25342739.2774
        32.7504         18.2504
    893874.07446    657969.35443  25053962.9774                   25053965.7664
        38.5004         21.5004
 25  8  7  0 18 30.0000000  0  9G01G03G04G16G26G31G02G28G06
    972546.89547    740971.93844  23395872.2114                   23395876.5274
        42.2504         29.2504
     96383.92248     73857.87149  20067980.0944                   20067981.7814
        50.7504         54.2504
   -374944.91848   -285870.80546  21113752.7034                   21113753.5204
        48.5004         40.7504
   -812958.34847   -619429.89846  21932830.0944                   21932831.0354
        44.5004         36.0004
     99730.36748     76286.39548  21613248.5394                   21613251.7274
        48.5004         49.7504
    961051.48847    732265.37547  22252308.2584                   22252308.3484
        47.5004         47.2504
    392152.27745    284025.48443  25358864.5944                   25358873.4024
        35.5004         19.0004
    994646.68646    736493.48443  25073138.5234                   25073141.9494
        38.7504         22.0004
    -88534.01256    -56398.15655  24916394.5944                   24916399.4844
        37.7504         33.2504
 25  8  7  0 19  0.0000000  0  9G01G03G04G16G26G31G02G28G06
   1064336.35946    812496.01244  23413339.0554                   23413343.4694
        41.7504         29.7504
    107260.62948     82333.20749  20070049.6724                   20070052.0394
        50.7504         54.2504
   -411308.10548   -314205.73846  21106833.0784                   21106834.1134
        48.5004         41.0004
   -889543.87147   -679106.85546  21918256.3444                   21918257.1524
        45.0004         36.2504
    111221.91847     85240.87948  21615435.1804                   21615438.7384
        47.5004         49.5004
   1052089.14847    803203.77747  22269632.2034                   22269632.4804
        47.7504         47.5004
    476558.21946    349796.25843  25374926.7114                   25374935.9184
        37.2504         19.2504
   1095173.31346    814825.84843  25092267.9924                   25092271.1334
        39.5004         22.2504
   -126227.82846    -85769.95345  24909222.0944                   24909226.7774
        38.0004         34.2504
 25  8  7  0 19 30.0000000  0 10G01G03G04G16G26G07G31G02G28G06
   1156049.61347    883960.68844  23430791.8284                   23430796.3204
        42.2504         29.0004
    118499.42248     91090.69149  20072188.3594                   20072190.7894
        50.0004         54.5004
   -447726.69148   -342583.84446  21099902.7974                   21099903.6884
        48.5004         41.2504
   -965922.12947   -738622.30546  21903721.6094                   21903722.6094
        45.0004         36.5004
    123124.71947     94515.81348  21617700.0164                   21617703.5784
        46.7504         49.7504
   -146957.81656    -94479.91455  25165878.8914                   25165887.3714
        36.0004         31.5004
   1143112.85547    874131.29747  22286953.2194                   22286953.4774
        47.2504         47.0004
    560597.45346    415281.19543  25390920.0234                   25390928.8484
        36.5004         19.5004
   1195467.55946    892977.16843  25111352.9614                   25111357.3364
        38.0004         21.2504
   -163627.41456   -114912.67255  24902105.1174                   24902109.9344
        36.2504         32.5004
 25  8  7  0 20  0.0000000  0 11G01G03G04G16G26G07G31G09G02G28G06
   1247696.52347    955373.66444  23448231.9384                   23448236.1914
        42.5004         29.2504
    130113.59848    100140.67649  20074398.5164                   20074400.5314
        50.0004         54.5004
   -484187.21148   -370994.61346  21092964.5944                   21092965.1334
        48.2504         41.2504
  -1042076.79747   -797963.52746  21889230.3204                   21889230.7424
        45.2504         36.7504
    135451.49647    104121.10948  21620045.7194                   21620049.2624
        46.5004         49.7504
   -229687.28156   -158944.00455  25150135.5084                   25150144.6374
        37.2504         31.2504
   1234132.92647    945055.98047  22304274.0784                   22304274.4494
        47.5004         47.0004
   -529509.20356   -391739.92655  23427606.5784                   23427610.2424
        37.7504         35.5004
    644280.92656    480488.86353  25406844.3054                   25406853.3484
        36.5004         19.5004
   1295540.87546    970956.28543  25130399.2664                   25130400.0004
        40.5004         21.0004
   -200716.76256   -143813.41055  24895046.8984                   24895052.5434
        36.0004         32.0004
 25  8  7  0 20 30.0000000  0 11G01G03G04G16G26G07G31G09G02G28G06
   1339281.65646   1026738.50444  23465660.1174                   23465664.2274
        41.5004         29.2504
    142111.21148    109489.44949  20076681.6644                   20076683.4804
        51.0004         54.5004
   -520681.44548   -399431.66046  21086020.0864                   21086020.7234
        49.5004         41.0004
  -1117997.00847   -857122.05946  21874782.7894                   21874783.4304
        45.7504         37.0004
    148209.80947    114062.66448  21622473.7734                   21622477.1134
        47.7504         49.5004
   -312453.24246   -223436.65245  25134385.6414                   25134394.2274
        38.5004         30.7504
   1325154.91447   1015982.16047  22321594.8284                   22321595.2384
        47.0004         46.5004
   -604876.19546   -450467.37946  23413264.1954                   23413268.6454
        37.5004         36.5004
    727613.70345    545423.54742  25422701.8674                   25422711.0664
        31.7504         16.7504
   1395399.35946   1048767.98043  25149399.6094                   25149404.6414
        37.5004         19.5004
   -237488.12145   -172466.39145  24888049.5474                   24888054.5084
        35.5004         32.0004
 25  8  7  0 21  0.0000000  0 11G01G03G04G16G26G07G31G09G02G28G06
   1430810.33646   1098059.35944  23483077.3674                   23483082.2154
        41.5004         28.5004
    154501.05148    119143.85249  20079039.1954                   20079040.9694
        52.0004         54.5004
   -557200.50448   -427888.05146  21079070.4534                   21079071.3834
        48.7504         41.7504
  -1193671.27747   -916088.94946  21860382.2974                   21860382.9104
        46.0004         36.5004
    161407.80148    124346.83248  21624985.0474                   21624988.2774
        49.0004         49.5004
   -395246.05546   -287950.03945  25118629.5004                   25118638.3794
        38.2504         31.2504
   1416184.62147   1086914.35547  22338917.1484                   22338917.4494
        47.7504         46.5004
   -680394.95346   -509313.07446  23398894.3984                   23398898.1094
        39.2504         38.0004
    810601.97345    610089.52743  25438493.8754                   25438503.4734
        30.7504         18.2504
   1495050.12946   1110891.94553  25168363.4064                   25168366.9734
        37.2504         18.2504
   -273932.36345   -200864.48045  24881113.6484                   24881119.4774
        34.2504         31.0004
 25  8  7  0 21 30.0000000  0 11G01G03G04G16G26G07G31G09G02G28G06
   1522289.35246   1169341.51645  23500485.0234                   23500489.5594
        41.0004         30.0004
    167293.39848    129111.89149  20081473.6174                   20081475.5354
        51.0004         54.5004
   -593733.84448   -456355.57046  21072118.5164                   21072118.9734
        49.0004         41.2504
  -1269086.05547   -974853.63346  21846031.4614                   21846032.1724
        45.2504         37.0004
    175055.18448    134981.18048  21627581.9694                   21627585.5744
        48.0004         49.7504
   -478055.57046   -352476.54345  25102871.7344                   25102879.7934
        39.0004         31.0004
   1507229.94947   1157858.72747  22356242.3914                   22356242.5314
        47.0004         46.2504
   -756055.09446   -568268.94946  23384496.2424                   23384499.9144
        39.2504         38.0004
    893251.60556    662463.22353  25454222.1804                   25454231.2934
        36.0004         22.2504
   1594501.72346   1188386.59042  25187287.7114                   25187291.2584
        37.2504         16.2504
   -310038.44146   -228999.04745  24874243.5474                   24874248.6414
        36.2504         31.5004
 25  8  7  0 22  0.0000000  0 11G01G03G04G16G26G07G31G09G02G28G06
   1613720.78146   1240586.57844  23517884.6804                   23517889.5864
        41.5004         29.0004
    180493.67648    139397.79749  20083985.6414                   20083987.9734
        51.7504         54.5004
   -630275.87548   -484829.86346  21065164.8364                   21065165.7274
        49.0004         41.5004
  -1344233.62147  -1033410.10946  21831731.1174                   21831732.0084
        45.7504         37.5004
    189156.77348    145969.43848  21630265.2584                   21630268.9654
        48.7504         49.7504
   -560875.63746   -417011.28144  25087110.8524                   25087119.7154
        37.2504         29.2504
   1598293.11747   1228817.00447  22373571.3834                   22373571.6334
        47.7504         46.0004
   -831851.24246   -627330.80146  23370073.1804                   23370076.3094
        39.5004         37.5004
    975569.25045    726606.75043  25469886.3284                   25469896.7504
        34.0004         21.0004
   1693757.79346   1265729.03543  25206175.2974                   25206179.0044
        38.2504         18.5004
   -345800.43046   -256865.50845  24867438.4614                   24867442.9144
        37.0004         31.5004
 25  8  7  0 22 30.0000000  0 11G01G03G04G16G26G07G31G09G02G28G06
   1705105.22747   1311795.02045  23535274.6644                   23535279.2114
        42.7504         30.7504
    194105.88348    150004.69549  20086575.8594                   20086578.3134
        51.2504         54.5004
   -666822.32448   -513307.58646  21058210.0944                   21058211.0784
        49.0004         41.7504
  -1419106.88747  -1091752.84046  21817483.4384                   21817484.5904
        45.7504         37.7504
    203716.00048    157314.30948  21633035.9454                   21633039.5164
        48.7504         49.7504
   -643701.66846   -481550.64144  25071350.1644                   25071357.7734
        38.5004         28.7504
   1689375.80147   1299790.48447  22390903.7504                   22390904.2384
        47.0004         46.0004
   -907779.22346   -686495.38746  23355624.0164                   23355627.7304
        39.5004         38.5004
   1057554.52745    790491.30143  25485485.3524                   25485497.3674
        31.0004         19.2504
   1792820.64146   1342920.77343  25225025.5944                   25225030.4614
        36.5004         19.2504
   -381213.61746   -284460.16445  24860699.1254                   24860704.1134
        37.0004         31.7504
 25  8  7  0 23  0.0000000  0 11G01G03G04G16G26G07G31G09G02G28G06
   1796452.00047   1382974.10944  23552657.6174                   23552662.4184
        42.0004         29.7504
    208142.71548    160942.46149  20089247.0784                   20089249.3284
        52.0004         54.2504
   -703360.17248   -541778.61346  21051257.1484                   21051258.2584
        48.2504         41.7504
  -1493690.05147  -1149869.51646  21803290.7034                   21803291.0474
        47.2504         38.0004
    218744.95348    169025.19148  21635895.7664                   21635899.3484
        48.7504         49.5004
   -726520.63746   -546084.48444  25055589.2274                   25055597.4224
        39.0004         29.0004
   1780487.90247   1370786.89547  22408242.1724                   22408241.8634
        47.2504         46.0004
   -983826.16846   -745752.64846  23341152.6564                   23341156.8444
        41.0004         39.5004
   1139217.87945    854124.97343  25501028.3204                   25501037.9144
        34.7504         18.2504
   1891701.26246   1419970.58243  25243842.6254                   25243845.6524
        38.0004         21.5004
   -416264.79346   -311772.73445  24854029.5864                   24854034.7664
        37.5004         32.5004
 25  8  7  0 23 30.0000000  0 11G01G03G04G16G26G07G31G09G02G28G06
   1887766.77047   1454128.27045  23570034.5864                   23570039.2234
        42.2504         31.0004
    222613.10248    172218.06649  20092000.9694                   20092002.7854
        50.7504         54.2504
   -739880.23048   -570235.78146  21044307.6254                   21044308.7074
        49.0004         41.5004
  -1567971.19547  -1207750.85246  21789155.6884                   21789155.7734
        46.2504         37.5004
    234251.90648    181108.53948  21638846.7344                   21638850.7274
        49.2504         49.5004
   -809323.06246   -610605.47344  25039832.7114                   25039840.0434
        38.0004         26.5004
   1871635.72348   1441811.13747  22425587.0784                   22425587.0084
        48.0004         46.0004
  -1059983.07046   -805095.61346  23326660.5084                   23326664.1644
        39.5004         39.5004
   1220565.59046    917512.73443  25516507.6174                   25516516.8324
        38.5004         22.5004
   1990407.01646   1496884.05943  25262624.8364                   25262629.4144
        36.7504         22.5004
   -450944.43046   -338795.81245  24847430.3444                   24847434.9184
        38.2504         34.2504
 25  8  7  0 24  0.0000000  0 11G01G03G04G16G26G07G31G09G02G28G06
   1979050.62947   1525258.33245  23587405.1724                   23587410.0394
        42.5004         30.5004
    237521.46548    183834.95349  20094837.6484                   20094840.0864
        51.0004         54.2504
   -776377.74648   -598675.36346  21037362.5164                   21037363.4924
        48.0004         41.5004
  -1641943.27047  -1265391.35546  21775079.1884                   21775079.2814
        46.0004         38.0004
    250240.73448    193567.38348  21641889.2734                   21641893.0234
        48.7504         49.7504
   -892103.72346   -675109.49244  25024078.9144                   25024087.2974
        37.0004         27.2504
   1962821.22747   1512864.72347  22442939.0554                   22442938.9884
        47.0004         46.2504
  -1136245.28946   -864520.63346  23312148.0704                   23312151.7734
        39.5004         39.2504
   1301599.62545    980656.07843  25531927.3914                   25531938.4964
        35.2504         21.5004
   2088940.77746   1573663.60943  25281375.1024                   25281379.3284
        36.2504         21.0004
   -485247.41046   -365525.41446  24840903.2974                   24840907.9104
        40.5004         36.0004
 25  8  7  0 24 30.0000000  0 11G01G03G04G16G26G07G31G09G02G28G06
   2070303.45347   1596364.21945  23604770.1024                   23604775.2344
        42.5004         30.0004
    252871.01648    195795.62149  20097758.6884                   20097760.9264
        51.0004         54.2504
   -812849.10948   -627094.58246  21030422.3054                   21030423.0744
        48.2504         41.7504
  -1715599.91847  -1322786.07446  21761062.4924                   21761062.8594
        46.7504         37.2504
    266713.98448    206403.69548  21645024.2504                   21645028.0984
        48.5004         50.0004
   -974858.73846   -739593.51644  25008331.1954                   25008339.2814
        38.7504         28.5004
   2054045.18047   1583948.28947  22460298.2114                   22460298.5784
        46.0004         45.7504
  -1212609.43746   -924025.08646  23297616.2894                   23297620.4924
        39.0004         38.5004
   1382320.98445   1043555.76643  25547287.8834                   25547298.3444
        35.7504         21.7504
   2187304.06346   1650310.25043  25300093.5864                   25300097.4654
        36.2504         21.0004
   -519169.96946   -391958.56645  24834447.2814                   24834452.3204
        38.2504         34.0004
 25  8  7  0 25  0.0000000  0 11G01G03G04G16G26G07G31G09G02G28G06
   2161530.18046   1667449.75845  23622130.2114                   23622135.2854
        41.5004         31.5004
    268669.87548    208106.39849  20100765.0634                   20100767.2384
        49.7504         54.2504
   -849285.81648   -655486.79346  21023488.6804                   21023489.0004
        48.7504         41.7504
  -1788929.88347  -1379926.23046  21747108.1174                   21747108.6414
        46.0004         37.5004
    283679.13347    219623.29748  21648252.7274                   21648255.8874
        47.0004         49.7504
  -1057579.55556   -804050.85954  24992588.9224                   24992597.5474
        38.0004         26.2504
   2145313.08247   1655066.09447  22477665.8444                   22477666.1954
        47.0004         45.5004
  -1289067.12546   -983602.42246  23283067.1884                   23283071.0704
        39.7504         39.7504
   1462735.18446   1106216.03943  25562591.2034                   25562601.9224
        39.0004         22.2504
   2285503.68045   1726829.30543  25318780.1024                   25318783.7274
        32.5004         19.5004
   -552701.46556   -413569.55555  24828066.1644                   24828071.2584
        38.0004         35.5004
 25  8  7  0 25 30.0000000  0 11G01G03G04G16G26G07G31G09G02G28G06
   2252734.37947   1738517.74645  23639486.2504                   23639491.0514
        42.5004         30.2504
    284924.84048    220772.58649  20103858.1564                   20103860.1214
        49.7504         54.2504
   -885680.59448   -683846.33647  21016562.6884                   21016563.8324
        48.2504         42.2504
  -1861923.63347  -1436804.41046  21733217.7814                   21733218.2234
        46.7504         37.7504
    301142.44547    233231.08648  21651575.6414                   21651578.9774
        46.5004         49.7504
  -1140258.60946   -868475.67644  24976855.8524                   24976863.9574
        39.7504         29.7504
   2236629.40247   1726221.61347  22495043.0164                   22495043.3134
        46.5004         45.5004
  -1365611.16846  -1043247.04346  23268501.4534                   23268504.8014
        40.2504         40.0004
   1542846.77346   1168640.67643  25577835.5394                   25577846.6054
        37.7504         20.5004
   2383544.84045   1803224.88342  25337440.1334                   25337440.8834
        35.2504         17.2504
   -585838.36746   -439390.49245  24821760.9304                   24821765.5084
        39.7504         34.5004
 25  8  7  0 26  0.0000000  0 11G01G03G04G16G26G07G31G09G02G28G06
   2343914.55947   1809567.02045  23656837.3364                   23656842.6454
        42.0004         30.0004
    301637.57448    233795.47349  20107038.7344                   20107040.7034
        51.5004         54.2504
   -922031.31248   -712171.53947  21009645.5234                   21009646.2384
        48.5004         42.2504
  -1934576.69547  -1493417.11346  21719392.5084                   21719393.2154
        46.5004         38.0004
    319104.88748    247227.80548  21654993.7584                   21654997.1524
        49.5004         49.7504
  -1222893.97346   -932866.44145  24961131.0234                   24961138.6684
        39.5004         31.0004
   2327993.19947   1797414.14147  22512429.2424                   22512429.1604
        46.2504         45.7504
  -1442239.70746  -1102957.52746  23253919.2344                   23253922.6334
        40.5004         39.7504
   1622655.18046   1230829.09443  25593022.9144                   25593032.8014
        38.7504         18.2504
   2481427.76646   1879497.18043  25356064.8444                   25356067.4924
        37.2504         18.2504
   -618576.36746   -464900.61745  24815530.7584                   24815535.4454
        39.2504         34.2504
 25  8  7  0 26 30.0000000  0 10G01G03G04G16G26G07G31G09G28G06
   2435080.55147   1880605.23845  23674186.2424                   23674190.7664
        42.0004         30.0004
    318821.14548    247185.24649  20110308.6954                   20110310.5434
        51.5004         54.2504
   -958324.40248   -740451.84047  21002739.1334                   21002739.9304
        48.0004         42.0004
  -2006872.79747  -1549751.67246  21705634.8364                   21705635.3794
        47.0004         38.0004
    337578.93447    261623.16848  21658509.1024                   21658512.5664
        47.7504         49.7504
  -1305471.66846   -997212.28945  24945416.4774                   24945423.8834
        40.0004         30.5004
   2419415.52047   1868652.26647  22529826.3054                   22529826.5164
        46.0004         45.7504
  -1518939.33246  -1162723.36746  23239323.2034                   23239327.8014
        38.0004         37.2504
   2579164.07855   1955655.39853  25374662.1644                   25374665.8754
        35.5004         19.2504
   -650900.92256   -490088.35255  24809379.2894                   24809383.7424
        38.7504         34.2504
 25  8  7  0 27  0.0000000  0 10G01G03G04G16G26G07G31G09G28G06
   2526236.27347   1951635.46145  23691532.0784                   23691537.1914
        42.5004         30.5004
    336482.65648    260947.44149  20113669.5554                   20113671.4654
        51.2504         54.2504
   -994552.32848   -768681.37147  20995845.1414                   20995845.8754
        48.5004         42.0004
  -2078801.78147  -1605800.16446  21691947.2274                   21691947.6604
        46.5004         38.0004
    356570.96147    276422.16448  21662122.9844                   21662126.9414
        47.7504         49.7504
  -1387983.96946  -1061507.20745  24929714.2504                   24929721.8054
        39.0004         30.5004
   2510900.31647   1939939.07447  22547235.1724                   22547235.3634
        46.7504         45.7504
  -1595702.61346  -1222538.78546  23224716.1414                   23224719.8484
        40.5004         38.5004
   2676759.29746   2031703.52743  25393234.3444                   25393237.9344
        38.5004         20.0004
   -682799.21156   -514944.61755  24803308.4844                   24803312.6254
        39.2504         33.7504
 25  8  7  0 27 30.0000000  0 10G01G03G04G16G26G07G31G09G28G06
   2617395.14547   2022668.11745  23708879.0944                   23708884.3674
        42.5004         31.5004
    354638.52748    275094.85549  20117124.4924                   20117126.8554
        51.0004         54.5004
  -1030698.09448   -796846.87947  20988966.5554                   20988967.0824
        48.7504         42.2504
  -2150344.24647  -1661547.46946  21678333.0394                   21678333.4494
        47.7504         38.0004
    376096.77347    291637.08648  21665838.8834                   21665842.0744
        47.5004         50.0004
  -1470413.75446  -1125737.79745  24914028.4844                   24914035.8714
        38.2504         31.5004
   2602462.14547   2011285.90247  22564658.9144                   22564659.3284
        47.0004         45.2504
  -1672512.55547  -1282390.61746  23210099.9384                   23210102.8324
        42.0004         38.7504
   2774228.65246   2107653.67643  25411782.1334                   25411785.1524
        39.5004         18.2504
   -714267.29746   -539465.18045  24797319.6334                   24797324.5784
        39.5004         34.7504
 25  8  7  0 28  0.0000000  0 10G01G03G04G16G26G07G31G09G28G06
   2708563.53547   2093708.19144  23726228.4224                   23726233.3444
        42.2504         29.5004
    373298.29348    289634.91449  20120675.2274                   20120677.7114
        49.7504         54.5004
  -1066751.58248   -824940.48447  20982105.6024                   20982106.8794
        48.0004         42.0004
  -2221487.57847  -1716983.76646  21664794.5164                   21664795.2234
        46.7504         38.5004
    396165.37547    307274.96948  21669657.9224                   21669661.3204
        46.5004         49.7504
  -1552750.64546  -1189896.02045  24898360.4304                   24898367.2234
        37.5004         30.5004
   2694108.18047   2082698.35247  22582098.5864                   22582098.7114
        46.5004         45.5004
  -1749359.33246  -1342271.17646  23195476.1564                   23195479.2424
        41.5004         37.7504
   2871580.27346   2183512.09042  25430307.8444                   25430310.2504
        39.5004         17.7504
   -745287.89546   -563637.05945  24791416.7504                   24791421.4104
        40.0004         34.5004
 25  8  7  0 28 30.0000000  0 10G01G03G04G16G26G07G31G09G28G06
   2799740.62147   2164755.04344  23743579.1414                   23743584.1054
        42.2504         29.2504
    392464.21148    304569.37549  20124322.5864                   20124324.4304
        50.2504         54.5004
  -1102709.87147   -852959.91047  20975263.3594                   20975264.1804
        47.0004         42.0004
  -2292226.69947  -1772105.07846  21651333.5634                   21651333.8444
        46.5004         38.5004
    416778.22347    323336.94948  21673580.1804                   21673584.0634
        46.5004         49.5004
  -1634991.79346  -1253979.62145  24882709.3594                   24882716.8874
        37.2504         31.5004
   2785838.45347   2154176.43447  22599554.2584                   22599554.4304
        46.7504         45.5004
  -1826240.31646  -1402178.37146  23180845.5474                   23180849.9614
        39.7504         37.5004
   2968815.21546   2259279.51642  25448810.5084                   25448813.7344
        40.5004         17.7504
   -775859.21956   -587459.09455  24785599.3054                   24785603.8834
        40.2504         33.0004
 25  8  7  0 29  0.0000000  0 10G01G03G04G16G26G07G31G09G28G06
   2890923.49246   2235806.41044  23760931.1564                   23760936.1254
        41.0004         29.7504
    412136.36748    319898.30549  20128065.8754                   20128068.2934
        50.5004         54.5004
  -1138572.27047   -880904.61747  20968438.9534                   20968439.8874
        47.0004         42.0004
  -2362558.35247  -1826908.89846  21637949.6024                   21637949.6564
        46.2504         38.2504
    437934.85247    339822.63748  21677606.1484                   21677609.8244
        47.0004         49.5004
  -1717136.45346  -1317988.05145  24867077.9534                   24867084.4574
        38.0004         31.5004
   2877650.80547   2225718.47747  22617025.8524                   22617026.1254
        47.5004         45.5004
  -1903154.77746  -1462111.59846  23166208.4844                   23166213.4694
        37.7504         36.5004
   3065932.31646   2334955.23442  25467291.7194                   25467294.6414
        39.2504         16.7504
   -805978.63346   -610928.75445  24779868.0234                   24779871.7384
        40.0004         32.2504
 25  8  7  0 29 30.0000000  0 10G01G03G04G16G26G07G31G09G28G06
   2982111.43046   2306861.72744  23778282.4534                   23778288.5314
        41.0004         28.0004
    432317.06348    335623.50049  20131906.4614                   20131908.6954
        50.5004         54.5004
  -1174335.78947   -908772.27347  20961633.2194                   20961634.2624
        47.0004         42.0004
  -2432477.30147  -1881391.12546  21624644.7974                   21624645.2814
        46.7504         38.0004
    459636.90247    356733.33248  21681736.0944                   21681739.5824
        47.2504         49.5004
  -1799181.51246  -1381918.85545  24851464.4534                   24851471.5634
        37.0004         30.7504
   2969545.11747   2297324.39547  22634512.7034                   22634512.4574
        47.2504         45.5004
  -1980099.90646  -1522068.70746  23151566.9924                   23151571.2814
        40.2504         38.0004
   3162932.65246   2410539.97343  25485750.2344                   25485752.9884
        40.0004         18.5004
   -835643.98046   -634044.60245  24774222.9774                   24774227.0664
        39.7504         31.7504
 25  8  7  0 30  0.0000000  0 10G01G03G04G16G26G07G31G09G28G06
   3073302.75046   2377919.66044  23795636.2504                   23795641.8984
        41.2504         28.7504
    453007.57848    351745.95749  20135843.6254                   20135845.6764
        50.5004         54.5004
  -1209998.43047   -936561.33247  20954847.1644                   20954847.6214
        46.5004         42.0004
  -2501979.14147  -1935548.32846  21611419.0164                   21611419.1564
        46.5004         38.5004
    481884.98847    374069.50448  21685969.6024                   21685972.9694
        47.2504         49.5004
  -1881124.96546  -1445770.49645  24835870.6804                   24835877.7894
        37.7504         32.5004
   3061520.64147   2368993.58247  22652015.2274                   22652015.0434
        46.5004         44.7504
  -2057073.84846  -1582048.34046  23136919.5864                   23136923.1844
        41.7504         38.5004
   3259816.36346   2486033.71943  25504187.0784                   25504190.2854
        40.0004         19.7504
   -864853.57046   -656805.31245  24768663.9534                   24768667.8954
        38.2504         30.2504
 25  8  7  0 30 30.0000000  0 10G01G03G04G16G26G07G31G09G28G06
   3164486.16046   2448971.44144  23812987.6724                   23812993.7774
        40.2504         26.5004
    474199.53948    368259.14849  20139876.2034                   20139878.5044
        50.0004         54.5004
  -1245567.91847   -964277.80547  20948078.1884                   20948079.1054
        46.7504         42.2504
  -2571069.02747  -1989384.53546  21598271.3284                   21598271.5164
        46.5004         38.0004
    504670.00847    391824.07048  21690305.7194                   21690309.1094
        46.5004         49.5004
  -1962974.43446  -1509548.89145  24820295.1414                   24820302.1604
        37.0004         32.5004
   3153566.80147   2440717.82047  22669530.7894                   22669530.9964
        46.2504         44.5004
  -2134084.46946  -1642056.54746  23122264.4844                   23122267.5944
        40.2504         37.2504
   3356573.73846   2561429.02343  25522600.1484                   25522602.0354
        39.5004         20.2504
   -893615.07446   -679216.87145  24763191.3134                   24763195.7464
        39.0004         30.5004
 25  8  7  0 31  0.0000000  0 10G01G03G04G16G26G07G31G09G28G06
   3255665.89846   2520020.36344  23830339.1024                   23830344.8634
        40.2504         26.7504
    495900.07048    385168.64149  20144005.5704                   20144007.6994
        49.7504         54.5004
  -1281036.26247   -991915.46947  20941328.7194                   20941329.9654
        47.0004         42.2504
  -2639736.84847  -2042891.85946  21585204.6644                   21585204.7274
        46.2504         39.2504
    527998.55147    410002.15648  21694744.7504                   21694748.4064
        47.0004         49.5004
  -2044721.74246  -1573247.68745  24804739.3134                   24804745.2894
        39.0004         34.0004
   3245688.67647   2512501.04347  22687060.9614                   22687061.0634
        46.0004         44.5004
  -2211123.91446  -1702087.21146  23107604.2114                   23107607.7344
        41.0004         37.0004
   3453210.88346   2636730.72343  25540988.4304                   25540991.9534
        36.0004         18.2504
   -921920.72346   -701273.24244  24757805.0004                   24757809.1174
        38.2504         29.0004
 25  8  7  0 31 30.0000000  0 10G01G03G04G16G26G07G31G09G28G06
   3346840.94946   2591065.62944  23847688.9534                   23847695.2854
        39.2504         27.5004
    518111.10548    402475.91449  20148232.3984                   20148234.4774
        50.2504         54.2504
  -1316400.74647  -1019472.20347  20934599.2584                   20934599.7034
        46.5004         42.0004
  -2707977.89547  -2096066.62546  21572218.4224                   21572218.7424
        46.5004         39.0004
    551871.80147    428604.69148  21699287.9924                   21699291.0634
        47.0004         49.5004
  -2126364.31646  -1636864.88745  24789203.0704                   24789209.4264
        40.0004         33.5004
   3337886.14147   2584343.17247  22704606.0084                   22704605.8984
        46.0004         45.0004
  -2288189.69546  -1762138.40646  23092939.5704                   23092942.2854
        41.5004         37.2504
   3549728.78946   2711939.51643  25559355.0084                   25559358.5044
        36.0004         18.5004
   -949767.97746   -722972.41044  24752505.7974                   24752508.9964
        37.0004         28.7504
 25  8  7  0 32  0.0000000  0  9G01G03G04G16G26G07G31G09G06
   3438014.76246   2662109.93444  23865038.8054                   23865045.0634
        39.2504         26.7504
    540839.02048    420185.95349  20152557.2734                   20152559.1914
        49.5004         54.2504
  -1351654.31247  -1046942.50447  20927890.8284                   20927891.5044
        46.7504         42.2504
  -2775782.14847  -2148901.03546  21559316.0314                   21559315.8364
        46.0004         39.0004
    576295.47747    447636.12948  21703935.4064                   21703938.4694
        46.5004         49.5004
  -2207895.25046  -1700395.05945  24773687.4614                   24773693.8594
        40.5004         34.7504
   3430163.83647   2656247.81647  22722165.7034                   22722165.8834
        47.0004         44.5004
  -2365274.77346  -1822204.62946  23078270.8594                   23078273.9064
        41.7504         39.0004
   -977149.93455   -744308.98454  24747294.2584                   24747299.6214
        35.0004         27.7504
 25  8  7  0 32 30.0000000  0  9G01G03G04G16G26G07G31G09G06
   3529184.03946   2733150.70344  23882387.8524                   23882394.3794
        39.7504         26.7504
    564083.26648    438298.32449  20156980.5164                   20156982.7854
        50.7504         54.2504
  -1386796.54347  -1074326.05947  20921203.3364                   20921204.0314
        46.7504         42.0004
  -2843147.43047  -2201393.39146  21546496.0004                   21546496.7114
        46.5004         38.7504
    601268.34447    467095.50048  21708687.6804                   21708691.3324
        47.2504         49.7504
  -2289313.69946  -1763837.57445  24758194.4304                   24758200.3874
        41.5004         35.0004
   3522518.32447   2728212.30147  22739740.0704                   22739740.1454
        46.5004         44.5004
  -2442378.87947  -1882285.66846  23063598.5704                   23063601.2854
        42.7504         39.7504
  -1004066.31246   -765282.75044  24742172.8364                   24742177.5824
        37.0004         28.0004
 25  8  7  0 33  0.0000000  0  9G01G03G04G16G26G07G31G09G06
   3620349.89146   2804188.79744  23899737.1884                   23899742.8324
        39.0004         27.2504
    587847.77048    456816.09449  20161503.0394                   20161505.3014
        50.7504         54.2504
  -1421822.57847  -1101619.07047  20914537.9534                   20914538.9804
        47.0004         42.0004
  -2910066.62147  -2253538.13346  21533761.7734                   21533762.1994
        46.5004         39.0004
    626793.73847    486985.41448  21713544.9534                   21713548.2774
        47.2504         49.5004
  -2370615.05147  -1827188.84045  24742722.7034                   24742728.9844
        42.2504         35.0004
   3614952.00447   2800238.48047  22757329.3674                   22757329.8164
        46.5004         44.7504
  -2519497.43747  -1942377.98846  23048922.8834                   23048926.1294
        43.0004         39.5004
  -1030512.58245   -785890.22344  24737140.2894                   24737143.8634
        35.7504         26.0004
 25  8  7  0 33 30.0000000  0  9G01G03G04G16G26G07G31G09G06
   3711517.62146   2875228.35944  23917085.0004                   23917091.7384
        39.0004         25.7504
    612140.61348    475745.55549  20166125.7034                   20166127.9734
        49.5004         54.2504
  -1456723.50847  -1128814.59447  20907896.7734                   20907897.1414
        47.5004         42.0004
  -2976528.39847  -2305326.45746  21521114.5634                   21521114.9384
        46.0004         38.5004
    652878.97347    507311.57048  21718508.6884                   21718512.1054
        46.5004         49.5004
  -2451790.52747  -1890442.01245  24727275.0164                   24727281.3244
        42.5004         35.0004
   3707471.02047   2872331.16847  22774935.8054                   22774935.9414
        46.5004         44.5004
  -2596621.69547  -2002474.75846  23034246.4224                   23034249.6134
        42.0004         39.0004
  -1056480.16056   -806124.71954  24732199.0394                   24732203.0664
        36.5004         27.5004
 25  8  7  0 34  0.0000000  0  9G01G03G04G16G26G07G31G09G06
   3802681.75046   2946265.10244  23934433.6254                   23934440.3674
        38.7504         25.7504
    636959.12948    495084.62949  20170848.4144                   20170850.7384
        49.5004         54.2504
  -1491501.08647  -1155914.01247  20901278.8444                   20901279.4344
        46.5004         42.0004
  -3042532.54747  -2356758.18446  21508554.1804                   21508554.9694
        46.5004         39.5004
    679520.77047    528071.40248  21723578.6484                   21723581.7934
        46.2504         49.5004
  -2532841.82047  -1953598.43445  24711850.9064                   24711856.7464
        42.5004         34.5004
   3800071.12147   2944487.03147  22792556.5164                   22792557.2074
        46.5004         44.2504
  -2673753.38346  -2062577.30146  23019568.6024                   23019571.8714
        41.7504         38.7504
  -1081971.03145   -825987.69544  24727347.6174                   24727352.5514
        35.5004         28.2504
 25  8  7  0 34 30.0000000  0  9G01G03G04G16G26G07G31G09G06
   3893841.56646   3017298.47744  23951781.2424                   23951787.4384
        38.2504         26.2504
    662305.19148    514834.77749  20175671.5554                   20175674.0044
        50.5004         54.2504
  -1526152.31247  -1182914.96547  20894684.4304                   20894685.1484
        46.7504         42.0004
  -3108074.16447  -2407829.49246  21496082.2814                   21496082.3834
        46.5004         38.7504
    706720.27747    549265.81648  21728754.2344                   21728757.8284
        46.5004         49.5004
  -2613765.95747  -2016655.74645  24696451.7584                   24696457.0514
        42.0004         34.0004
   3892751.82047   3016705.71147  22810193.3204                   22810193.4534
        46.2504         44.0004
  -2750889.75047  -2122683.49246  23004890.5004                   23004893.6054
        43.2504         40.5004
  -1106982.67246   -845477.28544  24722588.0314                   24722592.8874
        36.5004         29.2504
 25  8  7  0 35  0.0000000  0  9G01G03G04G16G26G07G31G09G06
   3984995.16846   3088327.00844  23969127.3594                   23969133.5164
        38.5004         26.2504
    688179.69148    534996.69549  20180595.3834                   20180597.6094
        49.5004         54.2504
  -1560675.43047  -1209816.09447  20888115.4384                   20888116.2114
        46.7504         42.2504
  -3173148.79347  -2458536.91846  21483699.0164                   21483699.1844
        47.0004         38.5004
    734477.74247    570895.00848  21734036.4774                   21734040.0664
        46.5004         49.5004
  -2694561.49246  -2079612.84845  24681076.1334                   24681081.6454
        41.5004         32.7504
   3985512.19147   3088986.48047  22827845.1414                   22827845.3714
        46.7504         44.0004
  -2828029.15647  -2182792.04746  22990211.3674                   22990214.4344
        43.0004         40.5004
  -1131513.60946   -864592.29344  24717919.7974                   24717924.7384
        36.2504         28.5004
 25  8  7  0 35 30.0000000  0  9G01G03G04G16G26G07G31G09G06
   4076137.78146   3159346.98044  23986471.8134                   23986477.6414
        39.5004         27.0004
    714580.48048    555568.70349  20185619.2194                   20185621.4414
        50.0004         54.2504
  -1595071.60547  -1236618.30547  20881570.0314                   20881570.8134
        46.5004         42.0004
  -3237755.68747  -2508879.87546  21471404.3444                   21471404.5274
        46.2504         39.2504
    762790.29347    592956.73848  21739423.8984                   21739427.5594
        46.5004         49.2504
  -2775229.39146  -2142470.50045  24665725.3204                   24665730.7274
        41.2504         33.5004
   4078348.44547   3161326.35947  22845511.4774                   22845511.5824
        45.7504         43.7504
  -2905172.76247  -2242903.88746  22975531.3594                   22975534.3914
        43.2504         41.0004
  -1155565.25856   -883333.82055  24713343.0704                   24713348.0124
        37.2504         30.5004
 25  8  7  0 36  0.0000000  0  9G01G03G04G16G26G07G31G09G06
   4167269.14546   3230358.16844  24003813.3444                   24003819.7974
        39.5004         27.5004
    741509.98448    576552.69949  20190743.6484                   20190745.8284
        49.2504         54.0004
  -1629337.27047  -1263318.81247  20875049.4064                   20875050.3754
        46.5004         42.0004
  -3301889.27347  -2558854.02346  21459200.6484                   21459200.6724
        46.5004         39.0004
    791659.67647    615452.35948  21744917.9614                   21744921.3484
        46.7504         49.5004
  -2855766.65646  -2205226.36345  24650399.4534                   24650404.3404
        41.0004         31.5004
   4171261.18047   3233725.84047  22863191.9774                   22863192.9454
        45.5004         43.7504
  -2982317.28946  -2303016.43746  22960850.5634                   22960853.8244
        41.5004         40.5004
  -1179134.77046   -901699.69145  24708858.5944                   24708863.3834
        38.2504         31.7504
 25  8  7  0 36 30.0000000  0  9G01G03G04G16G26G07G31G09G06
   4258381.78146   3301354.77344  24021151.9224                   24021158.0124
        39.5004         27.0004
    768963.28548    597944.85249  20195968.0084                   20195970.5634
        49.7504         54.0004
  -1663476.19147  -1289920.57047  20868553.2344                   20868553.7114
        47.2504         42.2504
  -3365551.30547  -2608460.73446  21447085.6724                   21447085.7894
        46.5004         39.0004
    821080.32047    638377.53148  21750516.2114                   21750519.9574
        46.5004         49.7504
  -2936176.90646  -2267883.25445  24635096.9844                   24635102.5474
        39.5004         30.2504
   4264243.81347   3306179.79347  22880885.9064                   22880886.7034
        46.0004         43.5004
  -3059466.64846  -2363132.76646  22946169.2114                   22946172.9574
        40.7504         39.7504
  -1202226.19146   -919692.99645  24704464.5084                   24704468.8364
        37.5004         32.0004
 25  8  7  0 37  0.0000000  0  9G01G03G04G16G26G07G31G09G06
   4349474.34846   3372335.74644  24038486.3524                   24038492.3794
        39.7504         27.7504
    796941.64848    619746.14149  20201292.3834                   20201294.5704
        49.2504         54.2504
  -1697486.05547  -1316421.76647  20862081.0864                   20862081.9064
        46.7504         42.0004
  -3428737.32847  -2657696.53546  21435061.6414                   21435062.0004
        46.5004         39.5004
    851052.77747    661732.68848  21756220.1024                   21756223.1214
        46.5004         49.5004
  -3016457.80546  -2330439.37144  24619820.1334                   24619824.9694
        39.5004         29.5004
   4357295.50847   3378687.55547  22898593.5314                   22898593.9844
        44.7504         43.5004
  -3136618.71147  -2423251.17646  22931487.4224                   22931491.0704
        42.0004         40.7504
  -1224837.66846   -937312.32445  24700161.0314                   24700165.8984
        37.0004         31.5004
 25  8  7  0 37 30.0000000  0  9G01G03G04G16G26G07G31G09G06
   4440548.36746   3443302.25844  24055817.4384                   24055823.1884
        39.7504         27.7504
    825449.09448    641959.70349  20206716.6804                   20206719.2774
        49.7504         54.2504
  -1731361.68047  -1342818.35547  20855634.7034                   20855635.5044
        47.0004         42.0004
  -3491440.13747  -2706555.78946  21423129.6884                   21423129.7854
        46.5004         39.2504
    881580.46547    685520.49248  21762029.5704                   21762032.5004
        47.0004         49.5004
  -3096604.23846  -2392890.73644  24604568.2894                   24604572.5664
        38.5004         26.5004
   4450419.06647   3451251.33247  22916313.8984                   22916314.6764
        44.5004         43.0004
  -3213768.21947  -2483367.63346  22916807.2814                   22916810.0784
        42.5004         41.2504
  -1246964.57856   -954554.08655  24695950.9304                   24695955.0204
        36.5004         30.7504
 25  8  7  0 38  0.0000000  0  9G01G03G04G16G26G07G31G09G06
   4531600.57846   3514251.76244  24073144.7274                   24073150.4694
        40.0004         27.0004
    854484.86748    664584.94949  20212242.5314                   20212244.6764
        49.2504         54.2504
  -1765102.64547  -1369110.00847  20849214.2344                   20849214.9304
        47.0004         42.2504
  -3553657.24647  -2755036.59046  21411290.3984                   21411290.3164
        46.5004         39.5004
    912661.87547    709739.75848  21767943.6804                   21767947.3444
        46.7504         49.5004
  -3176616.35246  -2455237.42644  24589341.7424                   24589346.6884
        37.7504         24.5004
   4543611.96547   3523869.13347  22934048.1884                   22934048.6604
        45.0004         43.2504
  -3290915.04746  -2543481.98046  22902126.2814                   22902129.9064
        41.5004         40.7504
  -1268606.08656   -968488.37555  24691831.6174                   24691836.4304
        37.0004         31.5004
 25  8  7  0 38 30.0000000  0  9G01G03G04G16G26G07G31G09G06
   4622625.78946   3585180.23444  24090465.9384                   24090472.2114
        40.2504         27.5004
    884046.25848    687619.77049  20217867.6954                   20217870.3244
        49.2504         54.0004
  -1798710.44547  -1395297.90647  20842818.6884                   20842819.4964
        47.0004         42.0004
  -3615388.37947  -2803138.70346  21399543.0784                   21399543.1334
        46.5004         39.2504
    944293.57847    734387.83648  21773963.2814                   21773966.6644
        46.5004         49.2504
  -3256495.82846  -2517480.80944  24574141.1724                   24574145.7304
        38.5004         27.0004
   4636869.57847   3596537.36347  22951794.3594                   22951794.9804
        43.7504         42.7504
  -3368060.77046  -2603595.45746  22887445.7894                   22887449.2384
        41.2504         41.5004
  -1289766.21146   -984976.75845  24687805.3364                   24687810.0354
        37.5004         30.7504
 25  8  7  0 39  0.0000000  0  9G01G03G04G16G26G07G31G09G06
   4713626.32846   3656089.48444  24107782.8754                   24107789.0904
        40.5004         27.0004
    914138.15648    711067.96549  20223594.0944                   20223596.5314
        49.0004         54.0004
  -1832178.98447  -1421377.28147  20836449.8594                   20836450.5274
        47.0004         42.0004
  -3676625.35247  -2850855.75446  21387890.0004                   21387889.5824
        46.5004         39.5004
    976479.80547    759468.00448  21780087.9534                   21780091.3634
        46.7504         49.0004
  -3336236.03946  -2579615.68044  24558966.7974                   24558971.3054
        38.7504         27.0004
   4730195.48047   3669258.79747  22969554.0004                   22969554.4844
        44.5004         42.5004
  -3445199.36747  -2663703.38347  22872766.9144                   22872770.2464
        43.0004         42.0004
  -1310438.49646  -1001085.04345  24683871.0084                   24683876.1174
        37.0004         30.0004
 25  8  7  0 39 30.0000000  0  9G01G03G04G16G26G07G31G09G06
   4804593.51246   3726972.73044  24125093.8754                   24125100.1334
        40.5004         26.5004
    944754.20748    734924.59849  20229419.8834                   20229422.3594
        49.0004         54.0004
  -1865513.31247  -1447352.07047  20830106.5314                   20830107.2304
        47.0004         42.2504
  -3737371.25847  -2898190.16446  21376330.4774                   21376330.2624
        46.5004         39.2504
   1009213.50447    784974.77748  21786316.9844                   21786320.1804
        47.0004         49.0004
  -3415843.10245  -2641646.79744  24543817.4384                   24543822.8834
        35.5004         25.7504
   4823581.61747   3742027.17247  22987324.4304                   22987325.5314
        44.5004         43.0004
