     2.11           OBSERVATION DATA    G (GPS)             RINEX VERSION / TYPE
teqc  2019Feb25     K Rivera            20250821 01:46:48UTCPGM / RUN BY / DATE
Linux 2.6.32-573.12.1.x86_64|x86_64|gcc -static|Linux 64|=+ COMMENT
teqc  2019Feb25                         20250821 01:46:24UTCCOMMENT
BIT 2 OF LLI FLAGS DATA COLLECTED UNDER A/S CONDITION       COMMENT
0705                                                        MARKER NAME
                                                            MARKER NUMBER
KMR & KMB           University of California, Riverside     OBSERVER / AGENCY
0220340422          TRIMBLE 5700        2.32                REC # / TYPE / VERS
1441040465          TRM57971.00                             ANT # / TYPE
 -2451919.9833 -4657354.5235  3592212.3356                  APPROX POSITION XYZ
        1.4868        0.0000        0.0000                  ANTENNA: DELTA H/E/N
     1     1                                                WAVELENGTH FACT L1/2
     7    L1    L2    C1    P1    P2    S1    S2            # / TYPES OF OBSERV
    18                                                      LEAP SECONDS
 SNR is mapped to RINEX snr flag value [0-9]                COMMENT
  L1 & L2: min(max(int(snr_dBHz/6), 0), 9)                  COMMENT
  2025     7     1     0     0   30.0000000     GPS         TIME OF FIRST OBS
                                                            END OF HEADER
 25  7  1  0  0 30.0000000  0 10G10G04G31G01G03G32G02G25G28G08
   4881356.92657   3805275.08257  22583942.4694                   22583942.6094
        45.5004         42.5004
   -586286.76256   -380430.29753  25018417.6024                   25018421.2974
        38.5004         19.5004
 -22860594.36358 -17755116.37957  21121738.9614                   21121734.7584
        49.2504         46.2504
 -18570418.67657 -14447512.71555  21916294.4614                   21916291.6214
        44.7504         35.0004
  -7711255.82456  -5989506.16055  23542222.7894                   23542222.7234
        39.5004         32.5004
   2352813.47358   1856005.50857  22064815.0554                   22064813.4384
        48.2504         47.0004
 -23179379.45358 -18023804.48856  21307716.5164                   21307710.5044
        48.2504         39.0004
  -1027086.35556   -917953.90254  24578615.8594                   24578619.0904
        37.0004         26.5004
 -26183108.12157 -20105114.04356  20849502.5704                   20849498.6564
        47.5004         39.2504
   7688771.57056   6008745.22354  24954528.2814                   24954533.8834
        36.5004         26.7504
 25  7  1  0  1  0.0000000  0 10G10G04G31G01G03G32G02G25G28G08
   4928233.66447   3841802.37547  22592863.1644                   22592862.7274
        44.5004         42.7504
   -679031.22346   -452698.48043  25000768.8984                   25000772.0864
        37.5004         20.0004
 -22945634.46548 -17821381.34847  21105556.3054                   21105552.5204
        49.0004         46.5004
 -18646345.78947 -14506676.67245  21901846.2734                   21901842.9924
        44.5004         35.5004
  -7805449.26246  -6062903.56645  23524298.2734                   23524298.0394
        39.5004         33.0004
   2406179.40647   1897589.33247  22074970.2894                   22074968.5164
        47.5004         47.0004
 -23193111.16848 -18034504.52746  21305103.5164                   21305097.0234
        48.5004         38.5004
  -1068142.31646   -949945.53544  24570802.8674                   24570806.0204
        37.5004         26.7504
 -26202711.36347 -20120389.29346  20845772.1024                   20845768.3634
        47.5004         39.5004
   7753852.31346   6059457.28944  24966914.4064                   24966917.7774
        37.0004         26.5004
 25  7  1  0  1 30.0000000  0 10G10G04G31G01G03G32G02G25G28G08
   4975369.44947   3878531.52047  22601832.7504                   22601832.1914
        45.2504         42.5004
   -771640.08246   -524861.05942  24983145.4454                   24983148.7704
        37.0004         17.7504
 -23030193.87948 -17887271.75847  21089465.4774                   21089461.0394
        49.0004         46.2504
 -18721835.52347 -14565499.82045  21887481.0004                   21887477.7584
        45.0004         34.7504
  -7899633.32846  -6136293.70345  23506375.6484                   23506375.0664
        40.5004         31.0004
   2459668.01647   1939268.74247  22085148.7894                   22085147.3094
        47.2504         47.2504
 -23206313.91847 -18044792.38746  21302590.8984                   21302584.6414
        47.2504         38.5004
  -1108760.87146   -981596.33644  24563073.2344                   24563075.7584
        37.5004         25.2504
 -26221708.40647 -20135192.17246  20842157.5784                   20842153.4964
        47.0004         39.0004
   7818906.97346   6110149.04344  24979293.0164                   24979296.6294
        37.0004         26.0004
 25  7  1  0  2  0.0000000  0 10G10G04G31G01G03G32G02G25G28G08
   5022761.81347   3915460.59447  22610851.3364                   22610850.4494
        45.7504         42.5004
   -864115.67246   -596919.76243  24965548.2424                   24965550.4024
        37.0004         19.0004
 -23114272.69148 -17952787.67247  21073465.7034                   21073461.1174
        49.2504         46.0004
 -18796888.30947 -14623982.49245  21873199.1564                   21873195.4184
        46.0004         34.5004
  -7993809.84046  -6209677.96945  23488453.7734                   23488453.8094
        40.2504         31.2504
   2513275.24248   1981040.57847  22095350.0864                   22095348.2034
        48.2504         46.7504
 -23218989.98847 -18054669.84446  21300178.9694                   21300172.5664
        47.2504         38.5004
  -1148942.43446  -1012906.64543  24555426.6414                   24555429.1994
        37.0004         23.2504
 -26240101.77047 -20149524.65246  20838656.6644                   20838653.3244
        47.2504         39.5004
   7883930.10246   6160816.24244  24991667.6564                   24991670.4654
        38.7504         28.0004
 25  7  1  0  2 30.0000000  0 10G10G04G31G01G03G32G02G25G28G08
   5070413.13347   3952591.45347  22619919.0164                   22619918.0044
        44.5004         42.2504
   -956456.38356   -668873.60952  24947975.7034                   24947978.4844
        37.5004         17.7504
 -23197866.05148 -18017925.32047  21057558.4844                   21057553.6054
        49.5004         46.5004
 -18871499.64547 -14682121.17645  21859000.6254                   21858997.1254
        45.2504         33.2504
  -8087975.73446  -6283053.94545  23470535.1334                   23470535.0314
        41.2504         32.2504
   2567001.99248   2022905.55547  22105573.8134                   22105571.9804
        48.5004         46.2504
 -23231137.13347 -18064135.15646  21297867.3984                   21297861.1724
        47.2504         39.0004
  -1188682.66046  -1043873.05143  24547864.7274                   24547865.9774
        37.7504         23.0004
 -26257889.09047 -20163384.89546  20835272.3754                   20835268.2934
        47.0004         39.0004
   7948921.19946   6211458.46144  25004034.4454                   25004038.9964
        38.0004         28.5004
 25  7  1  0  3  0.0000000  0 10G10G04G31G01G03G32G02G25G28G08
   5118323.87547   3989924.46547  22629036.0474                   22629034.7664
        43.5004         42.2504
  -1048659.56645   -740720.16042  24930430.5314                   24930432.5234
        35.5004         16.7504
 -23280971.06248 -18082682.43047  21041743.7504                   21041739.4384
        49.2504         46.7504
 -18945666.99247 -14739913.90645  21844887.2194                   21844883.8834
        44.7504         34.7504
  -8182130.05947  -6356420.91045  23452618.9454                   23452618.2194
        42.0004         33.5004
   2620847.15647   2064862.79747  22115820.3284                   22115818.8204
        47.5004         46.0004
 -23242754.67648 -18073187.78946  21295656.3674                   21295649.8794
        48.0004         38.7504
  -1227979.32046  -1074493.78543  24540386.5394                   24540386.0274
        38.7504         22.5004
 -26275070.04347 -20176772.64846  20832002.6644                   20831998.7854
        47.0004         39.2504
   8013877.72346   6262073.69144  25016395.4534                   25016399.9454
        36.7504         27.5004
 25  7  1  0  3 30.0000000  0 10G10G04G31G01G03G32G02G25G28G08
   5166497.96947   4027462.67647  22638203.6954                   22638202.5634
        43.7504         42.2504
  -1140722.09846   -812457.05942  24912911.4454                   24912912.9804
        36.7504         16.7504
 -23363581.54748 -18147054.21547  21026023.6094                   21026019.0474
        49.0004         46.5004
 -19019384.45347 -14797356.05945  21830859.0864                   21830855.9344
        45.0004         34.2504
  -8276268.19946  -6429775.25045  23434704.1254                   23434704.0984
        41.0004         34.2504
   2674813.14848   2106914.19147  22126089.4844                   22126088.4064
        48.0004         46.7504
 -23253838.73047 -18081824.72346  21293547.5474                   21293540.9384
        47.0004         39.5004
  -1266826.62546  -1104764.34843  24532994.6174                   24532992.6094
        38.0004         22.7504
 -26291640.91447 -20189685.00446  20828849.3204                   20828845.6994
        47.0004         39.2504
   8078800.59046   6312662.70744  25028749.7034                   25028754.3524
        36.7504         27.0004
 25  7  1  0  4  0.0000000  0 10G10G04G31G01G03G32G02G25G28G08
   5214934.34847   4065205.28147  22647420.7194                   22647419.3984
        44.0004         42.5004
  -1232644.89846   -884085.07442  24895418.3284                   24895421.5744
        36.5004         17.7504
 -23445696.80148 -18211040.08647  21010397.5944                   21010393.5354
        49.2504         46.5004
 -19092650.94147 -14854446.80945  21816917.1174                   21816913.8014
        44.0004         34.0004
  -8370390.57846  -6503117.29745  23416793.2424                   23416793.6174
        41.5004         35.0004
   2728897.47347   2149057.78947  22136381.6724                   22136380.1484
        47.5004         46.2504
 -23264390.52047 -18090046.89846  21291539.5784                   21291532.9964
        47.5004         38.7504
  -1305223.61346  -1134684.05943  24525687.7734                   24525686.6094
        37.0004         23.2504
 -26307602.84847 -20202122.87146  20825811.8524                   20825808.4144
        46.5004         39.2504
   8143685.84846   6363222.48444  25041097.3984                   25041100.7154
        37.2504         26.5004
 25  7  1  0  4 30.0000000  0 10G10G04G31G01G03G32G02G25G28G08
   5263637.40647   4103155.68847  22656688.2424                   22656687.6094
        44.2504         42.2504
  -1324423.47346   -955600.68743  24877953.9304                   24877957.0234
        36.7504         19.2504
 -23527309.60948 -18274634.44947  20994867.0864                   20994862.7464
        49.0004         46.2504
 -19165459.93747 -14911181.06645  21803062.0234                   21803058.9224
        44.5004         34.0004
  -8464492.08646  -6576443.08245  23398886.6094                   23398886.5864
        40.5004         35.0004
   2783102.93047   2191295.78947  22146696.6334                   22146695.3984
        46.0004         46.0004
 -23274405.82847 -18097851.03946  21289633.6804                   21289627.3914
        47.2504         39.2504
  -1343164.17646  -1164248.17243  24518467.9144                   24518466.4344
        37.5004         22.5004
 -26322951.69547 -20214083.00446  20822890.8204                   20822887.5664
        47.2504         39.2504
   8208534.99646   6413754.14144  25053438.2344                   25053441.1954
        37.7504         25.5004
 25  7  1  0  5  0.0000000  0 10G10G04G31G01G03G32G02G25G28G08
   5312602.80147   4141310.49247  22666006.0944                   22666005.5864
        43.7504         42.5004
  -1416061.91446  -1027007.08243  24860515.0314                   24860518.3634
        36.0004         19.5004
 -23608422.43048 -18337839.19547  20979432.1024                   20979427.5634
        49.5004         46.7504
 -19237813.80547 -14967560.68045  21789293.7974                   21789290.2664
        44.5004         34.2504
  -8558576.45346  -6649755.48445  23380982.6334                   23380983.1254
        39.7504         35.5004
   2837423.80547   2233623.71947  22157033.5474                   22157031.9924
        47.0004         46.2504
 -23283888.69147 -18105240.28946  21287829.2664                   21287822.9844
        47.0004         39.2504
  -1380650.76246  -1193458.47344  24511334.0944                   24511334.2704
        38.2504         24.0004
 -26337691.96547 -20225568.91446  20820086.3754                   20820082.6914
        46.5004         39.0004
   8273340.74246   6464251.92244  25065770.2274                   25065775.3674
        37.7504         26.5004
 25  7  1  0  5 30.0000000  0 10G10G04G31G01G03G32G02G25G28G08
   5361831.58647   4179670.53146  22675374.6334                   22675373.1024
        44.0004         41.7504
  -1507558.92646  -1098303.29343  24843103.8364                   24843107.0594
        36.5004         19.7504
 -23689031.85948 -18400651.70747  20964092.4144                   20964087.6334
        48.5004         46.5004
 -19309709.47747 -15023583.25845  21775612.5784                   21775609.0594
        44.7504         34.7504
  -8652641.82446  -6723053.08645  23363082.1024                   23363082.7274
        39.5004         35.2504
   2891859.68047   2276041.24647  22167392.2274                   22167390.6914
        47.5004         46.2504
 -23292838.37147 -18112214.07846  21286125.9694                   21286119.7584
        47.0004         38.7504
  -1417680.43746  -1222312.75444  24504288.0474                   24504288.7504
        38.0004         24.7504
 -26351822.77347 -20236579.93446  20817397.2814                   20817393.1884
        47.0004         39.5004
   8338101.32846   6514714.52344  25078094.0944                   25078100.0634
        37.5004         26.0004
 25  7  1  0  6  0.0000000  0 10G10G04G31G01G03G32G02G25G28G08
   5411322.86347   4218235.11747  22684792.2424                   22684791.4924
        43.2504         42.2504
  -1598915.35946  -1169489.95343  24825719.7814                   24825722.3794
        36.5004         18.5004
 -23769136.44148 -18463070.82047  20948848.9064                   20948844.9694
        48.0004         46.7504
 -19381145.67247 -15079247.79745  21762019.1484                   21762015.1604
        45.0004         34.5004
  -8746688.41446  -6796336.04746  23345185.7424                   23345185.9884
        40.0004         36.0004
   2946408.23447   2318546.59447  22177772.4614                   22177770.9534
        47.0004         46.0004
 -23301255.83647 -18118773.15646  21284524.2424                   21284518.1214
        47.0004         38.7504
  -1454252.29746  -1250810.31643  24497328.5314                   24497330.5784
        37.5004         22.2504
 -26365345.30547 -20247116.95746  20814824.2114                   20814820.0824
        46.2504         39.0004
   8402812.89146   6565138.87944  25090408.5004                   25090413.2664
        37.2504         26.0004
 25  7  1  0  6 30.0000000  0 10G10G04G31G01G03G32G02G25G28G08
   5461078.84447   4257005.98847  22694260.3284                   22694259.8674
        43.5004         42.2504
  -1690128.78145  -1240565.16442  24808361.9224                   24808364.6094
        35.5004         17.7504
 -23848731.81648 -18525093.16047  20933702.0314                   20933697.9064
        49.0004         47.0004
 -19452118.20747 -15134551.04745  21748512.8054                   21748509.0394
        45.0004         33.5004
  -8840713.27046  -6869602.07846  23327293.2034                   23327293.8594
        40.5004         36.7504
   3001070.24247   2361140.33647  22188175.0164                   22188173.2194
        46.7504         46.5004
 -23309138.82447 -18124915.75446  21283024.2194                   21283018.0394
        46.5004         39.0004
  -1490362.33646  -1278948.00043  24490457.6024                   24490457.8014
        39.2504         22.5004
 -26378257.59847 -20257178.48046  20812367.0084                   20812363.2034
        45.7504         39.0004
   8467474.80546   6615524.60544  25102713.0234                   25102717.1174
        37.0004         25.0004
 25  7  1  0  7  0.0000000  0 10G10G04G31G01G03G32G02G25G28G08
   5511097.54747   4295981.55146  22703778.7894                   22703777.8444
        43.2504         41.7504
  -1781201.06245  -1311530.43442  24791030.7894                   24791033.4734
        35.5004         16.7504
 -23927817.75448 -18586718.52047  20918652.6954                   20918648.9414
        49.0004         47.0004
 -19522627.04747 -15189492.98045  21735095.6954                   21735091.6564
        45.0004         33.7504
  -8934717.69546  -6942852.22746  23309405.5944                   23309405.1914
        41.2504         37.0004
   3055842.25447   2403819.80147  22198597.8204                   22198596.0204
        47.7504         46.2504
 -23316489.57447 -18130643.62546  21281625.2344                   21281619.0084
        46.2504         39.5004
  -1526010.69546  -1306725.85943  24483673.0784                   24483673.4614
        37.7504         22.7504
 -26390561.91447 -20266766.25046  20810025.7344                   20810021.5234
        46.2504         39.2504
   8532082.19145   6665867.79344  25115007.7194                   25115011.1454
        35.5004         25.0004
 25  7  1  0  7 30.0000000  0 10G10G04G31G01G03G32G02G25G28G08
   5561381.37947   4335163.70747  22713347.3984                   22713346.2234
        43.2504         42.0004
  -1872129.52046  -1382383.63342  24773728.5164                   24773729.9884
        36.0004         16.2504
 -24006389.55148 -18647943.27347  20903700.8674                   20903696.9384
        48.5004         47.0004
 -19592667.63747 -15244070.03945  21721767.0784                   21721763.4924
        44.7504         34.5004
  -9028698.38346  -7016083.87946  23291521.0004                   23291521.3244
        40.7504         36.7504
   3110725.41047   2446585.86347  22209041.8284                   22209040.3324
        47.5004         46.0004
 -23323305.87947 -18135955.05146  21280328.2034                   21280322.0124
        47.2504         39.0004
  -1561193.17246  -1334140.78943  24476978.2584                   24476978.3444
        37.2504         22.7504
 -26402256.10947 -20275878.60246  20807799.8594                   20807796.0434
        46.7504         39.5004
   8596634.71946   6716168.23044  25127291.5394                   25127295.3874
        36.2504         26.5004
 25  7  1  0  8  0.0000000  0 10G10G04G31G01G03G32G02G25G28G08
   5611927.00047   4374549.87946  22722966.1564                   22722964.7774
        43.7504         41.7504
  -1962917.37145  -1453127.28942  24756451.5084                   24756453.7974
        35.5004         16.2504
 -24084448.23848 -18708768.17647  20888846.8984                   20888842.6094
        48.5004         47.2504
 -19662241.25847 -15298283.23445  21708527.6724                   21708524.2504
        45.0004         34.5004
  -9122657.95346  -7089299.08646  23273641.4774                   23273641.4964
        41.0004         36.0004
   3165714.93847   2489434.82447  22219505.6254                   22219503.5864
        47.2504         46.0004
 -23329591.16047 -18140852.68046  21279132.1254                   21279126.2704
        47.0004         38.5004
  -1595911.31646  -1361193.82843  24470372.3364                   24470371.4734
        38.2504         23.0004
 -26413343.82047 -20284518.37546  20805690.0944                   20805686.2664
        47.0004         39.2504
   8661126.16846   6766421.07444  25139564.1484                   25139568.9694
        37.2504         26.5004
 25  7  1  0  8 30.0000000  0 10G10G04G31G01G03G32G02G25G28G08
   5662741.05547   4414145.20746  22732635.7424                   22732634.3634
        44.5004         41.7504
  -2053557.69946  -1523755.93042  24739203.0634                   24739206.2304
        36.7504         16.2504
 -24161985.10948 -18769186.48447  20874092.0234                   20874087.4064
        48.0004         47.0004
 -19731339.30947 -15352125.85545  21695378.4384                   21695375.3754
        44.5004         34.2504
  -9216588.97746  -7162492.02745  23255766.0164                   23255766.4144
        40.5004         35.0004
   3220816.17247   2532370.82447  22229991.0394                   22229989.1724
        46.7504         46.0004
 -23335338.49247 -18145331.14846  21278038.5634                   21278032.6954
        46.7504         39.0004
  -1630156.62146  -1387878.46943  24463855.2814                   24463852.8094
        38.7504         22.0004
 -26423818.73447 -20292680.64146  20803696.8204                   20803692.8094
        46.0004         39.7504
   8725560.46146   6816629.35944  25151826.7424                   25151831.3094
        37.7504         28.0004
 25  7  1  0  9  0.0000000  0 10G10G04G31G01G03G32G02G25G28G08
   5713817.72347   4453945.15246  22742355.6884                   22742354.5944
        44.7504         41.7504
  -2144056.23846  -1594274.15242  24721982.1094                   24721985.1564
        37.2504         17.2504
 -24239003.66448 -18829200.91047  20859436.0164                   20859431.6134
        48.5004         47.2504
 -19799965.60247 -15405600.86745  21682319.3754                   21682316.4534
        45.2504         34.7504
  -9310496.39146  -7235666.58645  23237896.6804                   23237896.2304
        39.5004         34.2504
   3276021.87547   2575388.22747  22240495.9534                   22240494.1174
        47.5004         45.5004
 -23340554.24247 -18149395.38746  21277046.0704                   21277039.7624
        47.2504         39.2504
  -1663933.31646  -1414197.91443  24457427.5864                   24457425.7934
        37.7504         23.0004
 -26433687.03147 -20300370.21146  20801818.7584                   20801815.4454
        47.2504         39.5004
   8789928.89846   6866786.35944  25164074.7424                   25164080.2034
        37.2504         27.0004
 25  7  1  0  9 30.0000000  0 10G10G04G31G01G03G32G02G25G28G08
   5765161.41047   4493953.17247  22752125.6254                   22752124.6524
        44.5004         42.0004
  -2234408.23846  -1664678.16443  24704788.8204                   24704790.9064
        37.5004         19.0004
 -24315497.41848 -18888806.39147  20844879.7424                   20844875.0784
        49.0004         47.2504
 -19868113.69547 -15458703.26245  21669351.3594                   21669348.2424
        45.0004         34.2504
  -9404375.02346  -7308818.71545  23220031.7424                   23220031.6724
        39.2504         34.2504
   3331335.18047   2618489.48447  22251021.8364                   22251020.3134
        47.0004         45.5004
 -23345234.46548 -18153042.33246  21276155.5944                   21276149.3554
        48.0004         38.7504
  -1697235.09046  -1440147.34444  24451090.3834                   24451090.2424
        37.2504         25.0004
 -26442944.69147 -20307583.97746  20800057.3914                   20800053.2584
        47.0004         39.2504
   8854233.10246   6916893.34044  25176311.8524                   25176316.7664
        37.0004         28.7504
 25  7  1  0 10  0.0000000  0 10G10G04G31G01G03G32G02G25G28G08
   5816770.75447   4534168.20346  22761946.8834                   22761945.5904
        44.0004         41.7504
  -2324615.09845  -1734969.10543  24687622.1804                   24687624.8754
        35.7504         18.2504
 -24391465.78148 -18948002.48447  20830423.2664                   20830418.7384
        48.2504         47.0004
 -19935782.85247 -15511432.44545  21656474.3204                   21656470.9344
        44.5004         34.5004
  -9498225.28546  -7381948.73045  23202172.8444                   23202173.4224
        39.0004         35.5004
   3386753.38747   2661672.47347  22261567.7894                   22261565.9844
        47.5004         45.5004
 -23349380.39148 -18156272.93746  21275367.0314                   21275360.7814
        48.2504         39.0004
  -1730061.62145  -1465726.45343  24444843.6804                   24444845.6414
        35.5004         21.5004
 -26451593.43047 -20314323.23846  20798411.7274                   20798407.2624
        47.5004         39.0004
   8918468.98846   6966947.05944  25188536.1414                   25188540.3954
        38.0004         28.2504
 25  7  1  0 10 30.0000000  0 10G10G04G31G01G03G32G02G25G28G08
   5868633.04347   4574580.34446  22771815.7814                   22771814.7974
        43.7504         41.7504
  -2414689.23445  -1805156.54343  24670481.7894                   24670484.2234
        35.5004         18.5004
 -24466918.99248 -19006797.16847  20816064.9694                   20816060.8484
        48.0004         47.5004
 -20002983.80947 -15563796.81245  21643686.1484                   21643683.0124
        44.7504         34.5004
  -9592059.05946  -7455065.88345  23184316.5554                   23184317.3594
        40.5004         35.7504
   3442262.50447   2704926.30147  22272130.6954                   22272128.9844
        46.2504         45.5004
 -23353004.92647 -18159097.27046  21274676.7504                   21274670.6094
        47.2504         38.7504
  -1762423.82445  -1490943.73043  24438685.3834                   24438687.8674
        35.0004         22.0004
 -26459646.37147 -20320598.25046  20796879.1564                   20796875.1764
        46.7504         39.2504
   8982621.05546   7016935.46944  25200743.4384                   25200748.6254
        38.0004         27.7504
 25  7  1  0 11  0.0000000  0 10G10G04G31G01G03G32G02G25G28G08
   5920743.25447   4615185.65646  22781731.7504                   22781730.6684
        44.2504         41.5004
  -2504635.46146  -1875244.33643  24653365.7664                   24653367.8554
        36.5004         20.7504
 -24541860.00048 -19065192.71547  20801804.1484                   20801799.6644
        49.0004         47.7504
 -20069719.53947 -15615798.66845  21630986.8594                   21630983.6094
        44.5004         34.7504
  -9685880.42646  -7528173.39146  23166463.0474                   23166463.5274
        40.0004         36.0004
   3497856.21547   2748246.04747  22282709.9224                   22282708.6294
        47.0004         45.5004
 -23356113.27047 -18161519.36746  21274085.6254                   21274079.4964
        47.5004         38.5004
  -1794325.06646  -1515801.84043  24432614.2274                   24432616.6644
        36.0004         22.0004
 -26467108.94547 -20326413.25046  20795458.9384                   20795454.7664
        46.2504         39.2504
   9046681.49646   7066852.45344  25212934.0234                   25212939.4614
        36.7504         26.0004
 25  7  1  0 11 30.0000000  0 10G10G04G31G01G03G32G02G25G28G08
   5973104.60547   4655986.67247  22791696.3204                   22791695.2504
        44.0004         42.0004
  -2594450.38346  -1945229.83643  24636274.5234                   24636275.8754
        38.2504         20.5004
 -24616283.59848 -19123185.09447  20787641.9454                   20787637.7704
        48.5004         47.7504
 -20135984.87947 -15667433.98445  21618377.4064                   21618373.4384
        45.0004         35.0004
  -9779685.33646  -7601268.09046  23148612.8364                   23148612.6954
        40.0004         36.2504
   3553536.50447   2791633.26247  22293305.8674                   22293304.0514
        46.5004         45.5004
 -23358702.56647 -18163537.02746  21273592.6414                   21273586.8284
        46.2504         39.2504
  -1825760.40646  -1540296.86343  24426632.3674                   24426632.3594
        37.2504         22.2504
 -26473978.35547 -20331766.02746  20794151.8134                   20794148.0744
        45.7504         39.0004
   9110650.87545   7116698.50044  25225107.1724                   25225112.5984
        35.5004         26.7504
 25  7  1  0 12  0.0000000  0 10G10G04G31G01G03G32G02G25G28G08
   6025720.99647   4696986.41046  22801708.6954                   22801707.9804
        43.7504         41.5004
  -2684129.84846  -2015109.80543  24619209.2424                   24619210.6374
        38.0004         19.5004
 -24690183.53148 -19180769.42247  20773579.1094                   20773574.6524
        49.0004         47.7504
 -20201773.84847 -15718698.09845  21605857.5474                   21605854.5554
        45.0004         34.7504
  -9873468.92646  -7674346.15646  23130765.9534                   23130765.5864
        39.5004         36.2504
   3609305.98447   2835089.97747  22303918.4144                   22303916.4924
        46.0004         45.2504
 -23360769.21547 -18165147.41446  21273199.4304                   21273193.3714
        46.7504         38.5004
  -1856724.19546  -1564424.40643  24420741.2894                   24420739.7544
        36.7504         22.5004
 -26480251.17647 -20336653.93446  20792958.2814                   20792953.9774
        46.5004         39.2504
   9174530.40246   7166474.53144  25237262.8524                   25237268.3244
        37.7504         26.7504
 25  7  1  0 12 30.0000000  0 10G10G04G31G01G03G32G02G25G28G08
   6078598.18847   4738189.37546  22811771.0784                   22811770.1724
        43.7504         41.5004
  -2773668.03146  -2084879.67643  24602170.1954                   24602171.4264
        37.7504         18.2504
 -24763552.21948 -19237939.79747  20759617.7584                   20759613.2664
        48.7504         47.7504
 -20267078.79747 -15769585.05545  21593430.7894                   21593427.2814
        45.5004         34.7504
  -9967224.55546  -7747402.42245  23112925.1884                   23112925.3444
        39.0004         35.5004
   3665169.18847   2878619.72747  22314548.5234                   22314546.6454
        46.0004         45.0004
 -23362307.66847 -18166346.22746  21272906.5394                   21272900.5824
        47.0004         39.5004
  -1887209.07046  -1588178.79343  24414938.8444                   24414939.0744
        37.2504         22.7504
 -26485922.12947 -20341072.85546  20791879.1254                   20791875.0784
        46.2504         39.7504
   9238323.08646   7216182.87944  25249402.7584                   25249407.8094
        36.7504         25.5004
 25  7  1  0 13  0.0000000  0 10G10G04G31G01G03G32G02G25G28G08
   6131738.28147   4779597.19946  22821883.1644                   22821882.0204
        44.2504         41.0004
  -2863062.53546  -2154537.56642  24585158.8134                   24585159.9654
        38.2504         17.2504
 -24836385.23447 -19294692.75847  20745757.8914                   20745753.2664
        47.5004         47.5004
 -20331895.59447 -15820091.63345  21581096.4454                   21581092.8914
        45.0004         34.5004
 -10060949.10546  -7820434.46945  23095089.0314                   23095090.0514
        39.0004         35.5004
   3721127.00047   2922223.18447  22325197.0784                   22325195.4264
        46.2504         44.7504
 -23363316.02347 -18167131.97746  21272714.2664                   21272708.5164
        46.2504         38.7504
  -1917211.20346  -1611557.11343  24409229.4304                   24409229.5594
        36.0004         22.5004
 -26490989.64847 -20345021.58246  20790914.7504                   20790910.5084
        46.0004         39.0004
   9302028.37546   7265823.17244  25261526.5784                   25261530.5554
        37.0004         24.5004
 25  7  1  0 13 30.0000000  0 11G10G04G31G01G03G32G02G25G26G28G08
   6185144.44147   4821212.34046  22832046.4304                   22832044.6644
        43.7504         40.7504
  -2952310.04746  -2224080.94543  24568174.8594                   24568176.6094
        38.0004         19.0004
 -24908677.18048 -19351024.12547  20732001.0784                   20731996.6484
        48.0004         47.2504
 -20396219.01647 -15870213.76245  21568855.9614                   21568853.0044
        45.7504         34.7504
 -10154638.41046  -7893439.04746  23077261.4924                   23077261.4574
        40.0004         36.0004
   3777181.43447   2965901.92647  22335863.9454                   22335862.4654
        47.2504         44.7504
 -23363791.34447 -18167502.37946  21272624.0234                   21272618.6524
        46.2504         39.0004
  -1946725.77046  -1634555.49243  24403613.0004                   24403613.8594
        37.5004         23.5004
   -264535.96155   -104336.21154  25035243.0084                   25035247.1094
        35.0004         25.0004
 -26495450.96147 -20348497.93046  20790065.5084                   20790061.5704
        45.7504         39.0004
   9365646.82446   7315395.71944  25273631.6414                   25273637.7074
        36.2504         25.0004
 25  7  1  0 14  0.0000000  0 11G10G04G31G01G03G32G02G25G26G28G08
   6238814.10947   4863032.82046  22842258.6094                   22842258.0204
        42.7504         40.2504
  -3041412.89146  -2293511.58243  24551219.4144                   24551221.4964
        38.5004         19.5004
 -24980429.09047 -19406934.66847  20718347.0784                   20718342.5784
        47.7504         47.5004
 -20460049.69947 -15919951.94545  21556709.7344                   21556706.2154
        45.5004         34.5004
 -10248293.99646  -7966417.35946  23059438.5314                   23059439.1134
        40.7504         36.5004
   3833328.72747   3009653.04747  22346548.1954                   22346546.8634
        47.0004         44.7504
 -23363736.70348 -18167459.81646  21272634.6954                   21272628.8284
        48.0004         39.5004
  -1975753.73446  -1657174.62544  24398090.0634                   24398090.3794
        38.0004         26.2504
   -358940.28945   -177897.87943  25017277.5784                   25017280.7854
        33.7504         22.7504
 -26499309.22347 -20351504.36346  20789331.7894                   20789327.1484
        45.7504         39.0004
   9429173.23445   7364896.51643  25285721.8204                   25285727.2624
        34.0004         22.5004
 25  7  1  0 14 30.0000000  0 11G10G04G31G01G03G32G02G25G26G28G08
   6292746.61346   4905058.09046  22852521.8674                   22852520.6024
        41.7504         40.2504
  -3130371.53146  -2362829.84843  24534291.1884                   24534293.1484
        38.2504         19.5004
 -25051639.09047 -19462422.95347  20704796.5234                   20704791.8874
        47.5004         47.7504
 -20523386.24247 -15969305.07445  21544656.7814                   21544653.6414
        46.0004         35.0004
 -10341915.52347  -8039369.14146  23041623.5084                   23041623.6094
        42.2504         37.5004
   3889567.03147   3053475.09047  22357250.2894                   22357248.6524
        47.0004         44.7504
 -23363153.19148 -18167005.14846  21272746.0394                   21272740.0354
        48.0004         39.2504
  -2004294.04746  -1679413.80544  24392659.4924                   24392660.1884
        38.7504         28.0004
   -453476.93045   -251562.61744  24999288.1334                   24999292.1334
        33.2504         24.0004
 -26502565.62147 -20354041.81246  20788711.9614                   20788708.0634
        46.7504         39.5004
   9492604.27045   7414323.06343  25297791.1884                   25297797.0664
        31.5004         21.0004
 25  7  1  0 15  0.0000000  0 10G10G04G31G01G03G32G02G25G26G28
   6346943.43447   4947289.31646  22862834.9534                   22862834.2424
        43.2504         39.7504
  -3219184.24646  -2432034.44943  24517391.1484                   24517392.8914
        39.5004         22.0004
 -25122303.69948 -19517486.25047  20691349.4454                   20691344.6644
        48.2504         47.5004
 -20586225.24647 -16018270.52345  21532699.3134                   21532695.6134
        46.0004         35.0004
 -10435500.49247  -8112292.43446  23023814.8364                   23023814.9924
        42.5004         38.2504
   3945896.71947   3097368.32447  22367969.6484                   22367967.5004
        47.2504         44.7504
 -23362039.35947 -18166137.24646  21272957.7504                   21272952.1684
        46.7504         39.2504
  -2032343.46946  -1701270.46144  24387321.3364                   24387322.4774
        38.0004         26.5004
   -548141.82445   -325327.28144  24981273.6564                   24981277.8714
        35.0004         25.7504
 -26505219.21947 -20356109.55546  20788206.9534                   20788203.0744
        45.2504         39.2504
 25  7  1  0 15 30.0000000  0 10G10G04G31G01G03G32G02G25G26G28
   6401411.68847   4989732.04746  22873200.5704                   22873200.2584
        42.7504         40.2504
  -3307843.78146  -2501119.68043  24500519.6484                   24500521.2194
        38.7504         21.7504
 -25192413.88748 -19572117.54347  20678008.1724                   20678003.2704
        48.2504         47.7504
 -20648557.67247 -16066841.22345  21520837.7584                   21520834.3164
        46.0004         35.5004
 -10529040.79347  -8185180.92246  23006015.1724                   23006015.1294
        42.2504         38.5004
   4002323.71947   3141337.37947  22378707.0004                   22378704.6724
        47.2504         44.5004
 -23360388.56248 -18164850.92246  21273272.0314                   21273265.8554
        48.7504         39.2504
  -2059893.49246  -1722737.96144  24382078.0864                   24382079.0164
        37.5004         27.5004
   -642925.51645   -399184.51643  24963236.8984                   24963239.5004
        33.2504         22.7504
 -26507263.47347 -20357702.48046  20787817.8754                   20787813.4804
        46.2504         38.7504
 25  7  1  0 16  0.0000000  0 10G10G04G31G01G03G32G02G25G26G28
   6456165.84047   5032397.58246  22883620.1024                   22883618.7734
        42.7504         39.7504
  -3396335.45346  -2570074.09043  24483679.9454                   24483680.8834
        39.0004         20.7504
 -25261953.02048 -19626303.85248  20664774.8674                   20664770.1994
        48.0004         48.0004
 -20710367.10547 -16115004.39145  21509075.7034                   21509072.0984
        46.0004         35.5004
 -10622520.89846  -8258022.49246  22988226.3914                   22988225.7624
        41.5004         38.5004
   4058861.39847   3185392.69947  22389465.7114                   22389463.9574
        46.5004         44.2504
 -23358186.59848 -18163135.11746  21273690.8594                   21273685.0864
        48.0004         39.2504
  -2086927.94946  -1743803.70344  24376933.9694                   24376934.1214
        38.5004         27.7504
   -737811.13746   -473121.23044  24945180.5314                   24945182.7154
        36.7504         26.0004
 -26508684.57047 -20358809.82046  20787547.4924                   20787543.4614
        45.5004         39.0004
 25  7  1  0 16 30.0000000  0 10G10G04G31G01G03G32G02G25G26G28
   6511206.22747   5075286.16846  22894093.7344                   22894093.3324
        42.5004         39.7504
  -3484658.65646  -2638897.25443  24466872.1724                   24466873.1094
        38.5004         19.7504
 -25330918.75048 -19680043.35947  20651651.1414                   20651646.7194
        48.5004         47.7504
 -20771651.21947 -16162758.22345  21497413.6174                   21497410.2734
        45.7504         35.2504
 -10715939.43446  -8330816.06646  22970448.9304                   22970449.0394
        40.7504         38.2504
   4115508.98447   3229533.64847  22400245.6804                   22400244.0514
        46.7504         44.7504
 -23355433.69948 -18160990.00446  21274215.0004                   21274209.3834
        49.0004         39.5004
  -2113445.03546  -1764466.32845  24371887.9224                   24371889.7854
        38.5004         30.0004
   -832795.69546   -547135.03144  24927105.8054                   24927110.1684
        37.2504         27.7504
 -26509482.73447 -20359431.77046  20787395.3364                   20787391.4614
        46.5004         38.7504
 25  7  1  0 17  0.0000000  0 10G10G04G31G01G03G32G02G25G26G28
   6566527.49647   5118393.61346  22904620.4924                   22904620.6254
        42.0004         39.0004
  -3572818.60546  -2707593.20343  24450095.3914                   24450097.4264
        38.2504         20.2504
 -25399314.56647 -19733338.77047  20638635.9144                   20638631.4924
        47.7504         47.7504
 -20832413.43747 -16210105.38345  21485850.9384                   21485847.6914
        45.2504         35.2504
 -10809300.51246  -8403564.89146  22952682.5394                   22952682.7344
        41.2504         38.0004
   4172260.07047   3273755.24647  22411045.4454                   22411043.2774
        47.0004         44.5004
 -23352135.49647 -18158419.99246  21274842.4224                   21274836.5204
        47.7504         39.0004
  -2139448.41046  -1784728.65644  24366939.2274                   24366941.2894
        37.7504         27.5004
   -927882.21145   -621228.21944  24909010.5234                   24909015.8404
        35.0004         27.5004
 -26509663.94947 -20359572.98046  20787361.1644                   20787357.0124
        45.5004         39.2504
 25  7  1  0 17 30.0000000  0 10G10G04G31G01G03G32G02G25G26G28
   6622126.90247   5161717.75446  22915201.0704                   22915200.6374
        42.0004         38.2504
  -3660817.79746  -2776163.82843  24433349.6414                   24433351.2624
        37.0004         19.0004
 -25467141.22348 -19786190.68447  20625728.9224                   20625724.3794
        48.5004         47.7504
 -20892654.59847 -16257046.52745  21474387.3134                   21474384.2344
        46.2504         35.7504
 -10902605.76646  -8476270.20346  22934927.4454                   22934927.3244
        41.5004         38.0004
   4229110.74247   3318054.44547  22421863.0164                   22421862.0354
        46.0004         44.2504
 -23348294.87147 -18155427.30946  21275573.1024                   21275567.5864
        46.5004         39.7504
  -2164939.32846  -1804591.69944  24362088.3914                   24362090.0634
        36.5004         25.7504
  -1023070.85945   -695401.03144  24890896.6484                   24890898.4494
        35.7504         25.5004
 -26509231.64547 -20359236.11346  20787443.1724                   20787439.4224
        45.7504         39.0004
 25  7  1  0 18  0.0000000  0 10G10G04G31G01G03G32G02G25G26G28
   6678000.96546   5205255.92646  22925833.6024                   22925833.8364
        41.5004         39.0004
  -3748659.35946  -2844611.62143  24416633.8754                   24416635.3954
        38.2504         19.7504
 -25534400.17247 -19838600.23047  20612929.8364                   20612925.5664
        47.5004         47.7504
 -20952376.18747 -16303582.80945  21463023.1334                   21463019.8164
        46.0004         35.5004
 -10995857.60946  -8548933.91846  22917182.7424                   22917181.8634
        41.2504         37.5004
   4286056.55947   3362427.78147  22432699.3364                   22432698.2814
        47.0004         44.5004
 -23343915.84448 -18152015.09046  21276406.5864                   21276400.6524
        49.0004         39.5004
  -2189919.62945  -1824056.81244  24357334.2894                   24357335.9454
        34.7504         27.0004
  -1118362.51646   -769654.18744  24872763.4384                   24872766.5004
        37.0004         28.0004
 -26508189.92247 -20358424.38746  20787641.9224                   20787637.5514
        47.2504         39.0004
 25  7  1  0 18 30.0000000  0 10G10G04G31G01G03G32G02G25G26G28
   6734148.20346   5249006.97746  22936517.8754                   22936517.6524
        41.5004         37.5004
  -3836344.70746  -2912937.76243  24399947.9844                   24399948.5234
        38.0004         19.2504
 -25601090.89147 -19890566.99648  20600239.0314                   20600234.9344
        47.2504         48.0004
 -21011577.84447 -16349713.95345  21451756.8674                   21451753.1724
        45.2504         35.5004
 -11089056.35246  -8621556.26246  22899447.2504                   22899446.0944
        41.5004         37.0004
   4343094.98047   3406873.25847  22443554.1094                   22443552.7114
        47.0004         44.5004
 -23339000.77048 -18148185.17646  21277342.0234                   21277335.9264
        48.2504         39.0004
  -2214389.34045  -1843124.14544  24352678.1644                   24352679.7114
        34.5004         27.7504
  -1213756.10946   -843986.69144  24854610.3054                   24854614.3204
        36.2504         28.2504
 -26506540.94547 -20357139.47346  20787955.4534                   20787951.2894
        47.5004         39.2504
 25  7  1  0 19  0.0000000  0 10G10G04G31G01G03G32G02G25G26G28
   6790567.39146   5292969.91446  22947254.2274                   22947255.5314
        41.2504         38.7504
  -3923874.75046  -2981142.87543  24383291.4454                   24383292.2544
        39.7504         18.2504
 -25667212.72747 -19942090.46947  20587656.4144                   20587651.7664
        47.0004         47.7504
 -21070258.74647 -16395439.31645  21440590.4534                   21440586.8404
        46.2504         35.5004
 -11182202.02746  -8694137.27046  22881721.9534                   22881720.9384
        41.5004         36.5004
   4400223.82447   3451389.21547  22454425.3754                   22454423.4494
        46.5004         44.0004
 -23333551.02048 -18143938.63346  21278378.8134                   21278373.0004
        48.5004         39.5004
  -2238348.02345  -1861793.25044  24348119.0784                   24348120.2464
        35.7504         26.7504
  -1309250.33646   -918397.57844  24836438.7034                   24836442.0084
        36.2504         27.5004
 -26504286.57847 -20355382.82446  20788384.5474                   20788380.3674
        47.0004         39.0004
 25  7  1  0 19 30.0000000  0 10G10G04G31G01G03G32G02G25G26G28
   6847259.10247   5337145.23446  22958042.5944                   22958042.6334
        43.5004         39.0004
  -4011248.77746  -3049226.34443  24366664.9694                   24366666.4064
        39.5004         19.7504
 -25732762.75047 -19993168.39147  20575181.9614                   20575178.2894
        46.2504         47.7504
 -21128416.56247 -16440757.07445  21429523.0314                   21429520.0784
        46.0004         35.5004
 -11275292.88746  -8766675.55146  22864007.5164                   22864006.8834
        40.2504         36.0004
   4457442.53147   3495975.18847  22465313.2034                   22465311.4064
        46.7504         44.0004
 -23327566.51248 -18139275.39846  21279517.9844                   21279511.9844
        48.5004         39.7504
  -2261793.68446  -1880062.55944  24343657.5164                   24343658.8164
        37.5004         27.0004
  -1404842.00446   -992884.47344  24818248.3524                   24818248.5394
        36.5004         27.5004
 -26501427.03947 -20353154.61346  20788928.2034                   20788924.5554
        47.2504         39.0004
 25  7  1  0 20  0.0000000  0 10G10G04G31G01G03G32G02G25G26G28
   6904220.65247   5381530.78146  22968883.1174                   22968881.9574
        42.5004         38.5004
  -4098469.16046  -3117190.13743  24350066.8134                   24350068.2304
        39.7504         19.2504
 -25797742.42247 -20043801.87547  20562817.1174                   20562812.3404
        47.0004         47.5004
 -21186051.94547 -16485667.75846  21418555.5394                   21418552.4144
        46.7504         36.0004
 -11368330.34046  -8839172.21945  22846301.9844                   22846301.8134
        39.7504         35.2504
   4514747.61747   3540628.45747  22476218.4064                   22476216.7704
        47.2504         44.0004
 -23321050.22747 -18134197.78946  21280757.7664                   21280751.8324
        46.7504         39.5004
  -2284727.52346  -1897933.04744  24339293.3834                   24339294.5354
        36.2504         28.2504
  -1500531.16445  -1067447.34844  24800038.7424                   24800042.3244
        34.2504         28.5004
 -26497965.70347 -20350457.47346  20789587.0164                   20789583.2504
        45.2504         39.2504
 25  7  1  0 20 30.0000000  0 10G10G04G31G01G03G32G02G25G26G28
   6961455.06347   5426128.97746  22979773.5004                   22979773.4574
        43.0004         39.5004
  -4185532.77046  -3185031.80543  24333498.8834                   24333500.0904
        37.5004         18.5004
 -25862146.48847 -20093986.83248  20550561.9774                   20550557.1764
        47.2504         48.0004
 -21243160.04747 -16530167.56645  21407688.1884                   21407685.0664
        46.5004         35.5004
 -11461310.25046  -8911624.03546  22828608.2974                   22828608.9774
        40.5004         36.2504
   4572140.94547   3585350.50047  22487139.7814                   22487137.8914
        46.5004         44.5004
 -23313999.59448 -18128703.80546  21282099.6254                   21282093.4344
        48.2504         39.0004
  -2307144.96945  -1915401.15644  24335027.5554                   24335028.5984
        35.0004         28.2504
  -1596312.20345  -1142081.71944  24781812.0784                   24781816.6564
        34.0004         28.5004
 -26493900.28547 -20347289.60946  20790360.5784                   20790356.7774
        47.0004         39.0004
 25  7  1  0 21  0.0000000  0 10G10G04G31G01G03G32G02G25G26G28
   7018958.46147   5470936.77746  22990715.8674                   22990715.2194
        44.0004         39.0004
  -4272443.08646  -3252753.97343  24316961.2974                   24316962.6454
        39.7504         22.0004
 -25925976.55148 -20143724.52348  20538415.3914                   20538410.6524
        48.2504         48.0004
 -21299742.78147 -16574257.99245  21396921.0864                   21396917.8134
        46.5004         35.5004
 -11554235.10246  -8984032.94546  22810926.1174                   22810926.3444
        41.2504         36.7504
   4629617.82848   3630137.64547  22498077.6644                   22498075.7464
        48.0004         44.2504
 -23306419.16447 -18122796.98846  21283542.1334                   21283535.5044
        47.5004         39.0004
  -2329048.43446  -1932468.80144  24330859.3754                   24330861.4844
        36.5004         28.5004
  -1692186.18745  -1216788.54344  24763567.3594                   24763570.8054
        34.7504         26.2504
 -26489235.37547 -20343654.62146  20791248.5394                   20791244.3754
        45.7504         39.0004
 25  7  1  0 21 30.0000000  0 10G10G04G31G01G03G32G02G25G26G28
   7076734.55147   5515957.05946  23001710.7664                   23001710.9924
        44.5004         40.0004
  -4359196.25846  -3320353.69943  24300452.2664                   24300453.9884
        37.5004         21.7504
 -25989227.40247 -20193010.88347  20526378.8674                   20526374.4804
        47.5004         47.7504
 -21355794.66447 -16617934.77746  21386254.8674                   21386251.4264
        46.5004         36.0004
 -11647100.03147  -9056395.16846  22793254.8834                   22793254.6214
        42.2504         37.7504
   4687180.98047   3674992.01647  22509031.2114                   22509030.0044
        46.7504         44.0004
 -23298305.66048 -18116474.79746  21285086.0004                   21285079.9264
        48.5004         39.2504
  -2350432.86746  -1949131.97344  24326790.9384                   24326792.3164
        37.0004         28.2504
  -1788146.93745  -1291563.04344  24745306.7274                   24745308.9224
        35.0004         26.5004
 -26483968.09847 -20339550.25046  20792250.8984                   20792246.8444
        46.5004         39.2504
 25  7  1  0 22  0.0000000  0 10G10G04G31G01G03G32G02G25G26G28
   7134775.44547   5561183.67646  23012755.7274                   23012755.6174
        44.7504         39.2504
  -4445799.95746  -3387836.96543  24283971.9614                   24283973.2624
        38.0004         21.0004
 -26051905.00847 -20241850.54747  20514451.7194                   20514447.2974
        47.7504         47.5004
 -21411321.63747 -16661202.53545  21375688.4774                   21375684.7194
        45.5004         35.2504
 -11739911.60547  -9128715.83646  22775593.1334                   22775592.6294
        42.0004         37.0004
   4744821.59847   3719906.75047  22520000.2504                   22519998.5084
        47.5004         44.0004
 -23289667.59847 -18109743.85246  21286729.7504                   21286723.8554
        47.7504         39.5004
  -2371304.58246  -1965395.62544  24322818.5704                   24322820.1604
        37.5004         28.5004
  -1884199.68045  -1366409.20744  24727028.7034                   24727031.9264
        34.5004         26.5004
 -26478107.11347 -20334983.25846  20793366.0474                   20793361.9924
        46.7504         40.0004
 25  7  1  0 22 30.0000000  0 10G10G04G31G01G03G32G02G25G26G28
   7193084.75447   5606619.45346  23023851.1254                   23023851.1844
        43.2504         39.5004
  -4532250.19146  -3455200.69943  24267520.3754                   24267521.9774
        37.0004         19.7504
 -26114003.63747 -20290239.05947  20502634.7274                   20502630.0984
        47.5004         47.7504
 -21466318.28947 -16704057.05945  21365222.7034                   21365219.3634
        46.7504         35.5004
 -11832664.82847  -9200991.04746  22757942.9844                   22757941.7344
        42.0004         37.0004
   4802542.41447   3764883.95347  22530983.8594                   22530981.7854
        46.7504         43.7504
 -23280501.77348 -18102601.67246  21288473.8984                   21288467.9144
        48.5004         39.0004
  -2391658.59046  -1981255.85944  24318945.1414                   24318946.2504
        36.5004         29.0004
  -1980337.93045  -1441321.96144  24708734.3984                   24708738.1914
        35.5004         26.5004
 -26471649.61747 -20329951.43746  20794594.7734                   20794591.1524
        47.0004         38.7504
 25  7  1  0 23  0.0000000  0 10G10G04G31G01G03G32G02G25G26G28
   7251662.68047   5652264.57446  23034998.4614                   23034997.3404
        44.5004         40.0004
  -4618546.57445  -3522444.46143  24251098.7424                   24251100.4844
        35.5004         19.2504
 -26175521.68448 -20338175.17648  20490928.1414                   20490923.7274
        48.0004         48.0004
 -21520782.47347 -16746496.67645  21354858.4304                   21354855.3754
        46.2504         35.2504
 -11925358.28146  -9273219.68746  22740303.7584                   22740303.4694
        41.0004         36.0004
   4860342.77047   3809923.14547  22541983.2274                   22541981.5744
        46.0004         44.0004
 -23270808.52348 -18095048.50046  21290318.6334                   21290312.6524
        48.7504         39.0004
  -2411493.22746  -1996711.41844  24315170.4454                   24315171.8204
        36.5004         27.7504
  -2076558.82845  -1516299.12944  24690423.0554                   24690425.7234
        35.2504         24.7504
 -26464596.13747 -20324455.21946  20795937.1334                   20795932.9304
        47.2504         39.5004
 25  7  1  0 23 30.0000000  0 10G10G04G31G01G03G32G02G25G26G28
   7310508.38347   5698118.27046  23046197.2424                   23046196.0314
        44.5004         40.0004
  -4704689.73045  -3589568.85243  24234706.6804                   24234708.1024
        35.0004         18.2504
 -26236458.07047 -20385658.05948  20479332.5784                   20479327.9224
        47.5004         48.0004
 -21574713.26247 -16788520.65645  21344595.8444                   21344592.7234
        46.5004         35.7504
 -12017991.37546  -9345401.27346  22722676.1254                   22722676.0354
        41.2504         37.2504
   4918220.86747   3855022.93447  22552996.9064                   22552995.8284
        45.5004         44.2504
 -23260589.00047 -18087085.25046  21292263.3524                   21292257.3204
        47.5004         39.0004
  -2430807.94545  -2011761.85244  24311495.8834                   24311497.5864
        35.0004         27.2504
  -2172860.48045  -1591339.25443  24672098.2114                   24672098.9414
        35.0004         22.7504
 -26456948.45347 -20318495.98846  20797392.7974                   20797388.7154
        46.0004         39.5004
 25  7  1  0 24  0.0000000  0 10G10G04G31G01G03G32G02G25G26G28
   7369619.78547   5744179.08646  23057444.2584                   23057445.1644
        43.5004         40.2504
  -4790681.36346  -3656575.18742  24218342.9924                   24218343.8794
        36.5004         17.7504
 -26296812.70347 -20432687.61748  20467847.4384                   20467843.0314
        47.2504         48.2504
 -21628110.80947 -16830129.12545  21334434.3204                   21334431.1884
        46.2504         35.2504
 -12110564.81246  -9417536.37146  22705060.1094                   22705060.0664
        41.7504         38.5004
   4976173.91847   3900181.13347  22564025.5084                   22564023.5904
        46.5004         44.2504
 -23249846.35248 -18078714.37946  21294307.5474                   21294301.4104
        48.0004         39.0004
  -2449603.35245  -2026407.60944  24307918.7894                   24307920.8914
        35.5004         27.7504
  -2269242.04346  -1666441.66044  24653757.9224                   24653761.0514
        37.0004         26.2504
 -26448709.39547 -20312075.94146  20798960.1724                   20798956.3714
        47.2504         39.0004
 25  7  1  0 24 30.0000000  0 10G10G04G31G01G03G32G02G25G26G28
   7428998.00047   5790447.78546  23068743.9774                   23068743.8244
        43.5004         39.5004
  -4876520.31246  -3723462.47343  24202007.3524                   24202008.3554
        36.5004         19.7504
 -26356582.95347 -20479261.80948  20456473.2274                   20456469.0124
        47.2504         48.2504
 -21680972.29347 -16871319.88345  21324374.9534                   21324372.3164
        46.5004         35.5004
 -12203076.21147  -9489623.12146  22687455.3914                   22687455.4024
        42.0004         39.0004
   5034202.10947   3945397.86347  22575067.5474                   22575065.6644
        47.0004         44.0004
 -23238579.72347 -18069935.21546  21296451.2814                   21296445.6134
        46.0004         39.2504
  -2467877.09446  -2040646.84444  24304441.5634                   24304443.2114
        37.0004         28.5004
  -2365699.91445  -1741603.45744  24635400.2664                   24635405.8674
        34.5004         26.2504
 -26439878.81247 -20305194.97346  20800640.6254                   20800636.9734
        45.5004         39.0004
 25  7  1  0 25  0.0000000  0 10G10G04G31G01G03G32G02G25G26G28
   7488645.29747   5836926.14546  23080095.4454                   23080094.7664
        44.0004         40.5004
  -4962203.94146  -3790228.77043  24185703.7664                   24185703.4924
