     2.11           OBSERVATION DATA    G (GPS)             RINEX VERSION / TYPE
teqc  2019Feb25                         20250820 06:27:41UTCPGM / RUN BY / DATE
Linux 2.6.32-573.12.1.x86_64|x86_64|gcc -static|Linux 64|=+ COMMENT
BIT 2 OF LLI FLAGS DATA COLLECTED UNDER A/S CONDITION       COMMENT
35163550                                                    MARKER NAME
3550                                                        MARKER NUMBER
-Unknown-           -Unknown-                               OBSERVER / AGENCY
0220413516          TRIMBLE R7          2.32                REC # / TYPE / VERS
-Unknown-           TRM39105.00     NONE                    ANT # / TYPE
 -2418101.5775 -4493098.3326  3816345.9932                  APPROX POSITION XYZ
        0.0000        0.0000        0.0000                  ANTENNA: DELTA H/E/N
     1     1                                                WAVELENGTH FACT L1/2
     7    L1    L2    C1    P1    P2    S1    S2            # / TYPES OF OBSERV
    18                                                      LEAP SECONDS
 SNR is mapped to RINEX snr flag value [0-9]                COMMENT
  L1 & L2: min(max(int(snr_dBHz/6), 0), 9)                  COMMENT
  2025     8     6     1    13    0.0000000     GPS         TIME OF FIRST OBS
                                                            END OF HEADER
 25  8  6  1 13  0.0000000  0  3G16G04G26
   -137517.63357    -61328.24256  20784422.3914                   20784417.9924
        46.7504         37.7504
   -145888.60557    -86522.84056  20278541.9614                   20278538.5514
        47.7504         40.0004
    -24146.18757    -11072.20756  22120617.2114                   22120616.9614
        45.0004         41.0004
 25  8  6  1 13 30.0000000  0  8G16G09G07G04G06G31G03G26
   -248828.48448   -148063.93746  20763240.7664                   20763236.1604
        48.0004         37.5004
   -305732.34457   -204129.23457  21684114.7194                   21684113.1954
        47.0004         45.7504
   -267007.19957   -176248.52355  23525012.1724                   23525011.2664
        43.0004         34.2504
   -246768.49247   -165130.54746  20259345.1884                   20259342.1884
        47.2504         39.5004
    -82427.00055    -39116.76255  24314840.4694                   24314843.0394
        35.0004         32.0004
     30719.01256     20251.32855  23825218.5164                   23825215.9804
        41.5004         34.7504
    -27244.67258    -18103.68758  20678347.7114                   20678346.7704
        48.7504         48.5004
    -44594.92247    -27006.31246  22116725.9224                   22116725.7344
        44.7504         40.7504
 25  8  6  1 14  0.0000000  0  8G16G09G07G04G06G31G03G26
   -359835.93447   -234563.20746  20742116.4924                   20742112.5704
        47.5004         37.2504
   -460840.72747   -324992.85947  21654598.1724                   21654596.3954
        47.0004         45.5004
   -420733.10547   -296034.81245  23495759.6174                   23495758.4734
        43.2504         35.0004
   -347741.74247   -243811.00046  20240130.5944                   20240127.4264
        47.5004         40.2504
   -151368.19545    -92837.21145  24301721.5394                   24301723.8244
        34.7504         31.5004
     45490.94147     31761.87545  23828029.0234                   23828026.7074
        42.2504         34.0004
    -42747.65248    -30183.97748  20675397.7344                   20675396.7344
        49.0004         48.7504
    -64893.69547    -42823.56246  22112862.7344                   22112862.8554
        45.5004         40.5004
 25  8  6  1 14 30.0000000  0  8G16G09G07G04G06G31G03G26
   -470473.75047   -320774.44946  20721062.6644                   20721058.8134
        47.7504         37.2504
   -616108.76247   -445980.88747  21625051.4924                   21625049.8244
        46.5004         45.5004
   -574546.23847   -415889.07445  23466489.5234                   23466488.7734
        43.0004         34.2504
   -448742.25448   -322512.69546  20220910.8054                   20220907.7074
        48.5004         40.0004
   -220094.11346   -146389.91445  24288643.5704                   24288645.0164
        37.0004         32.7504
     59993.07047     43062.18445  23830789.1484                   23830786.7704
        42.5004         34.5004
    -58052.25848    -42109.68048  20672485.6174                   20672484.4614
        48.7504         48.7504
    -84979.71947    -58475.03946  22109040.5784                   22109040.3714
        44.7504         40.2504
 25  8  6  1 15  0.0000000  0  8G16G09G07G04G06G31G03G26
   -580710.79347   -406673.41046  20700085.2344                   20700080.8754
        47.7504         37.0004
   -771505.45747   -567069.16847  21595480.3134                   21595479.0824
        47.0004         45.5004
   -728416.54747   -535787.87145  23437209.1564                   23437207.8444
        43.2504         35.2504
   -549739.32448   -401211.71146  20201691.9064                   20201688.3134
        48.0004         40.2504
   -288576.35946   -199752.74245  24275612.0234                   24275613.7384
        36.7504         31.7504
     74253.14846     54173.88345  23833502.9614                   23833500.6214
        41.5004         34.5004
    -73130.66848    -53859.14148  20669615.8674                   20669614.8794
        48.7504         48.7504
   -104825.56647    -73939.35946  22105264.5234                   22105263.7504
        44.7504         40.5004
 25  8  6  1 15 30.0000000  0  8G16G09G07G04G06G31G03G26
    884903.76647    735363.94546  20978982.4304                   20978978.3984
        47.5004         37.0004
    648421.62147    539367.57047  21865684.0234                   21865682.1484
        47.0004         45.7504
    693107.05147    571892.97345  23707715.6804                   23707714.8834
        43.5004         35.7504
    924717.47747    747715.65646  20482271.7034                   20482268.3634
        47.5004         39.5004
   1218632.11746    974695.36745  24562423.8054                   24562425.9264
        36.0004         31.0004
   1663715.43847   1292715.86745  24135967.6724                   24135964.9884
        42.7504         34.5004
   1487461.80147   1162186.89548  20966586.9774                   20966586.1094
        47.5004         48.5004
   1451013.24247   1138402.54346  22401330.5634                   22401330.2934
        44.2504         40.2504
 25  8  6  1 16  0.0000000  0  8G16G09G07G04G06G31G03G26
    775552.99247    650155.59046  20958173.3364                   20958169.4534
        47.2504         37.2504
    492852.44147    418144.87947  21836079.5234                   21836078.0044
        46.5004         45.5004
    539203.93047    451968.62946  23678429.3914                   23678428.4224
        42.5004         36.7504
    823811.59847    669087.69946  20463069.7584                   20463066.6484
        47.0004         39.5004
   1150714.39145    921772.43845  24549499.6094                   24549502.3594
        35.5004         32.2504
   1677568.60946   1303510.48845  24138604.4534                   24138600.9844
        41.5004         34.0004
   1472911.28947   1150848.79748  20963818.0164                   20963817.0514
        47.7504         48.5004
   1431722.13347   1123370.47746  22397659.3984                   22397659.4454
        43.7504         40.0004
 25  8  6  1 16 30.0000000  0  8G16G09G07G04G06G31G03G26
    666690.35247    565327.59846  20937457.8914                   20937453.0554
        47.2504         37.5004
    337242.22347    296890.22347  21806468.3914                   21806466.6134
        46.5004         45.7504
    385328.14847    332065.57046  23649147.3984                   23649146.4264
        44.0004         36.5004
    722996.20347    590530.25046  20443885.3204                   20443881.9024
        47.5004         40.0004
   1083120.25446    869101.66845  24536637.2894                   24536639.4414
        36.5004         32.7504
   1691259.75446   1314178.82845  24141208.9844                   24141206.6724
        41.0004         34.5004
   1458665.17248   1139747.87948  20961107.1414                   20961106.4694
        48.0004         48.2504
   1412748.37947   1108585.70346  22394049.5084                   22394048.9574
        44.7504         40.0004
 25  8  6  1 17  0.0000000  0  8G16G09G07G04G06G31G03G26
    558336.09847    480895.75446  20916838.7894                   20916834.6174
        46.7504         36.7504
    181610.93447    175619.14147  21776852.3444                   21776851.2074
        47.0004         45.7504
    231498.47747    212198.41046  23619874.5634                   23619873.3484
        43.7504         36.5004
    622291.11347    512058.74646  20424721.7114                   20424718.5204
        47.2504         39.7504
   1015866.97346    816696.46145  24523839.7344                   24523841.0004
        36.0004         31.0004
   1704805.95346   1324734.23845  24143786.8914                   24143784.1024
        40.5004         34.5004
   1444740.25048   1128897.24648  20958457.1804                   20958456.4694
        48.0004         48.2504
   1394108.30547   1094060.94946  22390501.8444                   22390501.4574
        44.5004         39.7504
 25  8  6  1 17 30.0000000  0  8G16G09G07G04G06G31G03G26
    450485.35947    396856.26646  20896315.3054                   20896311.2234
        47.2504         36.5004
     25954.13747     54328.19147  21747231.7734                   21747230.5554
        47.0004         46.0004
     77709.82047     92363.23846  23590609.4384                   23590608.3284
        43.7504         37.2504
    521691.56347    433669.50046  20405578.3834                   20405574.9344
        47.0004         39.5004
    948947.43046    764551.32845  24511105.6564                   24511107.0314
        37.0004         33.2504
   1718200.14546   1335171.19945  24146335.8204                   24146333.6764
        41.5004         33.7504
   1431128.80948   1118290.88348  20955867.3834                   20955866.1374
        48.0004         48.2504
   1375793.88347   1079789.94946  22387017.0164                   22387016.4964
        44.0004         39.5004
 25  8  6  1 18  0.0000000  0  8G16G09G07G04G06G31G03G26
    343126.16848    313199.79746  20875885.5634                   20875881.1134
        48.0004         37.2504
   -129740.05947    -66991.91847  21717604.4064                   21717602.5784
        46.5004         46.0004
    -76051.30947    -27450.49246  23561349.5234                   23561347.8404
        44.0004         37.5004
    421185.49647    355353.09046  20386452.4844                   20386449.0274
        47.0004         40.0004
    882346.90246    712654.78545  24498431.3674                   24498433.1994
        36.7504         32.2504
   1731427.87946   1345478.44545  24148852.6724                   24148850.6334
        41.2504         33.0004
   1417815.69548   1107916.98848  20953333.7734                   20953332.8404
        48.7504         48.5004
   1357789.67647   1065760.67646  22383591.3054                   22383590.1374
        44.5004         39.5004
 25  8  6  1 18 30.0000000  0  8G16G09G07G04G06G31G03G26
    236257.40647    229925.48446  20855549.1884                   20855544.5634
        47.5004         36.7504
   -285472.65247   -188341.93447  21687969.7894                   21687967.6954
        46.2504         46.0004
   -229787.05547   -147244.43446  23532094.1804                   23532092.5204
        43.7504         38.0004
    320771.69147    277108.56346  20367344.4774                   20367341.2624
        47.5004         40.0004
    816061.79746    661004.02045  24485818.3444                   24485819.7584
        36.7504         32.0004
   1744485.45346   1355653.08645  24151338.1804                   24151335.7814
        41.2504         33.0004
   1404796.68848   1097772.26248  20950856.4224                   20950855.6294
        48.0004         48.2504
   1340090.96147   1051969.44946  22380222.8674                   22380222.4574
        44.0004         39.2504
 25  8  6  1 19  0.0000000  0  8G16G09G07G04G06G31G03G26
    129890.89547    147042.53546  20835308.1024                   20835303.3954
        47.7504         36.7504
   -441231.51647   -309712.43447  21658329.3204                   21658327.3714
        47.0004         46.0004
   -383485.84047   -267009.57046  23502846.1484                   23502844.4884
        44.5004         38.2504
    220462.04748    198945.21546  20348256.1414                   20348252.9614
        48.0004         40.0004
    750101.39546    609606.26245  24473266.2974                   24473267.6994
        38.0004         32.7504
   1757382.54746   1365702.69545  24153791.8674                   24153789.9734
        40.7504         32.7504
   1392080.65248   1087863.61748  20948436.9144                   20948435.6334
        48.2504         48.0004
   1322706.43047   1038423.03146  22376914.6804                   22376914.5554
        44.2504         39.5004
 25  8  6  1 19 30.0000000  0  8G16G09G07G04G06G31G03G26
     24032.89547     64555.82446  20815164.5004                   20815159.3484
        46.7504         37.0004
   -597010.09447   -431098.28147  21628685.5634                   21628683.8914
        47.0004         46.0004
   -537142.96947   -386742.25046  23473605.7974                   23473604.4614
        45.2504         38.7504
    120262.85247    120867.92646  20329188.7034                   20329185.6414
        46.7504         40.0004
    684469.52046    558464.50045  24460777.4924                   24460778.8554
        37.7504         33.5004
   1770122.87946   1375630.12545  24156216.2344                   24156214.1954
        40.0004         32.5004
   1379670.72347   1078193.50848  20946075.2734                   20946074.5004
        47.2504         48.0004
   1305638.78147   1025123.54346  22373667.0784                   22373666.2114
        44.5004         39.2504
 25  8  6  1 20  0.0000000  0  8G16G09G07G04G06G31G03G26
    -81308.83647    -17528.59846  20795117.8134                   20795113.3244
        47.0004         36.7504
   -752800.00047   -552492.96947  21599039.6094                   21599037.8014
        47.0004         46.7504
   -690751.00447   -506436.68446  23444375.1254                   23444373.8484
        44.5004         38.5004
     20182.20747     42883.01646  20310144.2344                   20310140.6884
        47.5004         40.0004
    619171.60546    507582.96945  24448350.8754                   24448352.9924
        37.5004         33.0004
   1782712.07846   1385439.79745  24158612.6174                   24158610.0274
        39.7504         32.5004
   1367571.96948   1068765.84848  20943772.6724                   20943772.2584
        48.0004         48.0004
   1288892.78147   1012074.69146  22370480.1024                   22370479.7274
        43.7504         39.5004
 25  8  6  1 20 30.0000000  0  8G16G09G07G04G06G31G03G26
   -186127.92647    -99205.77046  20775171.6804                   20775166.9384
        46.5004         37.2504
   -908594.78547   -673891.45347  21569393.0784                   21569391.3674
        47.0004         46.5004
   -844304.32847   -626088.45746  23415154.2664                   23415153.4614
        44.0004         38.5004
    -79773.68447    -35004.68746  20291123.1254                   20291119.7544
        47.0004         40.5004
    554211.27346    456964.49245  24435989.9694                   24435990.9414
        37.7504         32.7504
   1795154.30546   1395134.96545  24160979.4224                   24160977.9494
        39.2504         31.2504
   1355787.50847   1059583.11348  20941530.2814                   20941529.4184
        47.7504         48.0004
   1272471.14547    999278.58246  22367355.4774                   22367355.2194
        44.2504         39.5004
 25  8  6  1 21  0.0000000  0  8G16G09G07G04G06G31G03G26
   -290415.31247   -180468.61746  20755326.1414                   20755321.7114
        47.5004         36.7504
  -1064385.52047   -795286.77347  21539746.8754                   21539744.6684
        46.0004         46.5004
   -997795.42647   -745691.76246  23385947.5314                   23385945.3324
        44.2504         39.0004
   -179596.09047   -112788.37146  20272127.7584                   20272123.7894
        47.0004         40.0004
    489594.71546    406613.88745  24423693.8524                   24423695.1524
        36.5004         32.7504
   1807455.56646   1404720.27045  24163321.3444                   24163318.9224
        41.0004         31.2504
   1344322.85247   1050649.56348  20939348.7584                   20939348.2274
        47.7504         48.0004
   1256379.16047    986739.35246  22364293.5234                   22364292.4884
        44.7504         40.2504
 25  8  6  1 21 30.0000000  0  8G16G09G07G04G06G31G03G26
   -394165.62947   -261312.98446  20735583.3984                   20735578.6684
        47.5004         37.0004
  -1220165.64547   -916673.84047  21510102.7894                   21510100.8404
        46.5004         46.0004
  -1151218.76247   -865242.26246  23356751.1884                   23356749.4024
        45.0004         38.0004
   -279278.78147   -190463.19546  20253158.7194                   20253155.1054
        47.0004         40.5004
    425325.44546    356533.87145  24411463.2114                   24411464.9264
        37.7504         33.5004
   1819620.10246   1414199.04345  24165636.7034                   24165633.6484
        40.0004         32.0004
   1333181.20347   1041967.71947  20937228.3674                   20937227.5704
        47.2504         47.7504
   1240619.58247    974459.14146  22361294.7664                   22361293.9414
        44.2504         40.5004
 25  8  6  1 22  0.0000000  0  8G16G09G07G04G06G31G03G26
   -497374.93447   -341735.78146  20715943.3054                   20715938.3444
        47.0004         37.0004
  -1375930.92247  -1038049.32847  21480461.4774                   21480459.7544
        46.5004         45.7504
  -1304571.68747   -984737.87146  23327568.6024                   23327567.0634
        44.2504         38.0004
   -378817.73447   -268026.00446  20234216.8674                   20234213.4694
        47.5004         40.0004
    361404.77746    306725.52045  24399299.9454                   24399301.6914
        37.0004         33.0004
   1831649.35246   1423572.40245  24167925.1884                   24167922.8444
        40.7504         31.5004
   1322363.33247   1033538.16447  20935170.2664                   20935169.3404
        46.5004         47.7504
   1225192.87947    962438.30546  22358358.7344                   22358358.4384
        44.5004         40.7504
 25  8  6  1 22 30.0000000  0  8G16G09G07G04G06G31G03G26
   -600038.65247   -421733.44946  20696407.1804                   20696402.1844
        47.5004         36.7504
  -1531676.26647  -1159409.28947  21450824.1644                   21450822.4224
        46.5004         46.2504
  -1457849.97347  -1104175.32046  23298400.7194                   23298398.8524
        43.7504         37.0004
   -478208.17247   -345473.10246  20215303.6094                   20215300.2664
        47.2504         40.2504
    297834.82846    257190.44145  24387202.7974                   24387204.4844
        36.2504         33.7504
   1843545.61346   1432842.12945  24170188.7194                   24170186.2234
        41.5004         31.5004
   1311870.87547   1025362.18847  20933173.2424                   20933172.6054
        47.0004         47.2504
   1210100.44947    950677.94146  22355486.5234                   22355486.2814
        43.7504         40.2504
 25  8  6  1 23  0.0000000  0  8G16G09G07G04G06G31G03G26
   -702148.49647   -501299.53546  20676976.2734                   20676971.7624
        46.5004         37.2504
  -1687392.84847  -1280746.82447  21421192.3524                   21421190.2504
        46.0004         46.5004
  -1611046.46146  -1223549.05546  23269248.5164                   23269246.8484
        41.7504         38.2504
   -577441.60947   -422797.84846  20196420.3444                   20196416.6054
        47.0004         39.7504
    234621.41846    207933.18845  24375174.0164                   24375175.5864
        36.5004         32.7504
   1855315.12146   1442013.10245  24172429.2734                   24172426.1134
        41.5004         31.2504
   1301709.16047   1017443.91847  20931239.6334                   20931239.0204
        46.5004         47.5004
   1195347.22747    939181.89546  22352679.1724                   22352679.0084
        44.7504         40.0004
 25  8  6  1 23 30.0000000  0  8G16G09G07G04G06G31G03G26
   -803701.14847   -580431.44146  20657651.0474                   20657646.3794
        45.5004         37.7504
  -1843076.98047  -1402059.08647  21391566.7664                   21391564.6374
        45.5004         47.0004
  -1764158.26646  -1342856.79746  23240111.5004                   23240110.1024
        40.7504         36.2504
   -676514.65247   -499997.62146  20177567.2114                   20177563.3014
        45.5004         40.0004
    171765.20346    158954.24645  24363212.8674                   24363214.6414
        36.7504         33.0004
   1866959.09446   1451086.23845  24174644.5704                   24174642.0944
        41.7504         31.7504
   1291878.36347   1009783.52347  20929369.0164                   20929367.8484
        47.7504         47.2504
   1180933.12947    927950.09846  22349936.3444                   22349935.8524
        44.5004         40.0004
 25  8  6  1 24  0.0000000  0  8G16G09G07G04G06G31G03G26
   -904690.97347   -659124.78546  20638433.5704                   20638429.2234
        45.5004         36.7504
  -1998722.21147  -1523341.03947  21361948.1334                   21361946.4144
        46.5004         47.0004
  -1917180.57847  -1462094.77046  23210992.7734                   23210990.6024
        43.5004         37.0004
   -775421.04347   -577067.53946  20158745.7814                   20158742.3524
        45.0004         40.0004
    109269.68445    110256.37145  24351319.7664                   24351321.2734
        35.5004         32.0004
   1878481.39546   1460064.55145  24176837.3134                   24176834.0394
        40.7504         31.2504
   1282381.45347   1002383.30147  20927561.4844                   20927561.1804
        47.5004         47.0004
   1166860.76647    916984.60546  22347258.8754                   22347258.3914
        45.5004         40.0004
 25  8  6  1 24 30.0000000  0  8G16G09G07G04G06G31G03G26
    570310.42647    490226.96546  20919116.6024                   20919112.1454
        47.5004         37.0004
   -578897.35547   -416983.95347  21632131.7194                   21632129.9414
        45.2504         47.0004
   -494683.33646   -353655.19146  23481684.6724                   23481682.6804
        41.7504         37.0004
    701268.12148    573599.34046  20439750.5164                   20439746.8094
        48.0004         40.5004
   1622559.67246   1289443.35545  24639289.2504                   24639290.9344
        36.7504         33.2504
   3465305.00446   2696550.39145  24478799.9614                   24478797.0044
        41.5004         31.0004
   2848641.18047   2222845.37147  21225611.2584                   21225610.2544
        47.5004         47.2504
   2728552.74647   2133887.42246  22644438.8674                   22644438.3984
        45.2504         40.0004
 25  8  6  1 25  0.0000000  0  8G16G09G07G04G06G31G03G26
    470463.96947    412424.56346  20900116.7274                   20900112.2704
        47.7504         36.7504
   -734444.87147   -538189.75047  21602531.6954                   21602529.9534
        45.7504         46.5004
   -647510.23847   -472740.93746  23452602.6094                   23452600.2384
        44.0004         37.2504
    602713.87147    496803.82446  20420996.5314                   20420992.9064
        47.7504         40.5004
   1560796.02746   1241315.76245  24627536.6254                   24627537.6954
        36.5004         32.0004
   3476595.93446   2705348.40645  24480948.0004                   24480946.2894
        40.5004         30.7504
   2839821.30947   2215972.71147  21223932.9384                   21223932.4144
        47.5004         47.2504
   2715172.21947   2123461.00046  22641892.5084                   22641892.2544
        45.5004         39.7504
 25  8  6  1 25 30.0000000  0  8G16G09G07G04G06G31G03G26
    371197.82047    335074.34046  20881226.7584                   20881222.3284
        47.0004         37.0004
   -889934.16847   -659350.18447  21572943.4694                   21572941.6414
        45.5004         46.7504
   -800232.07047   -591744.76246  23423540.1024                   23423538.2624
        43.5004         37.0004
    504344.60547    420152.44946  20402277.1254                   20402273.5044
        47.0004         40.0004
   1499403.13346   1193477.09045  24615853.7974                   24615855.3364
        36.5004         33.0004
   3487776.60546   2714060.52045  24483075.5004                   24483074.0664
        40.5004         32.0004
   2831343.92648   2209366.90647  21222319.6334                   21222318.9844
        48.0004         47.5004
   2702141.16847   2113306.90246  22639412.9064                   22639412.3244
        44.7504         39.2504
 25  8  6  1 26  0.0000000  0  8G16G09G07G04G06G31G03G26
    272515.33647    258178.91446  20862448.3754                   20862443.5514
        46.5004         37.0004
  -1045360.66847   -780461.70347  21543366.8284                   21543364.7734
        46.0004         47.2504
   -952845.71147   -710664.33246  23394498.6254                   23394496.5744
        43.7504         37.0004
    406164.52047    343648.49246  20383593.9304                   20383590.5824
        47.2504         40.2504
   1438382.21146   1145928.31645  24604241.7274                   24604243.1994
        37.0004         32.7504
   3498848.84846   2722688.14145  24485183.4384                   24485181.0394
        41.5004         32.5004
   2823210.07047   2203028.79347  21220771.6724                   21220771.2464
        47.0004         47.0004
   2689460.24647   2103425.62946  22636999.6804                   22636999.4184
        44.5004         39.0004
 25  8  6  1 26 30.0000000  0  8G16G09G07G04G06G31G03G26
    174416.15247    181738.00446  20843780.6334                   20843776.0594
        47.7504         37.2504
  -1200724.16847   -901524.12147  21513802.2114                   21513799.7274
        46.5004         47.2504
  -1105352.10947   -829500.36346  23365477.8054                   23365475.8134
        43.7504         37.2504
    308173.53947    267291.89546  20364947.0394                   20364943.4534
        47.5004         40.0004
   1377730.36846   1098667.09445  24592700.7664                   24592701.6564
        38.5004         33.0004
   3509810.38747   2731229.51245  24487269.0474                   24487266.7664
        42.0004         32.5004
   2815416.21947   2196955.62147  21219288.6334                   21219287.6374
        47.7504         47.0004
   2677125.80147   2093814.34846  22634652.9384                   22634652.5944
        43.7504         39.0004
 25  8  6  1 27  0.0000000  0  8G16G09G07G04G06G31G03G26
     76901.78947    105752.80546  20825224.4304                   20825220.0354
        47.5004         37.2504
  -1356022.22347  -1022535.54347  21484249.3054                   21484247.8874
        45.7504         47.5004
  -1257749.86347   -948251.71946  23336477.7194                   23336475.6804
        44.0004         37.7504
    210373.77347    191084.28946  20346335.9454                   20346333.0164
        47.2504         40.0004
   1317446.97346   1051692.96945  24581228.6724                   24581230.3094
        38.2504         33.0004
   3520661.14846   2739684.55945  24489334.4614                   24489332.1914
        41.5004         32.0004
   2807961.27347   2191146.52347  21217870.2344                   21217869.3404
        46.7504         46.5004
   2665136.34047   2084471.87946  22632371.1564                   22632370.9344
        44.7504         39.0004
 25  8  6  1 27 30.0000000  0  8G16G09G07G04G06G31G03G26
    -20024.01247     30226.22346  20806779.9454                   20806775.5004
        47.0004         38.0004
  -1511249.97347  -1143492.18747  21454710.7424                   21454708.5904
        46.0004         47.0004
  -1410035.94147  -1066916.06646  23307498.5554                   23307495.9264
        44.5004         37.2504
    112769.68047    115029.14846  20327762.8674                   20327758.8754
        47.5004         39.7504
   1257533.46946   1005007.09045  24569827.9844                   24569829.3054
        38.5004         33.0004
   3531403.19946   2748054.90245  24491377.9694                   24491376.3134
        41.2504         32.7504
   2800846.34847   2185602.38747  21216516.0474                   21216515.5474
        46.7504         46.2504
   2653492.73447   2075398.89846  22630155.4384                   22630155.0664
        44.7504         39.0004
 25  8  6  1 28  0.0000000  0  8G16G09G07G04G06G31G03G26
   -116358.77348    -44839.80546  20788448.5164                   20788443.4804
        48.0004         38.0004
  -1666404.15247  -1264391.49247  21425185.6174                   21425184.4224
        47.0004         47.5004
  -1562208.53147  -1185491.99646  23278540.8754                   23278538.4384
        45.0004         37.2504
     15364.25847     39128.82446  20309226.9614                   20309223.4964
        47.0004         40.0004
   1197989.95346    958609.52345  24558497.1174                   24558498.6484
        39.7504         33.5004
   3542037.58646   2756341.34445  24493402.2424                   24493399.7664
        41.2504         31.7504
   2794071.11347   2180322.93047  21215227.1564                   21215226.4654
        47.0004         46.5004
   2642194.34047   2066594.92646  22628005.4694                   22628004.8054
        44.0004         38.0004
 25  8  6  1 28 30.0000000  0  8G16G09G07G04G06G31G03G26
   -212099.98847   -119443.32846  20770228.9454                   20770224.1564
        47.0004         38.2504
  -1821481.47347  -1385230.91847  21395675.9064                   21395674.0744
        47.0004         47.5004
  -1714265.73447  -1303978.02346  23249604.7344                   23249602.8324
        43.5004         37.0004
    -81839.66047    -36614.46946  20290729.7034                   20290726.2734
        46.5004         40.0004
   1138816.46146    912500.27045  24547236.3674                   24547238.2034
        40.0004         34.2504
   3552564.66447   2764544.18045  24495405.6564                   24495403.1174
        42.0004         32.5004
   2787635.02047   2175307.75047  21214002.4774                   21214001.5514
        46.2504         46.5004
   2631240.36747   2058059.34046  22625921.2114                   22625920.3874
        44.0004         38.0004
 25  8  6  1 29  0.0000000  0  8G16G09G07G04G06G31G03G26
   -307241.27047   -193579.38346  20752123.8914                   20752119.6374
        45.0004         38.0004
  -1976474.37547  -1506004.55947  21366181.6724                   21366179.9344
        47.0004         47.5004
  -1866201.11347  -1422369.10946  23220692.5944                   23220690.1254
        44.5004         36.5004
   -178834.81247   -112195.10546  20272272.3284                   20272268.8674
        45.0004         39.7504
   1080017.17646    866682.60545  24536047.8054                   24536049.2154
        40.2504         33.2504
   3562989.68046   2772667.49245  24497389.3204                   24497387.5204
        41.0004         32.0004
   2781542.04747   2170559.93447  21212842.7034                   21212842.3204
        46.7504         46.2504
   2620634.54347   2049795.03146  22623902.3524                   22623902.3554
        44.0004         38.2504
 25  8  6  1 29 30.0000000  0  9G16G09G07G04G06G27G31G03G26
   -401780.35947   -267246.17246  20734134.3054                   20734129.4344
        46.7504         37.2504
  -2131379.58247  -1626709.87147  21336704.2424                   21336701.6254
        46.0004         47.2504
  -2018013.10547  -1540664.05546  23191803.3204                   23191801.1684
        43.5004         37.2504
   -275618.37547   -187610.85246  20253854.7584                   20253851.6644
        46.5004         40.0004
   1021592.02746    821156.47345  24524930.0394                   24524931.6054
        40.7504         32.5004
   2944871.02756   2357835.08655  25002980.8754                   25002986.3754
        39.7504         31.7504
   3573313.22746   2780711.75445  24499353.6094                   24499351.2504
        41.5004         32.5004
   2775791.66047   2166079.06347  21211748.7504                   21211747.7894
        46.2504         46.0004
   2610375.97747   2041801.32046  22621950.6174                   22621950.1564
        44.0004         38.0004
 25  8  6  1 30  0.0000000  0  9G16G09G07G04G06G27G31G03G26
   -495718.19947   -340444.47346  20716258.3054                   20716253.5594
        47.0004         37.0004
  -2286196.94147  -1747346.72747  21307242.9844                   21307241.4264
        46.5004         47.2504
  -2169702.64147  -1658863.59446  23162938.2424                   23162935.6994
        43.5004         37.5004
   -372190.47347   -262861.82446  20235478.1024                   20235474.5664
        46.5004         40.0004
    963537.89146    775919.43845  24513882.5864                   24513884.1374
        40.0004         33.0004
   2772864.76246   2223804.45345  24970248.6024                   24970253.4734
        38.0004         31.0004
   3583532.81646   2788675.00445  24501298.3364                   24501296.3984
        41.5004         33.2504
   2770380.21547   2161862.30147  21210718.7894                   21210717.5274
        46.2504         46.0004
   2600460.91847   2034075.27346  22620063.5164                   22620063.4264
        43.2504         37.5004
 25  8  6  1 30 30.0000000  0  9G16G09G07G04G06G27G31G03G26
   -589060.37147   -413178.61346  20698495.6334                   20698490.8444
        45.5004         37.2504
  -2440930.64547  -1867918.39847  21277798.0944                   21277796.0864
        46.5004         47.5004
  -2321275.46947  -1776972.18446  23134094.5474                   23134092.2544
        44.5004         38.5004
   -468555.75847   -337951.65246  20217140.2034                   20217136.6024
        46.5004         39.7504
    905847.16446    730965.58645  24502904.2274                   24502906.1994
        39.2504         32.5004
   2600788.02746   2089718.95744  24937503.7734                   24937508.1804
        38.2504         29.7504
   3593641.53546   2796551.84045  24503221.2664                   24503220.3244
        40.5004         32.5004
   2765299.81347   2157903.50447  21209752.1414                   21209751.2664
        45.7504         46.0004
   2590881.09447   2026610.44946  22618240.9454                   22618240.6254
        43.5004         37.7504
 25  8  6  1 31  0.0000000  0  9G16G09G07G04G06G27G31G03G26
   -681802.26647   -485444.99646  20680847.6334                   20680842.6644
        45.5004         36.7504
  -2595575.22347  -1988420.62947  21248370.3674                   21248368.0044
        45.7504         47.5004
  -2472727.68047  -1894986.81246  23105273.8134                   23105271.2154
        44.0004         38.0004
   -564709.18047   -412876.38746  20198843.0394                   20198839.3164
        47.0004         40.0004
    848521.91046    686296.50845  24491996.2344                   24491996.9264
        40.0004         33.0004
   2428647.97346   1955584.07044  24904747.7894                   24904751.2664
        39.5004         29.0004
   3603642.20346   2804344.47345  24505124.5704                   24505123.1684
        40.7504         32.5004
   2760552.05147   2154203.90247  21208848.8914                   21208847.7774
        46.0004         46.0004
   2581637.89847   2019407.94946  22616481.7424                   22616481.8284
        43.2504         37.2504
 25  8  6  1 31 30.0000000  0  9G16G09G07G04G06G27G31G03G26
   -773940.68447   -557241.14146  20663314.2814                   20663309.2974
        45.5004         37.2504
  -2750126.15647  -2108849.88747  21218960.2504                   21218957.8324
        47.0004         47.2504
  -2624056.18447  -2012905.02746  23076477.4384                   23076474.6024
        44.2504         38.0004
   -660646.53947   -487632.76246  20180586.4224                   20180583.1724
        45.7504         40.0004
    791563.27746    641913.10945  24481156.8364                   24481158.7194
        39.0004         32.0004
   2256450.89846   1821404.77344  24871979.7664                   24871982.5124
        38.5004         28.2504
   3613536.97746   2812054.59845  24507008.4144                   24507006.3324
        40.5004         32.7504
   2756137.71147   2150764.11747  21208008.8914                   21208007.6804
        46.0004         45.5004
   2572731.84847   2012468.15246  22614787.2424                   22614786.6174
        43.2504         37.5004
 25  8  6  1 32  0.0000000  0  9G16G09G07G04G06G27G31G03G26
   -865473.34047   -628565.25446  20645896.0704                   20645891.4064
        46.2504         37.5004
  -2904579.84847  -2229203.39147  21189568.3054                   21189566.4654
        46.5004         47.2504
  -2775258.96547  -2130725.25846  23047703.8444                   23047701.9304
        44.0004         38.0004
   -756364.74247   -562218.36746  20162371.5164                   20162368.7384
        46.2504         40.2504
    734971.27046    597815.37945  24470387.2274                   24470389.6054
        39.5004         31.7504
   2084202.10945   1687185.12544  24839199.6174                   24839204.7114
        34.5004         25.7504
   3623326.98846   2819683.07045  24508871.7734                   24508869.3834
        41.0004         32.2504
   2752056.44147   2147583.85947  21207232.5634                   21207231.5664
        46.5004         45.7504
   2564162.34847   2005790.60946  22613156.2894                   22613156.0594
        43.7504         38.7504
 25  8  6  1 32 30.0000000  0  9G16G09G07G04G06G27G31G03G26
   -956395.43047   -699413.61346  20628594.0314                   20628589.5234
        46.5004         37.5004
  -3058930.23447  -2349476.37947  21160196.6334                   21160194.6724
        46.0004         47.5004
  -2926331.43747  -2248443.97746  23018955.7664                   23018952.8954
        43.5004         38.0004
   -851858.11347   -636628.78946  20144200.2194                   20144196.5824
        46.2504         40.0004
    678748.59046    554005.45545  24459689.2734                   24459691.1604
        40.2504         33.2504
   1911909.24645   1552931.23844  24806413.8674                   24806418.0634
        35.0004         24.0004
   3633015.74246   2827232.66845  24510714.4614                   24510713.0904
        39.7504         31.7504
   2748310.48447   2144664.88747  21206519.8984                   21206518.8874
        46.0004         45.7504
   2555931.44547   1999376.91046  22611590.5004                   22611589.7664
        44.0004         39.0004
 25  8  6  1 33  0.0000000  0  9G16G09G07G04G06G27G31G03G26
    528717.28147    457817.09446  20911201.7814                   20911197.1254
        46.0004         37.2504
  -1637749.77347  -1242062.99648  21430638.5004                   21430636.5474
        46.0004         48.0004
  -1501847.67647  -1138456.53546  23290025.6884                   23290023.1414
        42.7504         38.0004
    628298.52747    516740.02746  20425864.7664                   20425861.0984
        46.2504         39.7504
   2198315.88746   1738083.82845  24748852.8754                   24748855.0354
        39.5004         31.5004
   3315002.32045   2646250.79743  25073413.1254                   25073417.2664
        35.2504         22.5004
   5218022.45346   4062302.73445  24812331.5004                   24812329.9144
        39.7504         31.0004
   4320318.50047   3369606.14147  21505662.6724                   21505661.3754
        45.5004         45.5004
   4123457.63747   3220825.87546  22909880.6564                   22909880.6804
        43.5004         38.2504
 25  8  6  1 33 30.0000000  0  9G16G09G07G04G06G27G31G03G26
    439022.03547    387924.72746  20894133.2584                   20894128.6724
        46.5004         37.5004
  -1791883.85547  -1362167.44148  21401307.5314                   21401306.0704
        45.7504         48.0004
  -1652654.14547  -1255967.96946  23261328.4774                   23261325.9344
        44.0004         38.0004
    533263.25447    442686.56646  20407780.1174                   20407776.3874
        46.0004         40.0004
   2142830.92646   1694848.74245  24738294.6094                   24738296.6024
        40.0004         31.0004
   3142636.43846   2511939.95343  25040612.6254                   25040616.9924
        36.7504         23.7504
   5227510.40646   4069695.85945  24814137.9064                   24814135.6024
        39.5004         30.7504
   4317241.25847   3367208.23847  21505077.3444                   21505076.2854
        46.0004         45.7504
   4115901.28147   3214937.78946  22908442.9064                   22908442.5944
        43.5004         38.0004
 25  8  6  1 34  0.0000000  0  9G16G09G07G04G06G27G31G03G26
    349943.77347    318513.12546  20877182.0164                   20877177.3404
        46.5004         37.7504
  -1945904.21147  -1482183.27047  21371998.1884                   21371996.6604
        46.5004         47.7504
  -1803324.43047  -1373373.30946  23232656.6414                   23232653.7234
        43.0004         37.5004
    438461.93447    368815.40646  20389740.0864                   20389736.4804
        45.5004         40.2504
   2087715.10946   1651901.31644  24727806.0784                   24727808.1724
        40.0004         29.7504
   2970242.19546   2377606.98044  25007807.5634                   25007810.7734
        37.0004         25.0004
   5236899.75446   4077012.15644  24815925.3444                   24815922.2814
        40.7504         29.5004
   4314498.11347   3365070.68047  21504555.1644                   21504554.0314
        46.2504         45.5004
   4108681.52047   3209311.96946  22907069.0084                   22907068.5274
        43.2504         38.7504
 25  8  6  1 34 30.0000000  0  9G16G09G07G04G06G27G31G03G26
    261483.96947    249583.43846  20860348.5864                   20860343.8094
        46.0004         37.5004
  -2099807.77047  -1602108.09047  21342711.4224                   21342709.3404
        46.5004         47.7504
  -1953857.07047  -1490671.36746  23204011.3204                   23204008.8244
        43.0004         38.0004
    343897.21147    295128.60546  20371745.0084                   20371741.7274
        46.7504         39.5004
   2032967.90246   1609241.08245  24717388.0084                   24717390.2384
        40.7504         32.0004
   2797824.22346   2243255.50444  24974997.1174                   24975000.2734
        37.0004         26.7504
   5246191.09046   4084252.08644  24817692.3054                   24817690.6024
        40.2504         29.2504
   4312088.15247   3363192.73847  21504097.1884                   21504095.8404
        44.7504         45.2504
   4101797.31347   3203947.63746  22905759.0084                   22905758.8404
        43.5004         38.7504
 25  8  6  1 35  0.0000000  0  9G16G09G07G04G06G27G31G03G26
    173638.91447    181132.76246  20843632.3834                   20843627.5004
        47.2504         36.7504
  -2253596.87147  -1721943.71947  21313446.5084                   21313444.0234
        46.5004         47.5004
  -2104255.90247  -1607865.17646  23175391.1414                   23175388.4884
        43.0004         38.0004
    249566.28147    221623.98446  20353794.1484                   20353790.7664
        46.2504         40.5004
   1978583.41046   1566863.52344  24707039.6254                   24707041.1764
        37.0004         25.5004
   2625381.96146   2108885.10944  24942182.4534                   24942186.4414
        36.7504         26.7504
   5255379.43446   4091411.75044  24819440.1644                   24819439.2584
        38.7504         27.2504
   4310005.10547   3361569.53947  21503700.4144                   21503699.3244
        45.2504         45.2504
   4095242.16847   3198839.70746  22904511.4454                   22904511.3834
        42.5004         38.0004
 25  8  6  1 35 30.0000000  0  9G16G09G07G04G06G27G31G03G26
     86411.90647    113163.69146  20827034.2424                   20827028.7584
        46.0004         37.5004
  -2407266.70747  -1841686.42247  21284204.1884                   21284201.2154
        47.0004         47.5004
  -2254517.41047  -1724951.96546  23146797.4924                   23146795.1374
        44.2504         39.0004
    155473.43447    148304.87946  20335888.5864                   20335885.5004
        46.0004         40.5004
   1924562.87145   1524769.53943  24696759.9774                   24696761.3594
        32.5004         19.5004
   2452921.94146   1974500.95344  24909364.8204                   24909368.0514
        38.7504         27.2504
   5264467.01646   4098492.91044  24821169.5314                   24821167.9654
        38.0004         25.0004
   4308249.81347   3360201.72347  21503366.7734                   21503365.5744
        45.5004         45.2504
   4089016.73047   3193988.69146  22903327.0554                   22903326.8054
        42.0004         38.2504
 25  8  6  1 36  0.0000000  0  9G16G09G07G04G06G27G31G03G26
      -195.02347     45677.79346  20810552.6254                   20810547.9024
        47.7504         37.2504
  -2560813.51247  -1961333.25448  21254985.1484                   21254981.8954
        47.2504         48.0004
  -2404640.15647  -1841930.62546  23118230.0004                   23118227.0084
        43.0004         38.5004
     61622.04747     75173.92646  20318029.9144                   20318025.9884
        45.7504         40.5004
   1870906.22345   1482959.13343  24686550.1724                   24686551.1724
        32.7504         19.0004
   2280449.61746   1840107.13744  24876543.6174                   24876547.1994
        38.0004         27.5004
   5273454.69146   4105496.20744  24822880.4694                   24822878.9224
        37.5004         24.5004
   4306822.07847   3359089.15647  21503094.4224                   21503093.6994
        45.5004         45.0004
   4083120.56347   3189394.24646  22902204.7664                   22902204.3714
        42.2504         38.0004
 25  8  6  1 36 30.0000000  0  9G16G09G07G04G06G27G31G03G26
    -86178.50447    -21322.30546  20794190.6564                   20794185.9064
        46.2504         37.2504
  -2714232.32447  -2080880.35948  21225790.4304                   21225787.6174
        46.2504         48.2504
  -2554620.14547  -1958798.05546  23089689.9224                   23089686.7704
        43.5004         38.7504
    -31983.45347      2234.57046  20300217.6094                   20300213.4844
        46.0004         40.2504
   1817614.89545   1441433.38743  24676408.7974                   24676410.0004
        34.7504         21.5004
   2107971.67646   1705708.92644  24843721.8524                   24843725.5394
        37.7504         29.2504
   5282345.42246   4112423.97744  24824572.1884                   24824570.2934
        36.7504         24.7504
   4305722.80547   3358232.52747  21502885.2034                   21502884.6644
        45.0004         45.0004
   4077554.35247   3185056.91046  22901145.7584                   22901145.4734
        42.0004         38.0004
 25  8  6  1 37  0.0000000  0  9G16G09G07G04G06G27G31G03G26
   -171539.32047    -87837.21146  20777947.3444                   20777942.1484
        46.5004         37.5004
  -2867522.44547  -2200327.17248  21196620.2894                   21196617.5394
        47.0004         48.5004
  -2704458.56247  -2075555.16046  23061176.5784                   23061173.3834
        43.7504         39.2504
   -125342.80947    -70512.98846  20282451.8054                   20282448.0164
        45.5004         40.0004
   1764685.91045   1400190.02742  24666335.6804                   24666338.2584
        31.7504         16.7504
   1935490.45746   1571308.20345  24810900.4224                   24810903.0004
        39.0004         30.5004
   5291137.22746   4119274.66044  24826245.2734                   24826243.6764
        36.2504         24.0004
   4304948.79647   3357629.34947  21502738.2894                   21502737.0824
        45.5004         45.0004
   4072314.74647   3180974.07446  22900148.6254                   22900148.3364
        42.0004         38.0004
 25  8  6  1 37 30.0000000  0  8G16G09G07G04G27G31G03G26
   -256274.61748   -153864.69546  20761822.1414                   20761817.8324
        48.0004         37.2504
  -3020679.38347  -2319670.21548  21167475.3914                   21167473.0084
        47.0004         48.2504
  -2854152.36747  -2192199.59846  23032691.3284                   23032687.7074
        44.0004         39.0004
   -218452.10247   -143065.69146  20264733.0864                   20264729.5204
        46.7504         40.0004
   1763012.22346   1436909.85545  24778078.4064                   24778081.8874
        38.5004         31.2504
   5299832.08246   4126049.77344  24827900.2974                   24827898.7034
        38.5004         25.7504
   4304500.34047   3357279.85547  21502652.8204                   21502652.3554
        45.7504         45.2504
   4067401.92647   3177145.87146  22899214.0234                   22899213.2234
        42.2504         37.2504
 25  8  6  1 38  0.0000000  0  8G16G09G07G04G27G31G03G26
   -340384.33248   -219404.71546  20745816.8594                   20745811.8714
        48.0004         37.0004
  -3173701.16047  -2438907.91848  21138356.2034                   21138354.2664
        46.2504         48.5004
  -3003701.19947  -2308731.04346  23004232.0864                   23004229.0274
        44.2504         38.7504
   -311309.75047   -215422.30146  20247062.8914                   20247059.5664
        47.0004         39.7504
   1590540.71946   1302516.70745  24745256.8984                   24745261.3984
        37.2504         30.5004
   5308429.45346   4132748.94944  24829536.4224                   24829534.5044
        40.0004         29.0004
   4304375.56347   3357182.56347  21502629.2114                   21502628.7154
        44.5004         44.5004
   4062813.68447   3173570.59046  22898340.7894                   22898340.1254
        42.2504         37.7504
 25  8  6  1 38 30.0000000  0  8G16G09G07G04G27G31G03G26
   -423866.54348   -284455.76646  20729930.7734                   20729925.8674
        48.0004         37.0004
  -3326584.45347  -2558037.72348  21109263.0864                   21109261.2274
        46.2504         48.2504
  -3153103.49647  -2425148.30546  22975801.6564                   22975798.7734
        44.5004         39.0004
   -403912.99247   -287580.67246  20229441.4774                   20229437.7114
        46.2504         40.0004
   1418080.84446   1168132.63745  24712439.6804                   24712443.5084
        38.2504         31.5004
   5316929.86346   4139372.56644  24831154.3984                   24831151.7544
        41.0004         29.5004
   4304573.56347   3357336.80547  21502666.7114                   21502666.3674
        46.0004         45.0004
   4058549.07847   3170247.49246  22897529.5474                   22897528.8404
        42.5004         37.2504
 25  8  6  1 39  0.0000000  0  8G16G09G07G04G27G31G03G26
   -506720.91047   -349017.60246  20714164.1804                   20714159.8524
        47.5004         37.7504
  -3479326.87147  -2677057.74248  21080197.6334                   21080195.3834
        46.0004         48.2504
  -3302358.71147  -2541450.95346  22947398.7194                   22947396.6024
        43.0004         39.7504
   -496259.96147   -359539.35246  20211868.3834                   20211864.3014
        45.2504         39.7504
   1245636.77746   1033760.88745  24679624.3834                   24679628.1954
        38.0004         31.0004
   5325333.28946   4145920.59445  24832753.0394                   24832751.0554
        41.2504         30.5004
   4305092.76247   3357741.32047  21502765.7194                   21502765.2074
        45.5004         44.7504
   4054606.24647   3167175.12546  22896778.7734                   22896778.4884
        42.0004         37.2504
 25  8  6  1 39 30.0000000  0  8G16G09G07G04G27G31G03G26
   -588946.19548   -413089.23846  20698517.4844                   20698512.3554
        48.5004         37.5004
  -3631925.27347  -2795965.56248  21051158.9534                   21051156.7774
        47.0004         48.5004
  -3451465.18747  -2657637.68746  22919024.8754                   22919022.0944
        44.2504         39.5004
   -588348.03147   -431296.28546  20194344.8204                   20194341.0124
        46.2504         40.5004
   1073213.24646    899405.11745  24646812.2344                   24646816.0704
        38.7504         31.2504
   5333640.43447   4152393.54745  24834334.8134                   24834332.6484
        42.7504         32.0004
   4305932.12947   3358395.32447  21502925.4384                   21502925.5984
        45.0004         44.5004
   4050984.07847   3164352.61346  22896089.5004                   22896089.2344
        42.0004         36.7504
 25  8  6  1 40  0.0000000  0  8G16G09G07G04G27G31G03G26
   -670544.58647   -476672.38746  20682989.5084                   20682984.8714
        47.7504         38.0004
  -3784380.14147  -2914761.52748  21022148.0704                   21022145.3874
        47.0004         49.0004
  -3600424.98847  -2773710.13346  22890678.6484                   22890676.3674
        44.0004         39.7504
   -680178.22747   -502852.29346  20176869.8364                   20176866.3594
        45.5004         40.7504
    900811.60946    765066.42645  24614005.7424                   24614009.1994
        38.7504         31.0004
   5341848.32446   4158789.18845  24835896.3204                   24835894.2894
        41.2504         31.0004
   4307087.11347   3359295.25047  21503145.5234                   21503145.0234
        45.2504         44.7504
   4047677.79746   3161776.24645  22895460.3204                   22895459.9734
        41.2504         35.5004
 25  8  6  1 40 30.0000000  0  8G16G09G07G04G27G31G03G26
   -751515.20747   -539766.36346  20667581.2974                   20667576.5984
        47.2504         37.2504
  -3936688.52047  -3033443.35948  20993164.5394                   20993162.0234
        46.5004         48.7504
  -3749236.71147  -2889667.19546  22862360.4384                   22862358.3014
        43.7504         39.5004
   -771748.18047   -574205.50046  20159444.7734                   20159441.1414
        47.0004         39.7504
    728436.38346    630748.30144  24581204.2974                   24581207.4064
        38.7504         29.7504
   5349957.32047   4165107.78145  24837440.1804                   24837437.2544
        42.0004         31.7504
   4308556.51647   3360440.18847  21503424.5084                   21503424.1724
        45.5004         44.7504
   4044686.09446   3159445.00045  22894891.5554                   22894890.7384
        41.2504         35.7504
 25  8  6  1 41  0.0000000  0  8G16G09G07G04G27G31G03G26
   -831854.83248   -602368.65246  20652292.9224                   20652288.1914
        48.5004         37.7504
  -4088845.38747  -3152007.11348  20964209.8834                   20964207.5314
        46.7504         49.0004
  -3897897.25047  -3005506.46146  22834071.9614                   22834069.0124
        44.0004         39.7504
   -863053.32447   -645352.36346  20142069.7814                   20142066.0514
        46.5004         40.0004
    556094.36346    496456.02044  24548408.6094                   24548410.9614
        38.2504         29.5004
   5357970.06646   4171351.41045  24838964.3054                   24838962.2974
        41.5004         31.2504
   4310341.23447   3361830.84047  21503764.5164                   21503763.8954
        44.5004         44.0004
   4042009.68446   3157359.44945  22894382.2974                   22894381.4344
        41.5004         35.7504
 25  8  6  1 41 30.0000000  0  8G16G09G07G04G27G31G03G26
   -911565.80947   -664481.09046  20637124.2584                   20637119.6134
        47.5004         37.0004
  -4240851.17247  -3270453.14548  20935283.8524                   20935281.6684
        47.7504         49.0004
  -4046408.77347  -3121229.60246  22805811.1174                   22805807.9964
        44.5004         40.0004
   -954094.65247   -716293.65646  20124744.7974                   20124741.9024
        46.5004         40.2504
    383786.83646    362190.63344  24515618.1724                   24515622.2544
        38.2504         29.0004
   5365883.81346   4177517.87945  24840470.2274                   24840468.2934
        40.7504         30.0004
   4312436.73047   3363463.63347  21504163.3364                   21504163.1414
        44.5004         44.5004
   4039643.91446   3155515.94546  22893931.6094                   22893931.6174
        41.2504         36.0004
 25  8  6  1 42  0.0000000  0  8G16G09G07G04G27G31G03G26
    584778.75847    501501.69946  20921869.4144                   20921864.2424
        47.7504         36.7504
  -2817274.38747  -2161172.50448  21206181.9694                   21206179.8094
        46.5004         49.2504
  -2619341.71947  -2009229.17646  23077372.9534                   23077369.7274
        45.0004         41.0004
    530556.65247    440577.49646  20407264.6644                   20407261.6764
        46.2504         40.0004
   1786947.66846   1455562.93045  24782630.2894                   24782634.6024
        37.0004         30.0004
   6949121.62946   5411209.57445  25141750.8284                   25141748.4064
        41.5004         30.0004
   5890265.08247   4592940.21947  21804414.2894                   21804413.8404
        45.0004         44.5004
   5613010.83246   4381516.09045  23193332.8364                   23193333.3484
        41.2504         35.5004
 25  8  6  1 42 30.0000000  0  8G16G09G07G04G27G31G03G26
    506333.09048    440375.22346  20906942.1954                   20906937.0354
        48.2504         37.2504
  -2968963.51247  -2279371.79348  21177316.1644                   21177314.0234
        46.5004         49.2504
  -2767546.01647  -2124712.91446  23049170.3364                   23049167.2154
        44.5004         40.5004
    440055.64847    370057.23846  20390043.2894                   20390040.0664
        46.0004         40.7504
   1614728.64146   1321366.48444  24749859.5084                   24749862.3554
        38.2504         29.5004
   6956843.80146   5417226.75044  25143219.8594                   25143218.1454
        40.5004         28.0004
   5892983.96147   4595058.76247  21804931.7664                   21804931.4614
        44.7504         44.7504
   5611267.75046   4380157.80145  23193001.8984                   23193001.4884
        41.2504         35.2504
 25  8  6  1 43  0.0000000  0  8G16G09G07G04G27G31G03G26
    428517.43448    379739.66046  20892133.8754                   20892129.3164
        48.2504         37.2504
