     2.11           OBSERVATION DATA    G (GPS)             RINEX VERSION / TYPE
teqc  2019Feb25     K Rivera            20250821 01:11:40UTCPGM / RUN BY / DATE
Linux 2.6.32-573.12.1.x86_64|x86_64|gcc -static|Linux 64|=+ COMMENT
teqc  2019Feb25                         20250821 01:03:35UTCCOMMENT
BIT 2 OF LLI FLAGS DATA COLLECTED UNDER A/S CONDITION       COMMENT
6034                                                        MARKER NAME
                                                            MARKER NUMBER
KMR & KB            University of California, Riverside     OBSERVER / AGENCY
0220340422          TRIMBLE 5700        2.32                REC # / TYPE / VERS
1441040465          TRM57971.00                             ANT # / TYPE
 -2430804.2988 -4657392.9143  3606068.8729                  APPROX POSITION XYZ
        1.2651        0.0000        0.0000                  ANTENNA: DELTA H/E/N
     1     1                                                WAVELENGTH FACT L1/2
     7    L1    L2    C1    P1    P2    S1    S2            # / TYPES OF OBSERV
    18                                                      LEAP SECONDS
 SNR is mapped to RINEX snr flag value [0-9]                COMMENT
  L1 & L2: min(max(int(snr_dBHz/6), 0), 9)                  COMMENT
  2025     7     1    20    10    0.0000000     GPS         TIME OF FIRST OBS
                                                            END OF HEADER
 25  7  1 20 10  0.0000000  0  6G10G15G18G23G27G32
    -44584.40258    -29008.52358  21638657.1954                   21638656.2584
        48.2504         49.7504
    114149.73057     74447.50056  22807082.3364                   22807079.6804
        43.0004         38.0004
     32806.29757     20446.62556  21264815.2894                   21264812.0824
        46.5004         38.0004
     34297.91057     19816.28156  20848965.8364                   20848962.2624
        46.5004         39.0004
    -75504.20357    -48031.26257  22141777.2664                   22141775.8794
        46.2504         44.5004
   -135929.75857    -85438.16456  23083653.6724                   23083654.3524
        45.7504         40.7504
 25  7  1 20 10 30.0000000  0 10G10G15G08G18G23G16G27G24G32G29
    -78560.52348    -55483.42248  21632191.7664                   21632190.8554
        48.0004         50.0004
    202732.94547    143473.36346  22823939.3054                   22823936.4144
        42.2504         36.5004
   -117047.41456    -71539.81654  24751560.6254                   24751563.5314
        36.5004         29.7504
     56649.68847     39025.83646  21269352.3524                   21269349.2464
        46.0004         38.0004
     61711.68847     41177.63746  20854182.6174                   20854179.1524
        46.0004         38.5004
     69780.28555     40411.00452  24575359.1254                   24575358.4144
        35.2504         17.2504
   -132808.62147    -92684.05147  22130872.0784                   22130871.0314
        45.7504         44.5004
    -71635.62956    -43546.03955  23975637.3834                   23975639.3364
        37.5004         30.7504
   -238605.34847   -165445.01646  23064114.8594                   23064116.0434
        45.7504         41.0004
    132734.36755     81178.97354  24701165.0554                   24701168.9614
        35.7504         28.5004
 25  7  1 20 11  0.0000000  0  9G10G15G08G18G23G27G24G32G29
    -18094.44958    -75376.34858  21625746.1564                   21625745.1724
        48.0004         49.7504
     48564.50057    195136.46956  22840832.7344                   22840829.3754
        43.0004         37.7504
                                  24733125.719
        35.750
     11151.33657     51009.29756  21273922.1724                   21273918.9574
        46.2504         39.2504
     14503.54357     56457.03156  20859412.1414                   20859408.6174
        46.0004         39.5004
    -28407.71557   -121952.72757  22120038.8364                   22120037.1804
        45.7504         45.0004
    -15897.32056    -56112.58255  23964445.8914                   23964446.0904
        36.5004         30.5004
    -58098.53557   -227769.75057  23044593.0944                   23044593.9694
        45.7504         42.0004
                                  24722096.258
        38.000
 25  7  1 20 11 30.0000000  0 10G10G15G08G18G23G16G27G24G32G29
    -51743.88347   -101596.68748  21619343.1804                   21619341.9184
        47.7504         49.7504
    137642.70347    264547.98446  22857783.3914                   22857780.5044
        42.7504         36.5004
   -114005.52346   -159957.19954  24714733.2734                   24714736.0784
        36.2504         29.7504
     35456.89847     69948.65646  21278547.5634                   21278544.3014
        46.0004         38.0004
     42169.26647     78014.70746  20864676.7814                   20864673.3634
        46.0004         38.2504
     71316.72355     85902.89552  24597696.5394                   24597697.3754
        34.7504         17.7504
    -84848.63747   -165932.65247  22109298.3444                   22109297.2464
        45.5004         44.2504
    -74369.41046   -101675.19945  23953318.5784                   23953319.9304
        37.2504         30.7504
   -160479.90647   -307547.34446  23025110.3754                   23025111.4184
        46.0004         41.7504
    131693.10946    173196.93054  24743034.4534                   24743036.6954
        37.7504         28.5004
 25  7  1 20 12  0.0000000  0 10G10G15G08G18G23G16G27G24G32G29
    -85158.25848   -127633.85948  21612984.4694                   21612983.3204
        48.2504         50.0004
    227037.02747    334205.83246  22874794.7274                   22874791.9734
        43.2504         37.5004
   -210407.20745   -235075.32844  24696390.1024                   24696391.8204
        35.5004         29.0004
     60067.18047     89125.46946  21283230.8134                   21283227.4924
        47.2504         38.0004
     70031.83247     99725.76646  20869978.9924                   20869975.2424
        46.5004         39.0004
    130337.95745    131893.34442  24608927.8594                   24608929.3554
        34.5004         17.7504
   -140782.40647   -209517.40247  22098654.3914                   22098653.6334
        46.2504         44.5004
   -132481.83246   -146957.52344  23942260.8754                   23942261.5744
        38.7504         29.5004
   -262637.89147   -387150.86746  23005669.9534                   23005671.1844
        46.0004         41.7504
    241764.87146    258966.80544  24763980.3204                   24763983.4844
        38.2504         29.0004
 25  7  1 20 12 30.0000000  0 10G10G15G08G18G23G16G27G24G32G29
   -118332.58248   -153483.98848  21606671.5474                   21606670.3834
        48.0004         50.0004
    316749.66447    404111.69946  22891866.9224                   22891863.4344
        43.0004         36.2504
   -306554.18746   -309994.97744  24678092.8444                   24678095.1884
        36.0004         28.7504
     84988.56347    108544.68846  21287973.5394                   21287969.8014
        46.5004         38.0004
     98095.71147    121593.69946  20875319.3284                   20875316.0704
        46.0004         38.7504
    189584.69945    178059.44142  24620202.3984                   24620203.1214
        35.2504         17.2504
   -196201.46147   -252701.07047  22088108.6094                   22088107.1254
        45.7504         44.5004
   -190225.91045   -191952.85545  23931271.7274                   23931273.4774
        35.7504         31.2504
   -364564.33647   -466573.96946  22986274.5634                   22986275.2854
        46.0004         41.7504
    351886.24246    344775.34844  24784936.3984                   24784938.9384
        38.7504         29.5004
 25  7  1 20 13  0.0000000  0 10G10G15G08G18G23G16G27G24G32G29
   -151253.23848   -179136.44548  21600407.1024                   21600405.8284
        49.0004         50.0004
    406792.18446    474274.63746  22909001.1254                   22908998.3834
        41.7504         36.2504
   -402429.66846   -384703.09444  24659849.0164                   24659850.5234
        36.7504         28.5004
    110235.93847    128217.93846  21292777.7584                   21292774.1914
        46.5004         37.7504
    126374.02047    143628.71546  20880700.2344                   20880697.1454
        46.0004         39.0004
    249068.13746    224410.08642  24631521.5084                   24631522.2194
        36.2504         16.7504
   -251089.73447   -295471.14147  22077663.9614                   22077662.4184
        45.5004         44.5004
   -247584.38946   -236647.71145  23920356.8984                   23920358.5044
        38.2504         31.5004
   -466242.59447   -545803.68746  22966925.3204                   22966926.3134
        45.5004         41.5004
    462068.67646    430631.47745  24805902.7034                   24805906.2704
        39.0004         30.7504
 25  7  1 20 13 30.0000000  0 10G10G15G08G18G23G16G27G24G32G29
   -183927.43748   -204596.85948  21594189.1564                   21594188.3014
        48.0004         50.0004
    497155.14846    544687.27045  22926196.3204                   22926193.7934
        41.5004         35.7504
   -498037.65245   -459202.74644  24641654.7194                   24641656.7034
        35.0004         26.2504
    135803.37147    148140.57846  21297642.8364                   21297639.5744
        45.7504         37.7504
    154858.96147    165824.75046  20886120.9224                   20886117.1684
        47.5004         38.5004
    308778.83246    270937.74642  24642884.6024                   24642884.9884
        36.2504         17.2504
   -305452.00047   -337831.33647  22067318.8914                   22067317.4104
        46.0004         44.2504
   -304561.02346   -281045.01645  23909514.0084                   23909515.8094
        36.7504         32.2504
   -567676.84447   -624843.25446  22947623.0164                   22947624.0784
        46.2504         41.7504
    572303.15246    516528.14144  24826880.6334                   24826883.1414
        39.7504         29.7504
 25  7  1 20 14  0.0000000  0 10G10G15G08G18G23G16G27G24G32G29
   -216356.18748   -229866.01248  21588018.1804                   21588016.9734
        48.0004         50.2504
    587835.49647    615347.21145  22943452.6254                   22943450.2584
        42.0004         35.5004
   -593375.89545   -533492.19144  24623512.5164                   24623514.4104
        35.2504         27.0004
    161691.21947    168312.89146  21302569.2734                   21302565.8954
        46.5004         38.5004
    183549.03947    188180.62946  20891580.8204                   20891576.7074
        46.0004         38.2504
    368713.54346    317639.98042  24654290.2274                   24654289.7814
        37.0004         17.2504
   -359286.82047   -379780.53147  22057074.3054                   22057072.7854
        45.7504         44.2504
   -361153.10546   -325142.66445  23898745.2034                   23898747.1254
        39.0004         32.5004
   -668864.95747   -703691.03946  22928367.3444                   22928368.2814
        46.0004         41.5004
    682587.32046    602463.53544  24847866.6954                   24847869.8794
        39.5004         29.0004
 25  7  1 20 14 30.0000000  0 10G10G15G08G18G23G16G27G24G32G29
   -248557.79348   -254958.16848  21581890.6484                   21581889.2344
        48.5004         50.5004
    678812.63346    686238.37946  22960765.1804                   22960762.6884
        40.7504         36.0004
   -688459.40645   -607583.17644  24605418.6884                   24605420.2074
        35.2504         28.0004
    187882.46547    188721.62146  21307553.2894                   21307550.3954
        47.0004         38.0004
    212425.48047    210681.73846  20897075.5164                   20897071.9574
        47.0004         38.7504
    428851.65646    364500.71142  24665734.1954                   24665733.6524
        37.0004         16.2504
   -412610.03147   -421331.07447  22046926.9614                   22046925.9734
        46.7504         45.5004
   -417375.50046   -368952.25445  23888045.6024                   23888048.5394
        38.5004         33.0004
   -769822.19947   -782358.90646  22909155.6334                   22909156.5314
        45.0004         41.5004
    792901.06646    688421.93444  24868858.9534                   24868862.6334
        39.0004         29.0004
 25  7  1 20 15  0.0000000  0 10G10G15G08G18G23G16G27G24G32G29
   -280506.04348   -279852.89848  21575811.1414                   21575810.0394
        48.5004         50.2504
    770110.49246    757379.48846  22978138.5084                   22978136.5164
        41.0004         36.5004
   -783258.94545   -681452.91044  24587379.2664                   24587380.5904
        35.7504         26.0004
    214404.54747    209388.14546  21312600.2034                   21312597.1644
        46.5004         38.0004
    241513.91847    233348.03146  20902610.7664                   20902607.3054
        47.7504         38.7504
    489216.79346    411538.35243  24677220.2194                   24677221.2624
        36.7504         19.0004
   -465393.07047   -462460.68747  22036883.2734                   22036881.8874
        46.5004         45.2504
   -473198.30546   -412450.49645  23877423.0004                   23877425.0044
        41.2504         34.0004
   -870519.29347   -860824.07846  22889994.0864                   22889994.3754
        45.7504         41.0004
    903268.44146    774422.17244  24889861.3134                   24889864.1334
        38.5004         27.0004
 25  7  1 20 15 30.0000000  0 10G10G15G08G18G23G16G27G24G32G29
   -312198.59848   -304548.38748  21569780.1094                   21569778.8554
        48.0004         50.5004
    861729.15647    828770.56346  22995572.9454                   22995570.5274
        42.0004         37.7504
   -877768.91845   -755096.97744  24569394.0554                   24569396.0664
        35.5004         27.5004
    241261.14847    230315.34046  21317711.0234                   21317707.9414
        46.2504         37.7504
    270816.23847    256180.99646  20908186.9614                   20908183.5004
        47.5004         38.7504
    549809.28546    458753.13342  24688751.3594                   24688751.7504
        37.0004         17.7504
   -517631.18447   -503165.70347  22026942.6094                   22026941.1764
        47.5004         45.5004
   -528615.68746   -455632.82045  23866878.3364                   23866879.2034
        41.5004         34.7504
   -970950.85247   -939082.34446  22870882.0394                   22870882.7624
        45.5004         41.2504
   1013690.12946    860464.70744  24910873.4144                   24910876.8914
        39.0004         26.7504
 25  7  1 20 16  0.0000000  0 10G10G15G08G18G23G16G27G24G32G29
   -343632.82448   -329042.57848  21563798.4384                   21563797.1914
        49.2504         50.5004
    953669.07846    900411.98046  23013068.9224                   23013066.5164
        41.2504         36.7504
   -971983.37545   -828510.75844  24551465.7974                   24551467.5944
        35.5004         26.7504
    268456.18047    251506.24646  21322886.3364                   21322883.1294
        45.7504         38.0004
    300334.63747    279182.32046  20913804.2734                   20913800.6134
        46.0004         39.0004
    610629.62946    506145.48843  24700325.5704                   24700324.9734
        37.0004         18.2504
   -569319.30547   -543442.15247  22017106.6174                   22017105.0984
        46.5004         45.2504
   -583621.43746   -498494.38745  23856410.9064                   23856411.9614
        41.2504         35.5004
  -1071111.14547  -1017129.23046  22851822.0234                   22851822.7704
        45.7504         41.5004
   1124167.44946    946550.59444  24931897.3054                   24931900.5864
        39.5004         27.0004
 25  7  1 20 16 30.0000000  0 10G10G15G08G18G23G16G27G24G32G29
   -374812.16848   -353338.16448  21557864.8914                   21557863.9064
        49.2504         50.2504
   1045924.50846    972299.23846  23030624.0864                   23030621.8954
        41.7504         37.5004
  -1065902.66845   -901694.52744  24533593.8134                   24533595.4104
        35.5004         26.5004
    295987.48847    272959.17646  21328125.2034                   21328121.7194
        45.7504         37.7504
    330065.14847    302348.93446  20919461.9224                   20919458.1644
        46.2504         38.5004
    671671.81346    553710.66043  24711941.2974                   24711941.4694
        37.5004         19.5004
   -620458.56647   -583290.91447  22007375.1174                   22007373.5234
        46.5004         45.2504
   -638215.49246   -541035.18045  23846021.7664                   23846022.6564
        41.7504         35.2504
  -1171000.58247  -1094965.06246  22832814.2734                   22832814.8284
        46.0004         41.7504
   1234694.87546   1032675.51644  24952930.2344                   24952933.6484
        40.0004         26.5004
 25  7  1 20 17  0.0000000  0 10G10G15G08G18G23G16G27G24G32G29
   -405745.02048   -377441.67648  21551978.9454                   21551977.9964
        48.2504         50.2504
   1138485.05547   1044424.25846  23048237.6414                   23048235.7504
        42.2504         38.0004
  -1159531.83246   -974652.24644  24515776.0864                   24515778.1024
        36.0004         28.2504
    323847.96947    294668.60546  21333426.9694                   21333423.5554
        46.0004         37.5004
    359998.92247    325673.93446  20925157.7424                   20925154.4064
        46.7504         38.5004
    732925.01646    601440.29343  24723597.8834                   24723597.9414
        37.5004         18.5004
   -671054.97347   -622716.67647  21997746.9614                   21997745.4144
        47.0004         45.2504
   -692402.65646   -583258.90245  23835709.8054                   23835711.1214
        40.2504         35.7504
  -1270624.48047  -1172593.98447  22813856.3444                   22813856.1954
        46.2504         42.0004
   1345262.44146   1118831.73844  24973970.9224                   24973974.9844
        39.5004         28.0004
 25  7  1 20 17 30.0000000  0 10G10G15G08G18G23G16G27G24G32G29
   -436431.57848   -401353.27348  21546139.1644                   21546138.1564
        48.7504         50.5004
   1231348.05947   1116784.95346  23065909.3754                   23065907.4064
        42.5004         37.7504
  -1252868.03945  -1047381.68044  24498015.1174                   24498016.7814
        35.7504         28.0004
    352038.64847    316635.34446  21338791.1174                   21338788.0704
        45.7504         38.2504
    390135.27047    349156.78146  20930892.7034                   20930889.0204
        46.0004         38.5004
    794386.85246    649332.46543  24735293.6884                   24735293.8324
        37.5004         19.2504
   -721106.47347   -661717.83247  21988222.5634                   21988220.9454
        47.0004         45.0004
   -746179.68446   -625163.02345  23825476.3984                   23825477.8634
        41.0004         35.5004
  -1369980.07447  -1250013.83246  22794949.3444                   22794949.3554
        46.0004         41.2504
   1455868.16446   1205017.66044  24995019.1484                   24995023.0084
        39.5004         29.0004
 25  7  1 20 18  0.0000000  0 10G10G15G08G18G23G16G27G24G32G29
   -466874.60948   -425075.10548  21540346.3364                   21540345.1604
        49.5004         50.2504
   1324508.73447   1189377.60546  23083637.2424                   23083635.2234
        43.0004         38.0004
  -1345910.67646  -1119882.36344  24480309.1884                   24480311.0554
        36.5004         27.7504
    380558.06647    338858.23846  21344218.3444                   21344215.3834
        46.7504         37.7504
    420470.98047    372794.98046  20936665.1484                   20936662.0394
        47.2504         38.2504
    856052.17246    697383.22343  24747028.4224                   24747028.3874
        37.7504         19.7504
   -770613.41847   -700294.66847  21978801.2584                   21978800.0594
        47.0004         45.2504
   -799545.82046   -666746.99245  23815320.9694                   23815322.2384
        41.0004         35.0004
  -1469066.99247  -1327224.32846  22776093.5314                   22776093.8014
        45.5004         41.2504
   1566507.32446   1291229.60244  25016072.9384                   25016077.5394
        38.5004         28.7504
 25  7  1 20 18 30.0000000  0 10G10G15G08G18G23G16G27G24G32G29
   -497075.58648   -448608.33648  21534598.9774                   21534597.6914
        48.7504         50.2504
   1417963.22347   1262199.20346  23101421.3674                   23101419.3484
        43.0004         37.7504
  -1438658.09846  -1192152.99644  24462660.5944                   24462662.3484
        36.7504         29.7504
    409405.99647    361337.12146  21349707.8364                   21349704.3364
        46.2504         38.0004
    451004.16847    396587.05546  20942475.5784                   20942472.5704
        46.5004         38.5004
    917917.33246    745589.69943  24758800.7194                   24758800.7624
        38.0004         19.5004
   -819575.04747   -738446.58247  21969484.3134                   21969482.9804
        47.0004         45.2504
   -852499.03946   -708009.19545  23805244.3834                   23805245.4654
        41.5004         35.7504
  -1567883.75047  -1404224.31646  22757289.4614                   22757289.7274
        45.2504         41.7504
   1677176.81346   1377465.17644  25037132.9924                   25037137.3674
        38.7504         28.7504
 25  7  1 20 19  0.0000000  0 10G10G15G08G18G23G16G27G24G32G29
   -527032.10948   -471951.07448  21528898.5004                   21528897.2234
        49.5004         50.5004
   1511711.93447   1335250.07446  23119261.4454                   23119259.0944
        43.0004         37.5004
  -1531104.68746  -1264189.23444  24445068.0234                   24445069.7734
        37.0004         29.2504
    438586.10247    384074.83646  21355260.5944                   21355257.6024
        46.0004         37.7504
    481736.68047    420534.44146  20948323.8284                   20948320.5394
        46.5004         39.0004
    979982.60946    793952.10543  24770611.8284                   24770611.9264
        37.5004         20.0004
   -867986.67647   -776169.91447  21960272.0474                   21960270.8164
        47.0004         45.2504
   -905033.43746   -748945.04345  23795247.5164                   23795248.6374
        40.2504         35.2504
  -1666424.89147  -1481009.53546  22738537.1954                   22738537.7704
        45.5004         41.7504
   1787877.48446   1463725.06644  25058198.9384                   25058203.3954
        37.5004         27.7504
 25  7  1 20 19 30.0000000  0 10G10G15G08G18G23G16G27G24G32G29
   -556745.85248   -495104.62948  21523244.4144                   21523243.0664
        49.2504         50.2504
   1605750.80147   1408527.03946  23137155.9534                   23137154.0314
        43.5004         37.7504
  -1623248.83646  -1335989.77344  24427534.0394                   24427534.9574
        37.2504         29.2504
    468097.94147    407071.03946  21360876.7584                   21360873.3834
        47.0004         38.0004
    512666.55947    444635.62546  20954209.5234                   20954206.3714
        46.7504         38.2504
   1042243.74246    842467.09043  24782459.6024                   24782459.9024
        37.0004         19.5004
   -915847.69147   -813464.19947  21951164.3444                   21951163.0234
        47.5004         45.2504
   -957147.16446   -789553.10245  23785330.8984                   23785331.6804
        40.7504         35.7504
  -1764689.03547  -1557578.90647  22719838.1954                   22719838.4344
        45.2504         42.2504
   1898606.09046   1550006.72744  25079270.5554                   25079274.1174
        36.5004         26.5004
 25  7  1 20 20  0.0000000  0 10G10G15G08G18G23G16G27G24G32G29
   -586218.78548   -518070.54748  21517635.5704                   21517634.2464
        49.2504         50.2504
   1700075.78947   1482026.96146  23155105.6414                   23155103.8324
        43.2504         36.7504
  -1715089.42646  -1407553.77744  24410057.1334                   24410058.2584
        37.2504         29.2504
    497940.80947    430325.19146  21366555.6334                   21366552.4884
        45.7504         37.7504
    543791.29347    468888.64846  20960132.1724                   20960129.2074
        46.0004         38.5004
   1104696.42246    891131.37943  24794343.9924                   24794344.4224
        37.0004         19.0004
   -963157.84447   -850329.24647  21942161.2274                   21942159.7344
        47.0004         45.5004
  -1008838.83246   -829832.26645  23775494.2034                   23775495.2274
        41.0004         35.5004
  -1862675.16047  -1633931.64847  22701191.9454                   22701192.4844
        45.0004         42.7504
   2009358.60946   1636306.99644  25100346.3134                   25100350.5314
        37.0004         26.7504
 25  7  1 20 20 30.0000000  0 10G10G15G08G18G23G16G27G24G32G29
   -615453.98048   -540851.20348  21512072.5314                   21512071.0864
        50.0004         50.5004
   1794681.57847   1555745.68846  23173108.4774                   23173106.2234
        42.7504         36.0004
  -1806626.21546  -1478881.06245  24392638.0784                   24392639.6914
        37.2504         30.0004
    528112.84847    453835.84046  21372297.3524                   21372294.0704
        47.0004         38.0004
    575107.41047    493290.79746  20966091.9064                   20966088.1604
        47.5004         38.0004
   1167335.41846    939940.83243  24806264.3364                   24806264.7814
        36.5004         18.5004
  -1009917.96947   -886765.69547  21933263.2894                   21933261.9064
        47.0004         45.5004
  -1060107.97346   -869782.18045  23765737.4304                   23765738.9144
        41.5004         35.5004
  -1960383.26647  -1710067.75047  22682598.6564                   22682598.6914
        45.2504         42.5004
   2120130.15645   1722622.06344  25121425.9694                   25121429.8954
        34.7504         27.2504
 25  7  1 20 21  0.0000000  0 10G10G15G08G18G23G16G27G24G32G29
   -644450.72348   -563446.06648  21506554.2584                   21506553.3444
        50.2504         50.5004
   1889566.81347   1629682.14545  23191164.2814                   23191162.3754
        42.2504         35.0004
  -1897855.34046  -1549968.60245  24375278.2194                   24375278.8674
        38.2504         30.5004
    558616.02048    477604.51246  21378101.9844                   21378098.7704
        48.0004         38.0004
    606615.28147    517842.37146  20972087.6174                   20972084.0864
        46.5004         38.5004
   1230159.10546    988894.21543  24818218.8134                   24818219.3484
        36.2504         18.5004
  -1056125.14147   -922771.27347  21924470.2584                   21924468.9384
        46.5004         45.5004
  -1110950.42646   -909399.60545  23756062.8834                   23756064.0434
        40.5004         35.5004
  -2057809.67247  -1785984.34047  22664059.3984                   22664059.1724
        45.5004         42.7504
   2230920.22745   1808951.58244  25142508.4844                   25142512.8794
        34.5004         25.7504
 25  7  1 20 21 30.0000000  0 10G10G15G08G18G23G16G27G24G32G29
   -673209.90648   -585855.80948  21501081.8984                   21501080.3324
        49.7504         50.5004
   1984728.19946   1703833.80545  23209273.4224                   23209271.1954
        41.5004         34.5004
  -1988774.55946  -1620814.66444  24357975.9844                   24357977.2704
        37.5004         29.0004
    589450.69547    501631.49646  21383969.3444                   21383966.4414
        47.2504         37.5004
    638313.52347    542542.28546  20978119.4924                   20978115.7274
        47.2504         38.5004
   1293164.36345   1037989.00443  24830208.7274                   24830209.6724
        35.0004         18.5004
  -1101778.08647   -958344.98047  21915782.6724                   21915781.4614
        47.0004         45.5004
  -1161363.73446   -948682.63345  23746469.1094                   23746470.3794
        39.7504         34.7504
  -2154952.27747  -1861679.79347  22645573.6804                   22645573.4964
        46.2504         42.7504
   2341725.83645   1895293.17644  25163594.9304                   25163599.1174
        35.0004         26.0004
 25  7  1 20 22  0.0000000  0 10G10G15G08G18G23G16G27G24G32G29
   -701730.42648   -608079.58248  21495654.4774                   21495653.0204
        50.0004         50.5004
   2080164.64846   1778199.80145  23227433.9384                   23227431.6604
        41.5004         33.7504
  -2079379.50846  -1691415.84444  24340734.5474                   24340735.9494
        37.2504         29.7504
    620619.17247    525918.58646  21389900.5864                   21389897.5594
        46.7504         37.5004
    670202.86347    567391.11346  20984187.9924                   20984184.3674
        47.5004         38.5004
   1356349.87145   1087224.32042  24842232.3364                   24842233.2034
        35.5004         17.2504
  -1146873.53147   -993484.27047  21907201.4614                   21907200.2034
        47.0004         45.5004
  -1211343.32046   -987627.67245  23736958.6804                   23736959.1254
        40.7504         34.7504
  -2251806.94947  -1937150.87947  22627142.6254                   22627142.5744
        46.2504         43.2504
   2452546.74645   1981646.69544  25184682.4384                   25184687.9774
        34.0004         26.5004
 25  7  1 20 22 30.0000000  0 10G10G15G08G18G23G16G27G24G32G29
   -730012.24648   -630117.35548  21490272.9774                   21490271.0234
        50.0004         50.5004
   2175874.11347   1852778.54745  23245647.3524                   23245644.4344
        42.0004         33.0004
  -2169666.96946  -1761769.62544  24323552.9694                   24323554.9844
        36.0004         29.2504
    652122.68447    550466.74646  21395895.8134                   21395892.4064
        47.0004         37.2504
    702282.96547    592388.57446  20990292.2974                   20990288.9264
        47.5004         38.0004
   1419713.53545   1136598.41443  24854290.9384                   24854291.3834
        35.5004         19.0004
  -1191409.31247  -1028187.46147  21898726.8054                   21898725.3364
        47.0004         45.5004
  -1260885.84446  -1026232.13745  23727530.9924                   23727532.1214
        40.7504         34.5004
  -2348370.68747  -2012395.26647  22608767.1254                   22608767.0204
        46.7504         43.5004
   2563381.00445   2068010.60544  25205774.8674                   25205779.3794
        32.5004         24.7504
 25  7  1 20 23  0.0000000  0 10G10G15G08G18G23G16G27G24G32G29
   -758055.62148   -651969.32848  21484936.4774                   21484935.0164
        50.5004         50.5004
   2271854.21546   1927568.17645  23263911.7974                   23263909.3484
        40.7504         32.5004
  -2259634.06245  -1831873.75844  24306432.7504                   24306434.7624
        35.5004         28.5004
    683962.18847    575276.71946  21401954.6094                   21401951.2814
        47.2504         37.5004
    734553.16447    617534.17646  20996433.5864                   20996429.6844
        47.5004         38.0004
   1483252.80545   1186109.39142  24866380.9384                   24866382.3984
        35.7504         17.2504
  -1235383.51247  -1062453.05947  21890358.3834                   21890357.0664
        46.2504         45.7504
  -1309988.03146  -1064493.50445  23718186.5864                   23718187.9454
        40.0004         34.2504
  -2444640.72347  -2087410.79747  22590447.4694                   22590447.3204
        46.5004         43.7504
   2674226.57845   2154383.33244  25226867.8754                   25226872.9924
        33.7504         25.2504
 25  7  1 20 23 30.0000000  0 10G10G15G08G18G23G16G27G24G32G29
   -785862.79748   -673637.24648  21479644.8594                   21479643.4964
        50.2504         50.5004
   2368100.63346   2002565.28945  23282227.0864                   23282224.9844
        40.5004         32.5004
  -2349279.69146  -1901727.41044  24289374.2974                   24289375.6334
        36.5004         28.7504
    716136.68847    600347.72746  21408076.4694                   21408073.8134
        47.5004         37.0004
    767010.85548    642825.86746  21002609.7344                   21002606.1884
        48.0004         38.0004
   1546962.88346   1235753.45343  24878504.8594                   24878506.8484
        36.0004         18.2504
  -1278796.25447  -1096281.15647  21882097.2664                   21882096.2154
        46.5004         46.0004
  -1358648.87946  -1102410.97745  23708926.5004                   23708927.8714
        40.5004         34.0004
  -2540616.32447  -2162196.89147  22572183.5634                   22572183.6644
        47.0004         43.2504
   2785080.04345   2240762.19544  25247963.3134                   25247968.4804
        34.5004         28.2504
 25  7  1 20 24  0.0000000  0 10G10G15G08G18G23G16G27G24G32G29
   -813431.00448   -695118.95348  21474398.5084                   21474397.5474
        50.0004         50.7504
   2464613.89146   2077770.34045  23300592.6334                   23300590.4694
        40.5004         33.5004
  -2438598.07446  -1971326.05944  24272377.0004                   24272379.0784
        36.0004         29.5004
    748650.07047    625682.80146  21414264.8364                   21414260.9844
        47.7504         37.0004
    799658.39847    668265.48846  21008822.1414                   21008818.9694
        47.7504         38.2504
   1610844.36345   1285531.02342  24890661.8524                   24890662.8364
        35.0004         17.2504
  -1321642.76647  -1129668.03547  21873943.7974                   21873942.9264
        47.0004         46.0004
  -1406862.19946  -1139979.71945  23699751.9774                   23699753.4454
        40.7504         35.0004
  -2636291.80947  -2236749.11747  22553977.3284                   22553977.2974
        46.0004         43.7504
   2895942.16046   2327147.79344  25269059.6724                   25269065.2934
        36.5004         29.7504
 25  7  1 20 24 30.0000000  0 10G10G15G08G18G23G16G27G24G32G29
   -840763.89848   -716417.29748  21469197.1954                   21469195.8054
        50.5004         50.5004
   2561388.21946   2153178.82045  23319008.2664                   23319006.4454
        40.5004         33.5004
  -2527589.59045  -2040670.02744  24255442.4064                   24255444.3364
        35.7504         29.5004
    781499.93447    651280.06646  21420515.4384                   21420512.2194
        47.5004         37.7504
    832491.84047    693849.97346  21015070.6254                   21015067.2114
        47.7504         38.5004
   1674891.38345   1335437.60943  24902849.8594                   24902850.8054
        34.5004         18.5004
  -1363924.55147  -1162614.86747  21865897.9844                   21865896.5434
        46.5004         46.0004
  -1454628.36346  -1177200.03145  23690662.4534                   23690663.4414
        41.5004         34.5004
  -2731667.75847  -2311067.94547  22535827.5084                   22535827.8794
        46.7504         43.7504
   3006807.59046   2413535.96545  25290157.7194                   25290162.8524
        38.2504         30.0004
 25  7  1 20 25  0.0000000  0 10G10G15G08G18G23G16G27G24G32G29
   -867864.89848   -737534.94548  21464039.9534                   21464038.5944
        50.0004         50.5004
   2658417.86346   2228786.25045  23337472.4694                   23337470.4224
        41.0004         33.5004
  -2616254.49646  -2109759.47745  24238569.9844                   24238572.1214
        36.5004         31.0004
    814684.01647    677137.76246  21426830.0944                   21426826.8754
        47.5004         37.2504
    865507.37548    719576.35246  21021353.3914                   21021349.4694
        48.0004         38.0004
   1739098.30945   1385468.76642  24915068.1564                   24915068.7814
        34.7504         17.7504
  -1405642.97347  -1195122.72747  21857959.2664                   21857957.9344
        46.5004         46.0004
  -1501947.37946  -1214071.91445  23681657.9304                   23681658.9384
        41.0004         34.0004
  -2826744.68747  -2385153.77047  22517735.1644                   22517735.2704
        46.0004         44.0004
   3117671.30146   2499922.81645  25311254.5474                   25311260.0084
        38.2504         31.2504
 25  7  1 20 25 30.0000000  0 10G10G15G08G18G23G16G27G24G32G29
   -894733.99648   -758471.89148  21458927.1414                   21458925.7894
        50.0004         50.5004
   2755701.21146   2304591.37545  23355985.1024                   23355982.8834
        41.2504         34.2504
  -2704589.60546  -2178591.94545  24221760.1024                   24221762.0744
        37.2504         31.0004
    848203.52047    703256.83246  21433208.6174                   21433205.9184
        47.5004         37.2504
    898704.59847    745444.30146  21027670.3594                   21027666.8674
        47.2504         38.0004
   1803462.66445   1435622.68442  24927317.0394                   24927317.3054
        34.7504         17.7504
  -1446796.06247  -1227190.05147  21850127.8914                   21850126.9884
        46.7504         46.5004
  -1548816.01646  -1250592.84845  23672738.4454                   23672739.8984
        41.5004         33.2504
  -2921519.65247  -2459004.30547  22499699.9924                   22499699.8484
        46.5004         44.0004
   3228531.60246   2586307.00845  25332350.2194                   25332356.4144
        39.5004         31.5004
 25  7  1 20 26  0.0000000  0 10G10G15G08G18G23G16G27G24G32G29
   -921369.83248   -779227.07848  21453858.9384                   21453857.2624
        50.5004         50.5004
   2853236.64147   2380592.93045  23374545.8754                   23374543.3244
        42.5004         35.7504
  -2792590.36346  -2247163.89545  24205015.1484                   24205015.6054
        38.0004         32.5004
    882060.97347    729639.22746  21439651.5704                   21439648.3794
        47.0004         37.2504
    932084.62948    771454.70746  21034021.6644                   21034018.6174
        48.2504         38.0004
   1867983.51245   1485898.47743  24939593.7424                   24939595.5664
        34.0004         18.2504
  -1487380.40247  -1258814.19547  21842404.6954                   21842403.6804
        47.0004         46.0004
  -1595229.48046  -1286759.10945  23663907.2034                   23663907.6884
        41.0004         33.2504
  -3015988.30947  -2532616.14847  22481723.2194                   22481723.5664
        46.5004         44.0004
   3339388.35546   2672688.44945  25353446.0864                   25353452.4454
        40.7504         30.0004
 25  7  1 20 26 30.0000000  0 10G10G15G08G18G23G16G27G24G32G29
   -947778.93748   -799805.58248  21448833.0474                   21448831.8014
        49.7504         50.5004
   2951015.86347   2456784.44946  23393152.3754                   23393150.4384
        43.0004         36.5004
  -2880260.19146  -2315477.99245  24188331.5314                   24188332.9224
        38.7504         32.0004
    916250.94947    756280.73846  21446157.8594                   21446154.8204
        47.0004         37.0004
    965640.55148    797602.16046  21040407.6334                   21040404.1764
        48.0004         38.0004
   1932652.14845   1536289.39542  24951900.3054                   24951901.8794
        34.2504         16.2504
  -1527400.57847  -1289998.73847  21834789.3834                   21834788.1454
        46.5004         46.2504
  -1641191.15646  -1322573.34845  23655159.6564                   23655161.1884
        40.5004         33.0004
  -3110154.27747  -2605992.12947  22463804.1804                   22463803.5744
        46.5004         44.0004
   3450232.99646   2759060.46544  25374539.4614                   25374545.8244
        41.5004         28.2504
 25  7  1 20 27  0.0000000  0 10G10G15G08G18G23G16G27G24G32G29
   -973962.61348   -820208.43748  21443850.5314                   21443849.0554
        50.0004         50.7504
   3049035.34047   2533163.18446  23411805.1644                   23411802.6764
        43.0004         36.7504
  -2967597.14146  -2383532.68045  24171711.5474                   24171713.0044
        38.2504         31.5004
    950773.35547    783181.28946  21452727.3284                   21452724.0004
        47.5004         37.2504
    999370.72748    823885.39846  21046826.4534                   21046823.0704
        48.0004         38.0004
   1997464.95345   1586792.73042  24964234.3134                   24964235.3954
        35.0004         16.7504
  -1566855.84847  -1320743.09447  21827281.3444                   21827280.1684
        47.0004         46.0004
  -1686698.94146  -1358033.90245  23646500.4304                   23646501.2734
        40.5004         33.5004
  -3204015.87947  -2679130.94547  22445942.3284                   22445942.6334
        46.5004         43.7504
   3561062.93446   2845421.02344  25395630.3054                   25395636.4804
        40.5004         27.5004
 25  7  1 20 27 30.0000000  0 10G10G15G08G18G23G16G27G24G32G29
   -999917.39848   -840432.92648  21438911.2584                   21438910.1024
        50.0004         50.7504
   3147296.48847   2609730.23845  23430503.6884                   23430501.6804
        42.2504         35.7504
  -3054594.74646  -2451322.95345  24155156.5314                   24155157.4384
        39.5004         32.5004
    985632.75047    810344.42246  21459360.7114                   21459357.7544
        46.5004         37.5004
   1033278.23048    850306.82046  21053279.0864                   21053275.8484
        48.0004         38.2504
   2062422.96145   1637409.18042  24976594.5634                   24976596.3014
        34.7504         16.2504
  -1605740.94947  -1351043.16447  21819881.8914                   21819880.1214
        47.0004         46.0004
  -1731746.25046  -1393135.64545  23637928.5004                   23637928.9614
        40.5004         33.0004
  -3297566.85247  -2752027.70747  22428140.2194                   22428140.4964
        46.0004         44.0004
   3671879.76246   2931771.38343  25416718.4064                   25416724.3094
        40.5004         22.0004
 25  7  1 20 28  0.0000000  0  9G10G15G08G18G23G16G27G24G32
  -1025645.85248   -860481.06248  21434015.5394                   21434013.7974
        50.0004         50.7504
   3245794.99247   2686482.24646  23449247.1884                   23449244.8874
        42.0004         36.0004
  -3141252.29346  -2518848.25445  24138666.4534                   24138667.2734
        39.7504         32.2504
   1020827.73447    837769.05546  21466058.5314                   21466055.1764
        46.0004         37.2504
   1067360.26247    876864.23046  21059764.4454                   21059761.1644
        47.7504         38.0004
   2127521.34446   1688134.98042  24988984.2274                   24988985.2774
        36.0004         16.7504
  -1644056.40247  -1380899.35947  21812590.4924                   21812589.0314
        46.2504         46.2504
  -1776332.39146  -1427878.02745  23629442.7424                   23629444.3914
        38.7504         31.7504
  -3390806.72747  -2824682.07047  22410397.4454                   22410396.9614
        46.2504         44.2504
 25  7  1 20 28 30.0000000  0  9G10G15G08G18G23G16G27G24G32
  -1051149.13748   -880353.74248  21429162.2114                   21429161.0984
        50.5004         50.7504
   3344527.17646   2763416.32045  23468035.1804                   23468033.4654
        41.7504         35.7504
  -3227567.78546  -2586107.01645  24122240.8834                   24122242.1094
        39.7504         31.5004
   1056358.28947    865455.16846  21472819.4304                   21472816.2074
        45.2504         36.7504
   1101615.41047    903556.54346  21066283.2344                   21066279.7544
        46.0004         38.0004
   2192757.12945   1738967.92642  25001398.0554                   25001399.2664
        35.7504         16.2504
  -1681801.48447  -1410311.10247  21805407.8984                   21805406.8094
        46.7504         46.0004
  -1820455.19146  -1462259.36345  23621047.3674                   23621048.5474
        39.0004         31.5004
  -3483733.78147  -2897092.67647  22392713.8054                   22392713.4344
        47.0004         44.2504
 25  7  1 20 29  0.0000000  0  9G10G15G08G18G23G16G27G24G32
  -1076423.33648   -900047.91448  21424352.8754                   21424351.3444
        50.5004         50.5004
   3443494.98047   2840534.00045  23486868.3594                   23486866.6484
        42.0004         35.7504
  -3313534.25046  -2653093.79745  24105881.9144                   24105883.3914
        39.7504         30.7504
   1092229.46547    893406.71146  21479645.3984                   21479642.4344
        46.5004         37.2504
   1136047.22348    930386.50846  21072835.2584                   21072832.1764
        48.0004         37.7504
   2258131.42245   1789908.70742  25013838.7814                   25013840.4064
        35.0004         14.7504
  -1718970.41447  -1439273.89847  21798334.7274                   21798333.4844
        45.5004         46.0004
  -1864107.59846  -1496274.16845  23612740.8914                   23612741.1724
        38.5004         31.5004
  -3576341.17247  -2969254.19547  22375090.8594                   22375090.9304
        47.0004         44.2504
 25  7  1 20 29 30.0000000  0  9G10G15G08G18G23G16G27G24G32
  -1101466.53548   -919562.09448  21419587.0004                   21419585.9534
        50.0004         50.7504
   3542697.87146   2917834.85545  23505745.9384                   23505744.2974
        40.7504         35.0004
  -3399146.62546  -2719804.67645  24089590.3674                   24089591.6844
        39.5004         31.0004
   1128444.23047    921625.97746  21486536.8524                   21486533.7544
        45.5004         36.7504
   1170657.28947    957355.37546  21079421.3134                   21079418.0004
        45.7504         37.5004
   2323644.04345   1840957.32042  25026304.9924                   25026306.6024
        35.5004         15.5004
  -1755559.43047  -1467784.81247  21791372.1804                   21791370.8134
        46.2504         46.0004
  -1907284.62946  -1529918.54745  23604523.8754                   23604524.6214
        38.0004         30.7504
  -3668624.18047  -3041162.95747  22357530.2664                   22357529.9264
        46.2504         44.5004
 25  7  1 20 30  0.0000000  0  9G10G15G08G18G23G16G27G24G32
  -1126277.56248   -938895.35248  21414865.9144                   21414864.7234
        50.0004         50.7504
   3642135.16846   2995318.36345  23524668.1644                   23524666.5554
        40.7504         34.0004
  -3484400.52746  -2786236.23444  24073366.9064                   24073368.2034
        39.0004         29.5004
   1165004.86747    950114.75446  21493494.6884                   21493491.5554
        46.2504         37.5004
   1205446.51648    984463.84446  21086041.5944                   21086038.1054
        48.2504         38.0004
   2389293.81645   1892112.81642  25038797.9064                   25038800.3874
        35.2504         15.5004
  -1791565.55947  -1495841.52747  21784520.4694                   21784519.0044
        46.7504         46.0004
  -1949981.75846  -1563188.97345  23596398.9384                   23596400.4494
        38.5004         31.2504
  -3760578.68747  -3112815.73847  22340031.8284                   22340031.5744
        47.5004         44.2504
 25  7  1 20 30 30.0000000  0  9G10G15G08G18G23G16G27G24G32
  -1150863.79348   -958053.44548  21410187.2664                   21410186.1374
        49.5004         50.7504
   3741797.34446   3072977.10545  23543633.1884                   23543631.5594
        41.0004         33.2504
  -3569300.28646  -2852391.83144  24057211.1644                   24057211.5904
        38.0004         27.0004
   1201905.16847    978868.21146  21500516.2194                   21500513.3404
        45.2504         36.7504
   1240407.25447   1011705.96546  21092694.7504                   21092690.9344
        46.0004         38.2504
   2455071.05546   1943367.62542  25051314.3834                   25051316.6024
        36.2504         16.2504
  -1826994.27047  -1523448.30147  21777778.7894                   21777777.2704
        47.0004         46.2504
  -1992203.20746  -1596088.74645  23588364.7034                   23588365.5394
        39.0004         32.5004
  -3852209.19947  -3184216.07047  22322595.1954                   22322594.9924
        46.7504         44.7504
 25  7  1 20 31  0.0000000  0  9G10G15G08G18G23G16G27G24G32
  -1175225.69148   -977036.73448  21405551.2424                   21405549.8444
        49.0004         50.5004
   3841682.14146   3150809.33245  23562640.4534                   23562639.1414
        39.2504         32.0004
  -3653843.41046  -2918269.52344  24041123.0314                   24041124.0164
        37.7504         28.0004
   1239145.71547   1007886.78146  21507603.0634                   21507599.7854
        45.5004         36.7504
   1275538.72747   1039081.12546  21099379.3674                   21099376.0824
        47.5004         37.5004
   2520973.20746   1994719.77342  25063855.7584                   25063857.9614
        36.5004         16.7504
  -1861844.28147  -1550604.14847  21771146.8674                   21771145.4694
        46.2504         46.0004
  -2033946.39546  -1628615.85945  23580420.8834                   23580422.0944
        37.5004         31.5004
  -3943513.27747  -3255362.02747  22305220.3754                   22305220.0084
        46.5004         45.0004
 25  7  1 20 31 30.0000000  0  9G10G15G08G18G23G16G27G24G32
  -1199367.42248   -995848.47348  21400957.2114                   21400955.8794
        49.0004         50.7504
   3941782.86346   3228809.80545  23581689.6564                   23581687.9614
        40.5004         31.7504
  -3738030.62146  -2983869.87944  24025102.5164                   24025103.6294
        36.2504         28.0004
   1276723.43447   1037168.09446  21514753.5554                   21514750.8134
        45.2504         37.0004
   1310836.53147   1066585.89546  21106096.4694                   21106093.3204
        46.0004         38.0004
   2586993.58246   2046163.99642  25076419.7504                   25076421.7734
        36.5004         16.2504
  -1896118.03147  -1577310.96147  21764624.6724                   21764623.5234
        46.0004         46.2504
  -2075212.35246  -1660771.11745  23572568.2504                   23572568.9734
        38.2504         30.5004
  -4034492.34847  -3326254.73047  22287907.4144                   22287907.2734
        47.2504         44.7504
 25  7  1 20 32  0.0000000  0  9G10G15G08G18G23G16G27G24G32
  -1223291.71148  -1014490.77048  21396404.3524                   21396403.2624
        50.0004         50.7504
   4042095.15246   3306975.14545  23600778.0704                   23600776.8094
        40.0004         31.0004
  -3821861.74246  -3049192.75044  24009149.2114                   24009151.1684
        37.0004         27.5004
   1314636.62147   1066710.81346  21521968.3674                   21521965.6884
        45.0004         36.5004
   1346297.67247   1094217.93846  21112844.5704                   21112841.1334
        45.7504         38.2504
   2653127.48046   2097696.68442  25089004.3674                   25089006.7154
        37.0004         16.2504
  -1929816.46547  -1603569.47347  21758212.3834                   21758210.8244
        46.0004         46.2504
  -2116000.68746  -1692554.18045  23564806.3594                   23564806.9344
        38.5004         30.7504
  -4125146.19947  -3396894.02047  22270656.6334                   22270656.4534
        47.0004         45.0004
 25  7  1 20 32 30.0000000  0  9G10G15G08G18G23G16G27G24G32
  -1246997.89548  -1032963.11348  21391893.3914                   21391892.3984
        49.5004         51.0004
   4142617.26646   3385303.99645  23619906.9534                   23619905.0704
        39.5004         31.2504
  -3905333.03946  -3114235.26244  23993265.9844                   23993266.8094
        37.2504         27.7504
   1352887.00447   1096516.27746  21529247.3364                   21529244.0824
        46.2504         36.2504
   1381922.51647   1121977.53546  21119624.1884                   21119620.4454
        47.5004         37.7504
   2719372.94146   2149316.30942  25101611.9224                   25101612.7234
        36.2504         14.7504
  -1962937.26247  -1629377.88347  21751909.4144                   21751908.1134
        46.5004         46.5004
  -2156307.67646  -1723962.17244  23557136.7894                   23557136.8094
        39.0004         29.7504
  -4215471.41447  -3467277.22747  22253468.2814                   22253468.0744
        46.7504         45.0004
 25  7  1 20 33  0.0000000  0  9G10G15G08G18G23G16G27G24G32
  -1270488.17248  -1051267.21948  21387423.4844                   21387421.9964
        49.5004         50.7504
   4243344.96946   3463793.02745  23639074.3594                   23639073.0084
        39.2504         31.5004
  -3988443.47346  -3178996.57844  23977450.0944                   23977451.6644
        36.5004         29.5004
   1391473.43047   1126583.59046  21536589.5314                   21536586.7154
        46.0004         36.7504
   1417708.66447   1149862.83246  21126433.5234                   21126430.2544
        47.5004         37.7504
   2785725.77346   2201019.63742  25114236.5864                   25114239.2344
        36.0004         14.7504
  -1995480.90247  -1654736.56247  21745716.2894                   21745715.4024
        45.7504         46.5004
  -2196132.42246  -1754994.39145  23549557.3914                   23549558.5704
        38.2504         31.0004
  -4305467.27347  -3537403.79747  22236342.3284                   22236342.3594
        46.5004         45.0004
 25  7  1 20 33 30.0000000  0  9G10G15G08G18G23G16G27G24G32
  -1293764.96548  -1069404.97348  21382993.8524                   21382992.4804
        50.0004         50.7504
   4344273.97346   3542438.92245  23658281.9064                   23658279.7234
        40.7504         32.2504
  -4071192.51246  -3243476.28144  23961703.5784                   23961704.9774
        37.0004         29.5004
   1430394.55147   1156911.71546  21543996.2664                   21543993.0234
        46.0004         36.2504
   1453653.45347   1177871.74246  21133273.6724                   21133270.3714
        47.7504         37.7504
   2852181.21946   2252802.91042  25126883.0704                   25126885.9024
        37.7504         14.7504
  -2027448.09047  -1679646.05947  21739633.0004                   21739632.0204
        45.2504         46.2504
  -2235474.27346  -1785650.33645  23542070.4454                   23542072.0864
        38.2504         31.0004
  -4395133.40647  -3607273.43747  22219279.7194                   22219279.1724
        47.2504         45.2504
 25  7  1 20 34  0.0000000  0  9G10G15G08G18G23G16G27G24G32
  -1316829.84448  -1087377.60248  21378604.7034                   21378603.5554
        49.5004         50.7504
   4445400.41046   3621238.64145  23677525.1644                   23677523.5394
        41.0004         33.5004
  -4153578.64146  -3307673.19545  23946026.0554                   23946027.3444
        37.7504         30.2504
   1469649.82447   1187500.20746  21551466.1414                   21551463.0864
        46.0004         36.2504
   1489755.08247   1206002.86746  21140143.5474                   21140140.2304
        46.7504         37.5004
   2918735.54746   2304663.19942  25139547.9774                   25139551.1484
        36.7504         15.5004
  -2058838.75447  -1704106.31647  21733660.0474                   21733658.6454
        46.0004         46.5004
  -2274331.80546  -1815928.88345  23534676.9454                   23534677.7464
        39.0004         30.7504
  -4484468.60947  -3676885.21547  22202279.6724                   22202279.2544
        47.2504         45.2504
 25  7  1 20 34 30.0000000  0  9G10G15G08G18G23G16G27G24G32
  -1339687.18448  -1105188.50848  21374255.1174                   21374253.7234
        48.7504         51.0004
   4546717.64547   3700187.05545  23696805.3754                   23696803.6644
        42.0004         32.7504
  -4235603.13346  -3371588.32845  23930416.9064                   23930418.5044
        38.0004         31.5004
   1509235.87147   1218346.44946  21558999.3284                   21558996.6024
        45.2504         36.2504
   1526008.88347   1234252.56646  21147042.4454                   21147039.2344
        47.0004         37.5004
   2985382.12146   2356595.46542  25152230.7274                   25152233.1024
        37.0004         14.7504
  -2089655.71947  -1728119.53547  21727795.8054                   21727794.5124
        46.2504         46.5004
  -2312706.42646  -1845831.14845  23527375.2814                   23527375.3714
        39.0004         31.0004
  -4573474.46947  -3746240.35547  22185342.3984                   22185341.8484
        47.2504         45.2504
 25  7  1 20 35  0.0000000  0  9G10G15G08G18G23G16G27G24G32
  -1362334.00048  -1122835.37148  21369945.7894                   21369944.2464
        49.0004         50.7504
   4648226.60947   3779284.87545  23716121.6954                   23716119.8364
        42.5004         34.0004
  -4317260.03146  -3435217.00045  23914878.0234                   23914879.6374
        38.5004         32.2504
   1549156.65247   1249453.52046  21566596.1644                   21566592.9454
        46.0004         36.2504
   1562417.63748   1262623.00846  21153970.7894                   21153967.5904
        48.0004         37.5004
   3052121.17246   2408599.72742  25164931.3914                   25164935.0234
        36.5004         16.2504
  -2119894.36347  -1751682.11747  21722041.6644                   21722040.3164
        46.7504         46.5004
  -2350592.17646  -1875352.44945  23520165.0394                   23520165.6724
        39.2504         30.2504
  -4662145.20748  -3815334.36747  22168468.6564                   22168468.1334
        48.0004         45.5004
 25  7  1 20 35 30.0000000  0  9G10G15G08G18G23G16G27G24G32
  -1384776.35948  -1140322.91848  21365674.7734                   21365673.5554
        49.5004         50.7504
   4749919.91847   3858526.33645  23735473.4384                   23735472.0394
        42.2504         34.0004
  -4398552.25446  -3498561.52045  23899408.7814                   23899410.3794
        38.2504         33.2504
   1589407.21947   1280817.57046  21574255.6174                   21574252.3674
        46.7504         36.5004
   1598975.07847   1291109.31346  21160927.4454                   21160924.1954
        47.2504         37.2504
