     2.11           OBSERVATION DATA    G (GPS)             RINEX VERSION / TYPE
teqc  2019Feb25                         20250820 03:13:04UTCPGM / RUN BY / DATE
Linux 2.6.32-573.12.1.x86_64|x86_64|gcc -static|Linux 64|=+ COMMENT
BIT 2 OF LLI FLAGS DATA COLLECTED UNDER A/S CONDITION       COMMENT
35223550                                                    MARKER NAME
3550                                                        MARKER NUMBER
-Unknown-           -Unknown-                               OBSERVER / AGENCY
0220413522          TRIMBLE R7          2.32                REC # / TYPE / VERS
-Unknown-           TRM39105.00     NONE                    ANT # / TYPE
 -2412136.5076 -4554466.4587  3747244.8577                  APPROX POSITION XYZ
        0.0000        0.0000        0.0000                  ANTENNA: DELTA H/E/N
     1     1                                                WAVELENGTH FACT L1/2
     7    L1    L2    C1    P1    P2    S1    S2            # / TYPES OF OBSERV
    18                                                      LEAP SECONDS
 SNR is mapped to RINEX snr flag value [0-9]                COMMENT
  L1 & L2: min(max(int(snr_dBHz/6), 0), 9)                  COMMENT
  2025     8     6    23    46   30.0000000     GPS         TIME OF FIRST OBS
                                                            END OF HEADER
 25  8  6 23 46 30.0000000  0  6G01G02G03G04G31G16
    133777.72716                  22162923.664
        37.000
    137532.49456     65371.97853  24130851.0314                   24130854.8324
        38.7504         21.5004
    -41064.77058    -23696.14158  19893445.3754                   19893446.2774
        50.0004         50.5004
    -84865.48057    -47939.53555  21324049.6174                   21324049.4924
        44.0004         33.7504
    123235.98857     62628.17657  20972785.5164                   20972783.5394
        47.0004         45.0004
   -175714.91857   -100247.67253  22850905.4844                   22850906.7624
        42.5004         23.7504
 25  8  6 23 46 45.0000000  0  6G01G02G03G04G31G16
    172373.00057    106432.12555  22170267.9224                   22170268.4024
        46.0004         31.5004
    182090.66456     88053.65253  24139330.1954                   24139334.3954
        40.2504         21.7504
    -52579.12948    -32668.39548  19891254.7034                   19891255.0744
        50.0004         50.5004
   -108490.32447    -66348.50445  21319554.3054                   21319554.3324
        46.5004         33.5004
    158655.03548     90227.38747  20979525.6644                   20979523.7774
        48.0004         45.7504
   -225059.37547   -138697.82043  22841516.2274                   22841516.4694
        42.0004         22.7504
 25  8  6 23 47  0.0000000  0  7G01G02G03G04G28G31G16
    211019.69147    136546.38345  22177622.1644                   22177622.4804
        45.5004         30.0004
    226616.87546    122749.23043  24147804.2814                   24147807.0704
        40.5004         21.7504
    -63997.12548    -41565.53148  19889081.8364                   19889081.9804
        50.0004         50.0004
   -132109.63747    -84753.15245  21315059.9304                   21315059.5904
        46.5004         34.0004
    143172.98456     88833.15253  23587877.4844                   23587877.3524
        40.5004         22.0004
    194136.73847    117875.46947  20986277.8284                   20986275.2274
        47.7504         43.0004
   -274387.58247   -177135.34044  22832128.7194                   22832129.5824
        42.0004         24.0004
 25  8  6 23 47 15.0000000  0  8G01G02G03G04G28G31G16G26
    249726.18847    166707.25445  22184987.3754                   22184988.3594
        45.0004         30.7504
    271120.80556    144017.41053  24156272.6804                   24156276.2194
        39.5004         20.7504
    -75309.52348    -50380.39148  19886928.9924                   19886929.4264
        50.0004         50.0004
   -155714.35247   -103146.42645  21310568.0164                   21310567.5984
        47.0004         33.5004
    191754.88746    126689.17244  23597121.2814                   23597122.3164
        40.7504         25.5004
    229689.92247    145579.23447  20993043.2504                   20993041.0084
        47.7504         44.0004
   -323694.01657   -194555.73454  22822746.5864                   22822741.1954
        42.2504         28.5004
    -58402.64857    -41488.50456  21506363.1954                   21506365.2704
        45.7504         41.2504
 25  8  6 23 47 30.0000000  0  8G01G02G03G04G28G31G16G26
    288498.49247    196919.38345  22192365.6644                   22192366.9144
        45.2504         30.7504
    315608.64846    178683.10243  24164739.1954                   24164742.1524
        39.7504         22.0004
    -86509.69548    -59107.79748  19884797.4694                   19884797.8244
        50.0004         50.0004
   -179298.06647   -121523.34045  21306080.2034                   21306079.6724
        46.5004         34.0004
    240346.55146    164552.74243  23606368.1644                   23606368.5944
        38.7504         22.7504
    265320.48048    173343.28147  20999823.5234                   20999821.1524
        48.0004         43.7504
   -372963.91046   -232947.77044  22813370.8524                   22813371.7664
        41.5004         26.0004
    -73489.82047    -53244.73446  21503492.3284                   21503494.8134
        45.2504         41.5004
 25  8  6 23 47 45.0000000  0  8G01G02G03G04G28G31G16G26
    327340.68847    227185.97745  22199756.9064                   22199758.1024
        45.5004         30.5004
    360084.45746    213339.45743  24173202.8284                   24173205.5824
        39.7504         20.7504
    -97592.98448    -67744.12948  19882688.5944                   19882689.0394
        50.0004         50.0004
   -202856.29747   -139880.39545  21301596.9774                   21301596.4574
        47.0004         34.0004
    288952.19146    202427.23844  23615617.8444                   23615617.5744
        40.5004         24.5004
    301032.58248    201170.87547  21006619.3054                   21006617.2504
        48.0004         44.0004
   -422196.25447   -271310.58643  22804002.1724                   22804003.0514
        42.0004         23.7504
    -88444.51247    -64897.72346  21500646.5554                   21500649.0204
        45.0004         41.0004
 25  8  6 23 48  0.0000000  0  8G01G02G03G04G28G31G16G26
    366254.51247    257508.39845  22207162.1334                   22207163.0164
        45.0004         30.0004
    404550.08246    247987.87543  24181664.2344                   24181667.1684
        40.5004         21.5004
   -108557.13748    -76287.62948  19880602.1804                   19880602.4064
        49.7504         50.0004
   -226386.96947   -158215.96945  21297118.8674                   21297118.6804
        47.2504         33.2504
    337573.64546    240314.03143  23624869.6644                   23624869.9654
        39.2504         22.7504
    336828.04348    229063.42247  21013430.8674                   21013428.7344
        48.0004         43.5004
   -471388.69546   -309642.27343  22794641.1884                   22794641.7114
        41.2504         22.2504
   -103264.44147    -76445.70346  21497826.6884                   21497828.7344
        45.5004         41.0004
 25  8  6 23 48 15.0000000  0  8G01G02G03G04G28G31G16G26
    405241.87947    287888.11344  22214580.7194                   22214581.7464
        44.7504         29.5004
    449007.37146    282629.80543  24190123.4694                   24190126.7704
        38.5004         21.0004
   -119399.64548    -84736.33648  19878538.7814                   19878539.2974
        49.5004         50.0004
   -249887.66847   -176528.19145  21292647.2664                   21292646.9414
        46.5004         34.5004
    386212.96546    278214.73844  23634126.7424                   23634125.8284
        41.2504         24.0004
    372708.92647    257022.53547  21020258.6564                   21020256.3954
        47.2504         43.7504
   -520538.50047   -347940.76243  22785288.1414                   22785288.9494
        42.0004         22.5004
   -117947.09047    -87886.72346  21495031.9384                   21495034.7704
        45.7504         41.0004
 25  8  6 23 48 30.0000000  0  8G01G02G03G04G28G31G16G26
    444304.13347    318326.18044  22222014.3834                   22222015.5394
        45.0004         29.7504
    493457.67646    317266.23843  24198582.0474                   24198586.1024
        37.7504         19.0004
   -130118.59048    -93088.76248  19876499.0084                   19876499.2774
        49.5004         50.0004
   -273356.73847   -194815.76645  21288181.3754                   21288180.9614
        46.7504         33.5004
    434871.57046    316130.51644  23643385.2664                   23643385.5824
        40.2504         25.0004
    408676.52347    285049.22347  21027103.1644                   21027100.8094
        47.5004         43.7504
   -569643.49647   -386204.31644  22775943.9144                   22775944.6334
        42.0004         24.7504
   -132490.56247    -99219.28146  21492264.9064                   21492267.3164
        45.7504         41.0004
 25  8  6 23 48 45.0000000  0  8G01G02G03G04G28G31G16G26
    483442.31347    348823.42245  22229461.7974                   22229462.9774
        45.0004         30.0004
    537902.15646    351898.08643  24207039.0784                   24207044.0824
        38.2504         19.5004
   -140712.36748   -101343.65248  19874483.0704                   19874483.6844
        49.7504         50.2504
   -296792.71947   -213077.56645  21283721.5084                   21283720.9534
        47.0004         33.7504
    483550.64146    354062.21544  23652648.5004                   23652649.1604
        40.0004         24.0004
    444731.85548    313144.26247  21033964.7974                   21033961.9104
        48.7504         43.7504
   -618701.86347   -424431.53543  22766608.1954                   22766609.1254
        42.5004         22.5004
   -146893.24247   -110442.13746  21489524.3134                   21489526.6524
        45.5004         41.2504
 25  8  6 23 49  0.0000000  0  8G01G02G03G04G28G31G16G26
    522656.87547    379380.16445  22236924.5944                   22236925.7304
        44.7504         30.0004
    582341.25846    386525.69943  24215496.6414                   24215501.4384
        38.7504         20.5004
   -151179.94548   -109500.21148  19872491.3754                   19872491.3874
        49.5004         50.0004
   -320194.76247   -231312.91045  21279267.9844                   21279267.8874
        46.2504         34.0004
    532250.77746    392010.32444  23661914.8054                   23661916.5394
        38.7504         24.7504
    480875.55548    341308.17247  21040842.4614                   21040839.6484
        48.0004         43.5004
   -667712.28947   -462621.42243  22757282.4304                   22757282.9104
        42.0004         23.5004
   -161154.08647   -121554.47346  21486810.3914                   21486812.9694
        45.0004         41.2504
 25  8  6 23 49 15.0000000  0  8G01G02G03G04G28G31G16G26
    561947.37947    409996.10544  22244400.9304                   22244402.0354
        44.7504         29.5004
    626774.50446    421148.81343  24223953.6884                   24223957.0044
        39.0004         18.5004
   -161521.23048   -117558.35248  19870523.4694                   19870523.7734
        48.2504         50.2504
   -343562.89847   -249521.84045  21274821.2344                   21274820.8594
        45.7504         33.5004
    580971.59846    429974.53943  23671188.0704                   23671187.3874
        40.0004         22.5004
    517107.08647    369540.52047  21047736.8914                   21047734.5004
        47.0004         43.7504
   -716674.32447   -500773.57843  22747965.1414                   22747965.6094
        42.5004         22.7504
   -175272.95347   -132556.16846  21484123.8444                   21484125.7814
        45.5004         41.2504
 25  8  6 23 49 30.0000000  0  8G01G02G03G04G28G31G16G26
    601314.41847    440671.67645  22251892.8054                   22251893.6454
        45.0004         30.0004
    671202.62946    455767.97743  24232408.3914                   24232411.1684
        40.0004         19.7504
   -171735.04748   -125517.17248  19868579.9384                   19868580.3204
        50.0004         50.2504
   -366896.14547   -267703.57045  21270381.3984                   21270380.5594
        47.0004         34.0004
    629713.85546    467955.51243  23680462.5084                   23680462.6844
        39.2504         22.7504
    553427.23048    397841.90647  21054648.5394                   21054646.0824
        48.0004         43.5004
   -765586.64847   -538887.00844  22738656.8754                   22738657.8054
        42.0004         24.5004
   -189248.71947   -143446.36746  21481464.5864                   21481466.5554
        45.5004         41.5004
 25  8  6 23 49 45.0000000  0  8G01G02G03G04G28G31G16G26
    640758.39147    471407.17644  22259399.2114                   22259399.6954
        44.5004         29.2504
    715626.03946    490383.49643  24240861.4064                   24240865.0514
        40.0004         19.5004
   -181820.43448   -133375.91448  19866660.5784                   19866660.7624
        49.5004         50.2504
   -390193.69547   -285857.50445  21265948.0474                   21265947.5514
        47.2504         34.0004
    678478.02046    505953.51243  23689741.9064                   23689742.6254
        38.2504         23.2504
    589836.31347    426212.60247  21061577.0474                   21061574.7704
        47.0004         43.5004
   -814447.98047   -576960.69543  22729358.9454                   22729359.9184
        42.0004         22.0004
   -203080.39847   -154224.28546  21478832.2034                   21478834.4024
        45.2504         41.2504
 25  8  6 23 50  0.0000000  0  9G01G02G03G04G28G09G31G16G26
    680279.85247    502203.07045  22266919.7894                   22266920.3134
        44.5004         30.0004
    760045.44146    524995.92243  24249314.2344                   24249317.5514
        39.7504         20.0004
   -191776.22748   -141133.67248  19864766.0784                   19864766.5274
        49.0004         50.2504
   -413454.55147   -303982.83245  21261521.7344                   21261521.2544
        46.5004         34.5004
    727264.85546    543969.17643  23699025.8284                   23699026.3984
        38.5004         22.7504
   -114385.65255    -68699.78954  24000934.6564                   24000938.3914
        35.0004         29.2504
    626334.97347    454653.10247  21068522.1884                   21068520.0234
        46.2504         43.5004
   -863257.07847   -614993.69944  22720070.5784                   22720071.3714
        42.0004         24.5004
   -216766.83247   -164889.02346  21476227.8674                   21476229.9024
        44.5004         41.5004
 25  8  6 23 50 15.0000000  0  9G01G02G03G04G28G09G31G16G26
    719878.05147    533058.77045  22274454.7344                   22274455.8054
        44.5004         30.0004
    804460.05946    559604.58643  24257765.7894                   24257768.8794
        39.0004         20.0004
   -201602.70748   -148790.66848  19862896.3524                   19862896.6724
        49.7504         50.0004
   -436679.17247   -322079.92245  21257101.8674                   21257101.5044
        46.2504         33.5004
    776073.64546    582001.93843  23708315.0554                   23708314.9184
        41.0004         22.7504
   -153736.27345    -99362.53544  23993446.5704                   23993450.5594
        34.7504         29.0004
    662922.46147    483162.80947  21075484.8754                   21075482.6484
        47.5004         43.7504
   -912013.80546   -652985.88344  22710792.4384                   22710793.7894
        41.5004         24.2504
   -230308.26247   -175440.77746  21473651.0314                   21473653.0314
        45.2504         41.5004
 25  8  6 23 50 30.0000000  0  9G01G02G03G04G28G09G31G16G26
    759550.57447    563972.36744  22282004.5394                   22282005.3874
        44.2504         29.7504
    848867.59846    594207.66043  24266215.8594                   24266219.6174
        38.7504         19.0004
   -211301.65248   -156348.28948  19861050.5164                   19861051.0634
        48.7504         50.2504
   -459869.51647   -340150.31245  21252688.7274                   21252688.5594
        46.5004         34.0004
    824902.07446    620050.08244  23717606.2734                   23717606.0044
        39.5004         25.0004
   -193083.42645   -130022.57044  23985959.0234                   23985962.7544
        34.7504         29.2504
    699596.53948    511740.00447  21082463.6414                   21082461.0944
        48.0004         43.5004
   -960719.87146   -690938.58643  22701524.0474                   22701524.7384
        41.0004         23.7504
   -243706.52047   -185880.95746  21471101.4304                   21471103.4694
        45.2504         41.5004
 25  8  6 23 50 45.0000000  0  9G01G02G03G04G28G09G31G16G26
    799298.09847    594944.41845  22289567.7974                   22289568.6994
        44.0004         30.0004
    893268.58246    628805.56643  24274665.0554                   24274669.5514
        39.2504         19.5004
   -220871.90248   -163805.62948  19859229.4614                   19859229.5314
        49.2504         50.0004
   -483024.50847   -358193.15645  21248282.8134                   21248282.1054
        45.7504         33.5004
    873751.06646    658114.17244  23726900.8204                   23726901.6914
        38.7504         24.5004
   -232426.17646   -160679.18445  23978472.3914                   23978476.1414
        36.2504         30.7504
    736357.71548    540385.05147  21089458.9774                   21089456.4774
        48.5004         43.2504
  -1009373.70747   -728850.57443  22692265.4694                   22692265.9614
        42.0004         22.5004
   -256960.34447   -196208.60246  21468579.2194                   21468580.9614
        46.0004         41.5004
 25  8  6 23 51  0.0000000  0  9G01G02G03G04G28G09G31G16G26
    839120.69947    625974.96144  22297146.4614                   22297146.6094
        44.2504         29.7504
    937663.38346    663398.74243  24283112.6024                   24283118.6254
        37.5004         20.5004
   -230312.70748   -171162.09848  19857432.7664                   19857433.2504
        48.7504         50.2504
   -506143.62947   -376208.05145  21243883.1094                   21243882.7384
        46.0004         34.0004
    922620.71146    696194.36343  23736201.1564                   23736201.5904
        38.7504         22.5004
   -271763.82846   -191331.82044  23970987.0474                   23970990.8594
        36.5004         29.5004
    773206.42647    569098.31647  21096471.1484                   21096468.5784
        47.7504         43.5004
  -1057974.29747   -766721.10243  22683017.0474                   22683017.8284
        42.7504         23.2504
   -270069.08647   -206423.19546  21466085.0314                   21466086.7424
        46.2504         41.5004
 25  8  6 23 51 15.0000000  0  9G01G02G03G04G28G09G31G16G26
    879018.44547    657064.06644  22304737.7974                   22304738.9654
        44.5004         29.5004
    982052.13746    697987.25043  24291559.6884                   24291565.1054
        37.2504         20.2504
   -239623.53148   -178417.28548  19855661.0394                   19855661.5744
        49.2504         50.2504
   -529226.45347   -394194.64845  21239490.7504                   21239490.1604
        46.0004         34.5004
    971511.29346    734290.88743  23745504.4064                   23745505.2584
        37.5004         22.7504
   -311096.18446   -221980.32444  23963501.5004                   23963505.5004
        38.0004         29.2504
    810142.63747    597879.75447  21103499.6254                   21103497.5204
        47.7504         43.5004
  -1106520.85247   -804549.50443  22673779.5634                   22673779.3714
        42.5004         23.7504
   -283032.15247   -216524.27346  21463617.8054                   21463619.6724
        45.5004         41.7504
 25  8  6 23 51 30.0000000  0  9G01G02G03G04G28G09G31G16G26
    918990.26247    688210.87944  22312344.7974                   22312345.5124
        44.2504         29.7504
   1026433.48446    732569.98443  24300004.7734                   24300010.2934
        36.7504         19.2504
   -248804.85248   -185571.55948  19853913.9844                   19853914.4734
        49.0004         50.2504
   -552273.62147   -412153.46545  21235105.0634                   21235104.6254
        45.0004         34.2504
   1020421.76646    772402.87143  23754812.5004                   23754812.3874
        39.2504         23.7504
   -350423.79746   -252625.15245  23956018.7974                   23956021.7624
        37.5004         30.0004
    847165.23848    626728.52347  21110545.3444                   21110542.9144
        48.0004         43.5004
  -1155013.65246   -842336.05544  22664550.0864                   22664551.8984
        41.2504         24.5004
   -295850.04347   -226512.21946  21461179.0004                   21461180.7114
        46.5004         41.5004
 25  8  6 23 51 45.0000000  0  9G01G02G03G04G28G09G31G16G26
    959035.78947    719415.12945  22319965.0784                   22319966.1414
        44.7504         30.0004
   1070807.35945    767146.91842  24308449.0634                   24308454.3794
        35.2504         17.7504
   -257856.44148   -192624.74248  19852191.2664                   19852191.7504
        49.2504         50.2504
   -575285.11747   -430084.49245  21230725.8204                   21230725.7034
        46.5004         34.5004
   1069351.98846    810530.30144  23764123.0704                   23764123.7974
        38.7504         25.0004
   -389746.57046   -283266.19145  23948535.2034                   23948538.7974
        37.5004         30.0004
    884274.03947    655644.44947  21117606.9064                   21117604.3594
        47.0004         43.5004
  -1203452.19546   -880080.28143  22655332.7814                   22655333.8634
        41.5004         23.5004
   -308522.51647   -236386.86746  21458767.6174                   21458769.1684
        46.2504         41.5004
 25  8  6 23 52  0.0000000  0  8G01G03G04G28G09G31G16G26
    999154.51647    750676.43044  22327599.6414                   22327600.7814
        44.2504         29.0004
   -266778.30548   -199576.84848  19850493.4454                   19850494.0984
        48.5004         50.2504
   -598261.02047   -447987.77745  21226353.4144                   21226352.9454
        45.0004         34.5004
   1118301.46546    848672.70344  23773438.1484                   23773438.5864
        39.7504         24.7504
   -429064.73846   -313903.64545  23941053.1564                   23941056.6254
        37.5004         31.0004
    921468.52047    684627.13747  21124684.4454                   21124682.0474
        46.2504         43.5004
  -1251836.21547   -917782.03944  22646126.2504                   22646126.7034
        42.0004         25.2504
   -321049.59847   -246148.21146  21456383.4224                   21456385.2504
        46.2504         41.5004
 25  8  6 23 52 15.0000000  0  8G01G03G04G28G09G31G16G26
   1039347.30547    781995.43444  22335248.4064                   22335248.7194
        44.0004         29.5004
   -275569.00047   -206426.73448  19848820.7584                   19848821.2344
        47.7504         50.2504
   -621200.06247   -465862.34445  21221988.8674                   21221988.1954
        44.7504         34.5004
   1167271.32846    886830.98043  23782756.7894                   23782757.5044
        38.7504         23.7504
   -468376.96146   -344536.46945  23933571.9454                   23933576.1804
        37.0004         30.2504
    958749.58647    713677.30147  21131779.0634                   21131776.8594
        47.0004         43.2504
  -1300164.04746   -955440.02744  22636929.0704                   22636930.3754
        41.7504         24.5004
   -333429.79347   -255795.10947  21454027.3054                   21454029.6484
        46.7504         42.0004
 25  8  6 23 52 30.0000000  0  8G01G03G04G28G09G31G16G26
   1079614.32847    813372.28544  22342910.7194                   22342911.9494
        44.5004         29.5004
   -284227.80148   -213173.85248  19847172.8134                   19847173.6054
        49.0004         50.2504
   -644101.67247   -483707.73845  21217630.9614                   21217630.1524
        46.2504         33.5004
   1216261.82046    925005.34844  23792080.1254                   23792080.3984
        38.7504         24.0004
   -507682.73846   -375164.27045  23926092.9144                   23926096.0234
        37.7504         30.5004
    996117.52747    742795.16047  21138889.4694                   21138887.1884
        46.5004         43.5004
  -1348434.64547   -993053.42244  22627744.0704                   22627744.4964
        42.2504         25.7504
   -345662.42647   -265327.01246  21451699.8444                   21451701.7194
        46.5004         41.7504
 25  8  6 23 52 45.0000000  0  8G01G03G04G28G09G31G16G26
   1119954.43447    844806.07844  22350587.1334                   22350588.4264
        43.7504         29.0004
   -292755.30548   -219818.66048  19845550.0314                   19845550.6294
        48.2504         50.2504
   -666966.62147   -501524.56645  21213279.8674                   21213278.8054
        45.2504         34.5004
   1265271.81646    963194.90644  23801405.7114                   23801405.9024
        40.0004         24.0004
   -546982.79746   -405787.61745  23918613.3284                   23918617.1724
        38.0004         30.0004
   1033571.16047    771979.78547  21146016.6644                   21146014.8324
        47.2504         43.5004
  -1396648.42647  -1030622.54343  22618569.1804                   22618569.9384
        42.0004         22.5004
   -357748.07047   -274744.38746  21449400.0004                   21449401.7424
        46.5004         41.7504
 25  8  6 23 53  0.0000000  0  8G01G03G04G28G09G31G16G26
   1160367.71147    876296.89144  22358277.4144                   22358278.6764
        44.0004         29.2504
   -301150.84448   -226360.64548  19843952.9224                   19843953.1524
        49.2504         50.0004
   -689794.37547   -519312.40645  21208935.7274                   21208934.8874
        46.5004         35.0004
   1314301.61746   1001399.90643  23810736.6334                   23810736.7194
        40.2504         22.5004
   -586276.66846   -436406.14145  23911136.5704                   23911139.6604
        37.5004         30.2504
   1071110.71547    801231.37147  21153160.4774                   21153158.0084
        47.0004         43.0004
  -1444804.52046  -1068146.69544  22609404.8444                   22609405.7544
        41.0004         24.5004
   -369686.12147   -284046.75046  21447127.8834                   21447130.4024
        46.2504         41.7504
 25  8  6 23 53 15.0000000  0  8G01G03G04G28G09G31G16G26
   1200854.53147    907845.01244  22365982.1484                   22365983.0204
        44.0004         29.5004
   -309413.52048   -232799.09048  19842380.2424                   19842380.8714
        49.5004         50.2504
   -712584.17247   -537070.67645  21204598.9304                   21204598.0004
        46.0004         34.0004
   1363351.78946   1039620.78543  23820070.2424                   23820070.7114
        40.5004         23.7504
   -625563.55946   -467019.23844  23903660.5554                   23903663.9384
        37.5004         29.7504
   1108736.49247    830550.13747  21160320.7664                   21160317.8324
        47.0004         43.5004
  -1492901.60247  -1105624.85943  22600252.2034                   22600253.1094
        42.0004         22.7504
   -381475.60547   -293233.34846  21444884.5084                   21444886.2384
        46.7504         41.7504
 25  8  6 23 53 30.0000000  0  8G01G03G04G28G09G31G16G26
   1241413.71947    939449.51244  22373700.3284                   22373701.1334
        43.7504         28.5004
   -317543.97348   -239134.50848  19840833.1334                   19840833.5634
        49.7504         50.2504
   -735336.78147   -554799.96145  21200269.4304                   21200268.4224
        46.7504         33.2504
   1412421.20346   1077856.65643  23829408.0784                   23829407.8674
        39.5004         22.7504
   -664844.22746   -497627.47745  23896185.9224                   23896188.7624
        38.5004         30.0004
   1146447.40647    859935.24647  21167496.8284                   21167494.3914
        46.2504         43.5004
  -1540940.07047  -1143057.37544  22591111.4384                   22591111.9144
        42.2504         24.2504
   -393117.18447   -302304.69546  21442669.2894                   21442671.4224
        46.7504         41.7504
 25  8  6 23 53 45.0000000  0  8G01G03G04G28G09G31G16G26
   1282045.16847    971110.32444  22381431.9144                   22381433.2734
        44.0004         29.2504
   -325541.69548   -245366.49648  19839311.3594                   19839311.6484
        48.7504         50.2504
   -758051.88747   -572500.02745  21195946.3524                   21195946.0514
        45.7504         33.2504
   1461509.89846   1116107.56343  23838748.5634                   23838749.4964
        38.2504         22.5004
   -704118.45746   -528230.71144  23888711.9144                   23888715.1684
        37.0004         29.2504
   1184243.37547    889386.63347  21174689.0864                   21174686.9144
        47.0004         43.2504
  -1588919.40246  -1180443.81644  22581979.9924                   22581981.1294
        41.7504         24.5004
   -404610.38347   -311260.41846  21440481.9534                   21440483.9144
        45.7504         41.7504
 25  8  6 23 54  0.0000000  0  8G01G03G04G28G09G31G16G26
   1322748.50847   1002827.15644  22389177.8984                   22389178.7424
        44.0004         29.2504
   -333406.59048   -251494.98848  19837814.7344                   19837815.3094
        48.7504         50.2504
   -780729.48447   -590170.86345  21191631.3204                   21191630.6414
        45.7504         34.2504
   1510617.64846   1154373.28143  23848093.6724                   23848094.0314
        40.0004         22.7504
   -743386.16046   -558828.85244  23881239.3204                   23881242.5274
        38.0004         29.2504
   1222124.13347    918904.08247  21181897.4534                   21181895.3554
        47.0004         43.5004
  -1636838.94547  -1217783.64144  22572861.7584                   22572862.6374
        42.2504         25.0004
   -415955.07447   -320100.43047  21438323.3134                   21438325.1374
        46.5004         42.0004
 25  8  6 23 54 15.0000000  0  8G01G03G04G28G09G31G16G26
   1363522.91047   1034599.35544  22396936.9694                   22396938.0004
        43.5004         29.5004
   -341138.84448   -257520.12148  19836343.5634                   19836343.5634
        49.5004         50.2504
   -803369.92247   -607812.74645  21187322.6724                   21187322.4264
        46.7504         34.5004
   1559743.77746   1192653.35544  23857441.8524                   23857442.5984
        39.0004         24.0004
   -782647.77046   -589422.25044  23873768.0864                   23873771.3674
        38.5004         28.5004
   1260089.00047    948487.08247  21189121.8524                   21189119.8794
        47.2504         43.5004
  -1684698.49246  -1255076.73444  22563754.2584                   22563755.3524
        41.5004         25.5004
   -427151.48447   -328824.88746  21436192.5634                   21436194.7114
        46.5004         41.7504
 25  8  6 23 54 30.0000000  0  8G01G03G04G28G09G31G16G26
   1404368.20347   1066426.81344  22404710.0234                   22404710.5204
        43.5004         28.7504
   -348738.09448   -263441.61348  19834897.0784                   19834897.3874
        49.7504         50.2504
   -825972.98847   -625425.50445  21183021.5164                   21183021.6214
        46.5004         34.7504
   1608888.25446   1230947.71543  23866794.2274                   23866794.6764
        40.0004         22.2504
   -821903.06646   -620010.72344  23866298.0394                   23866301.3244
        37.7504         27.0004
   1298137.72347    978135.41847  21196362.5164                   21196360.2464
        47.2504         43.2504
  -1732497.81647  -1292322.89844  22554658.7734                   22554658.7894
        42.0004         25.2504
   -438199.25047   -337433.52346  21434090.4844                   21434092.4384
        46.0004         41.5004
 25  8  6 23 54 45.0000000  0  8G01G03G04G28G09G31G16G26
   1445284.10247   1098309.27044  22412496.1724                   22412496.5204
        44.2504         29.0004
   -356204.17248   -269259.34448  19833476.4614                   19833476.7114
        49.0004         50.2504
   -848538.56647   -643009.05545  21178727.4614                   21178727.0204
        45.7504         34.5004
   1658050.95746   1269256.25043  23876150.2034                   23876149.5164
        39.7504         23.5004
   -861151.93446   -650594.20344  23858829.2344                   23858832.1564
        37.0004         28.2504
   1336270.15247   1007848.98047  21203618.9454                   21203616.4774
        47.5004         43.5004
  -1780236.38746  -1329521.73043  22545573.5944                   22545574.5514
        41.5004         23.0004
   -449098.11347   -345926.13346  21432016.6024                   21432018.5824
        46.7504         41.7504
 25  8  6 23 55  0.0000000  0  8G01G03G04G28G09G31G16G26
   1486270.78147   1130246.88344  22420294.9614                   22420296.2424
        44.2504         29.2504
   -363536.18748   -274972.60248  19832080.9844                   19832081.5664
        49.5004         50.2504
   -871066.07047   -660562.93445  21174440.3984                   21174440.1484
        45.5004         34.2504
   1707232.14146   1307579.23844  23885508.3914                   23885509.0784
        40.0004         24.0004
   -900393.78146   -681172.20344  23851362.1954                   23851364.9694
        37.5004         27.0004
   1374486.47747   1037627.92247  21210891.3674                   21210889.0274
        46.7504         43.2504
  -1827912.94947  -1366672.22343  22536502.1954                   22536502.4614
        42.2504         23.5004
   -459847.32847   -354302.13346  21429971.0084                   21429972.6294
        46.2504         41.7504
 25  8  6 23 55 15.0000000  0  8G01G03G04G28G09G31G16G26
   1527327.29347   1162238.91844  22428107.8984                   22428109.0004
        43.5004         27.7504
   -370734.69948   -280581.83248  19830711.4924                   19830711.8094
        49.0004         50.2504
   -893556.04347   -678087.56645  21170160.4454                   21170160.0554
        44.5004         34.2504
   1756430.98046   1345915.94943  23894870.7894                   23894871.5084
        40.5004         22.5004
   -939629.18746   -711745.17644  23843895.8984                   23843898.5004
        37.0004         26.7504
   1412785.82847   1067471.55147  21218179.4534                   21218176.8834
        47.0004         43.0004
  -1875527.72746  -1403774.60244  22527440.5314                   22527441.1764
        40.5004         24.5004
   -470447.38747   -362561.90247  21427953.8444                   21427955.4224
        47.2504         42.0004
 25  8  6 23 55 30.0000000  0  8G01G03G04G28G09G31G16G26
   1568453.01247   1194284.87144  22435934.1334                   22435934.9924
        44.7504         28.5004
   -377799.70748   -286087.03948  19829366.9924                   19829367.2074
        50.0004         50.2504
   -916008.70347   -695583.12545  21165888.0314                   21165887.6054
        45.7504         34.5004
   1805647.02346   1384266.10544  23904236.1564                   23904236.5664
        40.2504         24.2504
   -978858.35246   -742313.28944  23836430.0314                   23836432.9454
        36.7504         26.0004
   1451167.61747   1097379.42647  21225483.4454                   21225480.6294
        47.2504         43.0004
  -1923080.64546  -1440828.73844  22518391.7584                   22518391.5434
        41.5004         25.0004
   -480898.34047   -370705.48447  21425965.2114                   21425966.6844
        46.5004         42.0004
 25  8  6 23 55 45.0000000  0  8G01G03G04G28G09G31G16G26
   1609647.94147   1226384.75844  22443773.7274                   22443774.0984
        44.2504         28.0004
   -384730.67248   -291487.78948  19828048.4224                   19828048.4964
        49.2504         50.2504
   -938423.61347   -713049.27345  21161623.0394                   21161622.1294
        46.2504         34.0004
   1854880.42046   1422629.74443  23913603.8444                   23913605.5554
        39.0004         22.7504
  -1018080.90646   -772876.27344  23828966.1804                   23828969.1024
        37.2504         26.7504
   1489631.80547   1127351.50447  21232802.9224                   21232800.6564
        47.5004         43.0004
  -1970570.71547  -1477833.94944  22509354.3674                   22509354.9264
        42.0004         24.5004
   -491199.61347   -378732.44146  21424004.7194                   21424006.7544
        46.7504         41.7504
 25  8  6 23 56  0.0000000  0  8G01G03G04G28G09G31G16G26
   1650912.12947   1258538.61344  22451625.6334                   22451626.5634
        43.7504         29.5004
   -391526.97348   -296783.60948  19826754.7504                   19826754.7734
        48.2504         50.2504
   -960800.26647   -730485.60245  21157364.7664                   21157364.2854
        44.7504         34.2504
   1904131.38746   1461007.05543  23922977.0634                   23922977.5394
        39.5004         22.5004
  -1057296.39546   -803433.74244  23821504.0164                   23821506.4574
        37.0004         26.2504
   1528178.56347   1157387.92247  21240137.7344                   21240135.1954
        46.0004         43.0004
  -2017997.23047  -1514789.61744  22500329.5634                   22500330.0084
        42.2504         25.0004
   -501350.62947   -386642.30947  21422073.0474                   21422075.0164
        47.0004         42.0004
 25  8  6 23 56 15.0000000  0  8G01G03G04G28G09G31G16G26
   1692244.93847   1290745.94144  22459490.8204                   22459491.8714
        43.5004         28.5004
   -398188.78148   -301974.63348  19825487.0704                   19825487.4104
        48.5004         50.2504
   -983139.00047   -747892.38745  21153113.7194                   21153113.1484
        45.5004         34.5004
   1953399.31346   1499397.60243  23932352.5944                   23932353.0904
        40.0004         23.0004
  -1096505.05546   -833985.91044  23814042.3444                   23814045.2814
        36.7504         25.5004
   1566807.28147   1187488.20747  21247488.5394                   21247486.4024
        46.7504         43.5004
  -2065359.92246  -1551695.53944  22491316.9614                   22491317.2624
        41.5004         24.5004
   -511351.53547   -394435.21147  21420169.8444                   21420171.5354
        47.0004         42.0004
 25  8  6 23 56 30.0000000  0  8G01G03G04G28G09G31G16G26
   1733646.08647   1323006.52044  22467369.2344                   22467370.6844
        43.2504         27.5004
   -404715.76248   -307060.59848  19824244.8834                   19824245.5904
        48.7504         50.5004
  -1005439.56247   -765269.42645  21148870.0314                   21148869.4884
        45.5004         34.2504
   2002684.16846   1537801.37144  23941731.6174                   23941732.0164
        39.7504         24.7504
  -1135706.67646   -864532.57444  23806581.9774                   23806585.2154
        37.0004         27.0004
   1605517.96547   1217652.36747  21254854.5314                   21254852.8484
        46.2504         42.7504
  -2112658.27347  -1588551.34044  22482316.2974                   22482316.6804
        42.0004         25.5004
   -521202.02347   -402110.90246  21418295.0394                   21418297.2664
        46.2504         41.7504
 25  8  6 23 56 45.0000000  0  8G01G03G04G28G09G31G16G26
   1775115.22747   1355320.08644  22475261.1254                   22475261.9104
        44.2504         28.5004
   -411107.71948   -312041.34848  19823028.7194                   19823028.7464
        50.0004         50.2504
  -1027701.90647   -782616.69145  21144633.5704                   21144633.3954
        46.5004         35.0004
   2051985.75046   1576218.14843  23951113.4694                   23951113.4614
        40.0004         22.5004
  -1174901.28146   -895073.77344  23799124.3914                   23799126.8364
        37.7504         27.0004
   1644310.30547   1247880.14547  21262237.2114                   21262234.8404
        47.7504         43.0004
  -2159891.44546  -1625356.34844  22473327.6094                   22473328.4534
        41.5004         26.0004
   -530901.87947   -409669.22347  21416449.5554                   21416451.2974
        46.7504         42.0004
 25  8  6 23 57  0.0000000  0  8G01G03G04G28G09G31G16G26
   1816651.57847   1387686.01244  22483164.9614                   22483165.8634
        43.5004         28.5004
   -417364.94948   -316917.11348  19821838.0004                   19821838.5554
        49.5004         50.2504
  -1049926.49647   -799934.53145  21140404.3364                   21140403.9494
        45.5004         34.5004
   2101303.37146   1614647.41443  23960498.0944                   23960498.0234
        39.0004         22.7504
  -1214089.23446   -925609.78544  23791666.6804                   23791669.6994
        37.2504         27.0004
   1683183.32447   1278170.79347  21269634.0784                   21269631.6414
        46.0004         42.7504
  -2207059.66446  -1662110.76244  22464351.3984                   22464352.4184
        41.2504         25.5004
   -540451.44547   -417110.42647  21414632.1334                   21414634.3134
        46.7504         42.0004
 25  8  6 23 57 15.0000000  0  8G01G03G04G28G09G31G16G26
   1858254.93447   1420104.15244  22491081.9454                   22491082.8554
        44.5004         28.5004
   -423487.07048   -321687.60248  19820673.0554                   19820672.9774
        49.7504         50.2504
  -1072113.03947   -817222.72745  21136182.0944                   21136181.7504
        45.5004         34.5004
   2150637.01246   1653089.18443  23969886.5394                   23969885.8834
        39.7504         23.0004
  -1253270.34046   -956140.47344  23784211.3134                   23784213.8244
        38.5004         27.5004
   1722136.85247   1308524.17647  21277046.6884                   21277044.5944
        47.0004         42.5004
  -2254162.43447  -1698814.14144  22455388.2974                   22455389.1214
        42.2504         26.0004
   -549850.35947   -424434.24647  21412844.0164                   21412845.8954
        47.2504         42.0004
 25  8  6 23 57 30.0000000  0  8G01G03G04G28G09G31G16G26
   1899924.56647   1452573.93044  22499011.4774                   22499012.7894
        44.0004         29.0004
   -429474.28948   -326352.97348  19819533.5634                   19819533.9064
        50.0004         50.5004
  -1094261.82047   -834481.49245  21131967.6484                   21131967.1174
        46.0004         34.7504
   2199985.96946   1691542.89843  23979277.2194                   23979276.7114
        41.0004         23.2504
  -1292444.90646   -986666.05544  23776756.5864                   23776759.0634
        38.7504         28.0004
   1761170.33247   1338939.85947  21284474.6724                   21284472.5434
        46.7504         42.7504
  -2301199.76246  -1735466.56644  22446437.5004                   22446437.9694
        41.5004         25.7504
   -559098.79347   -431640.80147  21411083.8914                   21411085.6524
        46.5004         42.0004
 25  8  6 23 57 45.0000000  0  8G01G03G04G28G09G31G16G26
   1941660.30547   1485095.22744  22506953.3054                   22506954.4614
        43.5004         28.0004
   -435326.17648   -330912.88748  19818420.3444                   19818420.5664
        49.5004         50.5004
  -1116372.59447   -851710.65245  21127759.9774                   21127759.4454
        45.7504         35.0004
   2249350.41846   1730008.67643  23988670.3204                   23988671.1134
        40.5004         22.7504
  -1331612.68446  -1017186.35544  23769303.0004                   23769305.2504
        39.0004         28.0004
   1800283.62947   1369417.73847  21291917.3674                   21291915.5864
        46.5004         43.2504
  -2348170.82846  -1772067.32444  22437499.1954                   22437499.8134
        41.2504         25.7504
   -568196.37547   -438729.80947  21409352.3134                   21409354.2894
        45.7504         42.0004
 25  8  6 23 58  0.0000000  0  8G01G03G04G28G09G31G16G26
   1983460.83247   1517667.00844  22514908.0164                   22514908.7814
        43.5004         29.0004
   -441043.61348   -335368.03148  19817331.9774                   19817332.1604
        49.0004         50.2504
  -1138446.33647   -868910.95345  21123559.5784                   21123558.9694
        45.2504         34.5004
   2298729.04746   1768485.50843  23998066.3984                   23998067.6374
        40.0004         22.7504
  -1370774.60946  -1047702.09044  23761850.4064                   23761853.9774
        39.5004         28.0004
   1839475.48447   1399956.82847  21299375.6414                   21299373.2814
        47.2504         42.7504
  -2395076.14146  -1808616.87144  22428573.3054                   22428573.7424
        41.7504         25.5004
   -577143.98447   -445701.95747  21407649.9694                   21407651.7624
        46.7504         42.5004
 25  8  6 23 58 15.0000000  0  8G01G03G04G28G09G31G16G26
   2025324.92647   1550288.32444  22522874.6484                   22522875.4144
        43.7504         28.2504
   -446627.20748   -339718.89148  19816269.3134                   19816269.7934
        49.2504         50.5004
  -1160483.74247   -886082.94145  21119365.8914                   21119365.5474
        46.0004         34.5004
   2348120.82046   1806972.57043  24007465.6334                   24007465.9454
        40.5004         22.7504
  -1409931.50046  -1078213.90644  23754399.6334                   23754402.0634
        39.5004         29.7504
   1878744.83647   1430556.31347  21306847.9534                   21306846.0744
        46.7504         42.5004
  -2441916.01646  -1845115.42244  22419659.2734                   22419660.0514
        41.2504         26.0004
   -585942.25447   -452557.73847  21405975.7974                   21405977.5234
        46.5004         42.0004
 25  8  6 23 58 30.0000000  0  8G01G03G04G28G09G31G16G26
   2067254.54347   1582960.68844  22530853.1484                   22530854.5944
        43.7504         29.0004
   -452074.53948   -343963.57048  19815233.0314                   19815233.3284
        49.5004         50.5004
  -1182482.55547   -903224.84845  21115179.7584                   21115178.9804
        45.7504         35.2504
   2397527.85246   1845471.51243  24016867.6094                   24016868.2234
        40.5004         23.5004
  -1449080.99646  -1108719.95345  23746949.5084                   23746952.2424
        38.7504         30.2504
   1918093.54347   1461217.62147  21314336.1334                   21314334.3054
        46.5004         43.0004
  -2488687.70346  -1881560.82044  22410759.3834                   22410759.9924
        41.0004         26.5004
   -594588.71947   -459295.22747  21404330.7664                   21404332.1644
        46.2504         42.0004
 25  8  6 23 58 45.0000000  0  8G01G03G04G28G09G31G16G26
   2109246.94147   1615681.97744  22538844.5314                   22538845.9804
        44.0004         27.5004
   -457387.74648   -348103.73448  19814221.8524                   19814222.1174
        49.7504         50.5004
  -1204445.00047   -920338.42245  21111000.3674                   21110999.7934
        46.0004         35.2504
   2446947.57046   1883980.37143  24026271.2424                   24026271.9304
        41.2504         22.2504
  -1488225.37546  -1139222.02045  23739500.5004                   23739503.5124
        40.0004         31.7504
   1957519.01247   1491938.75447  21321838.4924                   21321836.3714
        46.5004         42.7504
  -2535393.19546  -1917954.65244  22401872.2194                   22401872.0234
        41.2504         26.0004
   -603085.58247   -465916.14547  21402713.0474                   21402715.0864
        46.7504         42.5004
 25  8  6 23 59  0.0000000  0  8G01G03G04G28G09G31G16G26
   2151303.24247   1648453.05944  22546847.0234                   22546848.6054
        43.7504         28.2504
   -462565.19148   -352138.10948  19813236.3524                   19813236.7584
        50.2504         50.5004
  -1226369.59447   -937422.50445  21106828.0864                   21106827.7384
        45.5004         34.5004
   2496381.14846   1922499.98443  24035679.3444                   24035679.5004
        41.0004         22.5004
  -1527363.19946  -1169718.96545  23732052.3594                   23732055.7274
        39.2504         31.5004
   1997022.35547   1522720.56647  21329355.8834                   21329353.9774
        46.7504         42.5004
  -2582030.56646  -1954295.40244  22392997.2114                   22392997.7274
        41.0004         26.5004
   -611431.23847   -472419.23847  21401124.9614                   21401127.0744
        46.2504         42.0004
 25  8  6 23 59 15.0000000  0  8G01G03G04G28G09G31G16G26
   2193422.33647   1681273.08644  22554862.0004                   22554863.9804
        43.5004         28.2504
   -467607.42648   -356067.12548  19812277.3364                   19812277.6994
        49.5004         50.5004
  -1248256.94947   -954477.57045  21102663.1484                   21102662.7774
        45.5004         34.7504
   2545827.75446   1961029.74244  24045088.2034                   24045089.1604
        41.0004         25.2504
  -1566495.08246  -1200211.30145  23724606.5164                   23724609.0514
        39.0004         31.7504
   2036602.60247   1553562.30547  21336887.5314                   21336886.0394
        46.5004         42.7504
  -2628600.05547  -1990583.23844  22384135.7734                   22384135.3444
        42.5004         26.2504
   -619626.21947   -478804.91847  21399566.1094                   21399567.5864
        46.2504         42.2504
 25  8  6 23 59 30.0000000  0  8G01G03G04G28G09G31G16G26
   2235603.32447   1714141.31644  22562889.1644                   22562890.3524
        43.7504         28.2504
   -472514.86748   -359891.10548  19811343.0394                   19811343.1724
        50.0004         50.5004
  -1270107.60547   -971504.02745  21098504.9384                   21098504.7464
        45.7504         35.2504
   2595286.59046   1999569.10944  24054499.1724                   24054500.6414
        40.5004         24.5004
  -1605621.58246  -1230699.43045  23717160.5704                   23717163.2584
        40.0004         32.5004
   2076258.82447   1584463.23447  21344434.4144                   21344431.9654
        46.2504         42.5004
  -2675101.76246  -2026818.31244  22375285.6174                   22375286.4884
        40.5004         26.2504
   -627670.99647   -485073.56647  21398034.4694                   21398036.8054
        46.5004         42.2504
 25  8  6 23 59 45.0000000  0  8G01G03G04G28G09G31G16G26
   2277846.09447   1747057.68844  22570928.3834                   22570929.2774
        43.2504         28.5004
   -477287.03948   -363609.68748  19810435.2114                   19810435.6174
        49.0004         50.5004
  -1291921.18447   -988501.60545  21094354.2734                   21094353.6254
        45.7504         34.5004
   2644757.73046   2038117.99643  24063913.6884                   24063914.5084
        41.2504         22.7504
  -1644742.30946  -1261183.05145  23709716.3134                   23709718.9454
        39.7504         33.0004
   2115991.09847   1615423.44147  21351994.8364                   21351992.8014
        45.0004         43.2504
  -2721534.87146  -2062999.87944  22366450.5474                   22366450.6294
        41.7504         26.7504
   -635565.07447   -491224.77747  21396532.6804                   21396534.7304
        45.7504         42.0004
 25  8  7  0  0  0.0000000  0  8G01G03G04G28G09G31G16G26
   2320151.20347   1780022.64844  22578978.4384                   22578979.0664
        43.2504         28.0004
   -481922.96948   -367222.10248  19809553.1334                   19809553.1374
        50.0004         50.5004
  -1313696.85547  -1005469.64145  21090210.3524                   21090209.3524
        46.5004         34.7504
   2694241.74246   2076676.93043  24073330.4384                   24073330.4024
        41.7504         22.5004
  -1683856.41046  -1291661.51645  23702272.5864                   23702275.5594
        40.5004         32.7504
   2155799.94547   1646443.30547  21359570.1724                   21359567.9534
        47.0004         42.7504
  -2767898.19947  -2099127.09044  22357628.1254                   22357627.9144
        42.5004         26.0004
   -643307.48447   -497257.80547  21395059.2974                   21395061.3874
        46.5004         42.2504
 25  8  7  0  0 15.0000000  0  8G01G03G04G28G09G31G16G26
   2362517.48847   1813035.28544  22587039.9454                   22587041.7464
        42.5004         27.0004
   -486423.16848   -370728.75848  19808696.7424                   19808696.5984
        49.2504         50.5004
  -1335435.20347  -1022408.59045  21086073.7114                   21086073.0164
        46.2504         34.7504
   2743737.75846   2115245.18843  24082749.3444                   24082750.3284
        40.5004         22.5004
  -1722964.57846  -1322135.35545  23694830.4924                   23694833.4224
        40.0004         32.7504
   2195684.37947   1677522.07047  21367159.4924                   21367157.6564
        45.0004         42.5004
  -2814191.91446  -2135200.05944  22348817.6564                   22348818.1684
        41.7504         25.2504
   -650898.75847   -503173.07047  21393614.4144                   21393616.3794
        46.2504         42.0004
 25  8  7  0  0 30.0000000  0  8G01G03G04G28G09G31G16G26
   2404944.26247   1846095.04344  22595114.0084                   22595115.0594
        42.5004         28.5004
   -490787.82848   -374129.79348  19807866.2734                   19807865.9964
        50.0004         50.5004
  -1357136.52747  -1039318.69145  21081943.7584                   21081943.2894
        47.0004         35.0004
   2793245.23046   2153822.42643  24092170.0084                   24092171.2344
        40.5004         22.7504
  -1762067.08646  -1352604.78945  23687390.2894                   23687392.4614
        40.5004         32.5004
   2235643.64547   1708659.14847  21374764.2114                   21374761.5744
        46.5004         42.5004
  -2860415.87946  -2171218.67644  22340022.3134                   22340022.3094
        41.7504         26.2504
   -658339.15247   -508970.76647  21392198.4924                   21392200.3014
        46.5004         42.2504
 25  8  7  0  0 45.0000000  0  8G01G03G04G28G09G31G16G26
   2447431.67247   1879202.05944  22603198.8914                   22603200.4694
        42.7504         27.0004
   -495016.27348   -377424.68748  19807061.4614                   19807061.9024
        49.5004         50.5004
  -1378800.27347  -1056199.52045  21077821.6564                   21077821.1294
        47.0004         35.0004
   2842764.39846   2192408.78543  24101592.6484                   24101593.8094
        40.7504         22.2504
  -1801163.35946  -1383069.35245  23679949.4694                   23679952.8054
        40.5004         33.0004
   2275677.93047   1739854.67647  21382382.4454                   21382379.9344
        46.2504         42.2504
  -2906569.26647  -2207182.28544  22331240.0864                   22331238.9024
        42.5004         27.0004
   -665628.00447   -514650.38347  21390812.1174                   21390813.9534
        46.5004         42.2504
 25  8  7  0  1  0.0000000  0  8G01G03G04G28G09G31G16G26
   2489978.84047   1912355.62944  22611295.5004                   22611297.1644
        43.0004         28.2504
   -499108.90648   -380613.75448  19806282.8984                   19806282.8674
        49.0004         50.5004
  -1400426.95347  -1073051.46145  21073706.1334                   21073705.5354
        46.7504         35.0004
   2892294.56346   2231003.64543  24111018.7344                   24111019.5434
        40.2504         22.7504
  -1840253.95346  -1413529.47345  23672511.6024                   23672513.7114
        40.7504         33.0004
   2315786.58647   1771108.16047  21390014.6644                   21390012.6024
        45.7504         42.7504
  -2952652.10246  -2243090.94544  22322469.5554                   22322469.8014
        41.5004         26.5004
   -672765.69547   -520212.21147  21389453.4774                   21389455.2814
        47.2504         42.2504
 25  8  7  0  1 15.0000000  0  8G01G03G04G28G09G31G16G26
   2532585.43447   1945555.52344  22619402.9694                   22619404.8954
        42.0004         27.7504
   -503065.43448   -383696.75848  19805529.6724                   19805529.7974
        49.2504         50.5004
  -1422016.35547  -1089874.35245  21069597.9304                   21069597.2894
        47.5004         34.0004
   2941835.67246   2269607.08643  24120446.3444                   24120446.9144
        41.0004         22.5004
  -1879338.68046  -1443985.03945  23665073.1174                   23665075.9734
        40.2504         33.0004
   2355969.17647   1802419.25447  21397661.5004                   21397659.4614
        45.7504         42.5004
  -2998663.63746  -2278944.05544  22313713.8754                   22313714.3164
        40.7504         27.2504
   -679751.96947   -525656.04747  21388124.1024                   21388125.9494
        46.5004         42.0004
 25  8  7  0  1 30.0000000  0  8G01G03G04G28G09G31G16G26
   2575251.58646   1978801.79744  22627522.1414                   22627523.8444
        41.7504         27.5004
   -506885.28548   -386673.27048  19804802.9534                   19804802.9884
        49.5004         50.5004
  -1443567.96547  -1106667.78545  21065496.6884                   21065495.9534
        47.0004         34.7504
   2991387.86346   2308219.12943  24129876.2034                   24129876.7194
        40.7504         22.7504
  -1918417.03546  -1474435.63745  23657637.3984                   23657639.9734
        40.7504         32.2504
   2396225.82447   1833788.05147  21405321.9924                   21405319.6994
        46.0004         42.2504
  -3044603.25846  -2314741.09044  22304973.0164                   22304972.1804
        41.7504         26.7504
   -686586.25847   -530981.45747  21386823.8524                   21386825.3834
        46.5004         42.5004
 25  8  7  0  1 45.0000000  0  8G01G03G04G28G09G31G16G26
   2617976.44947   2012093.83644  22635652.7194                   22635653.8324
        42.0004         27.2504
