     2.11           OBSERVATION DATA    G (GPS)             RINEX VERSION / TYPE
teqc  2019Feb25     K Baraggiotta       20250724 23:32:58UTCPGM / RUN BY / DATE
Linux 2.6.32-573.12.1.x86_64|x86_64|gcc -static|Linux 64|=+ COMMENT
teqc  2019Feb25                         20250724 21:41:00UTCCOMMENT
BIT 2 OF LLI FLAGS DATA COLLECTED UNDER A/S CONDITION       COMMENT
DANE                                                        MARKER NAME
                                                            MARKER NUMBER
K Baraggiotta       University of California, Riverside     OBSERVER / AGENCY
0220413532          TRIMBLE R7          2.32                REC # / TYPE / VERS
1441045101          TRM57971.00                             ANT # / TYPE
 -2382849.0132 -4663312.8820  3629794.1450                  APPROX POSITION XYZ
        1.0538        0.0000        0.0000                  ANTENNA: DELTA H/E/N
     1     1                                                WAVELENGTH FACT L1/2
     7    L1    L2    C1    P1    P2    S1    S2            # / TYPES OF OBSERV
    18                                                      LEAP SECONDS
 SNR is mapped to RINEX snr flag value [0-9]                COMMENT
  L1 & L2: min(max(int(snr_dBHz/6), 0), 9)                  COMMENT
  2025     7    15     0    10   30.0000000     GPS         TIME OF FIRST OBS
                                                            END OF HEADER
 25  7 15  0 10 30.0000000  0  8G01G02G03G10G28G31G32G26
   -325338.73857   -182730.09856  21266180.6954                   21266177.1174
        47.7504         37.2504
   -264613.17657   -138840.65655  22243548.8914                   22243543.3014
        46.7504         35.7504
   -443371.85957   -233136.90257  21638049.5004                   21638047.4414
        46.7504         45.2504
   -226950.24655    -94479.22754  24570831.2274                   24570833.3794
        35.0004         26.7504
   -253781.45757   -139270.71956  21664182.1334                   21664177.5044
        45.7504         36.5004
   -332192.36757   -179800.11758  20257787.8284                   20257782.4144
        47.5004         49.7504
   -252235.66057   -132556.44956  23869727.2814                   23869725.4654
        42.5004         36.0004
   -442669.89556   -189606.16055  23378385.6484                   23378386.6414
        40.5004         35.2504
 25  7 15  0 11  0.0000000  0 10G01G02G03G10G28G31G32G04G25G26
   -582152.09847   -382844.42646  21217310.5394                   21217306.6054
        47.5004         36.5004
   -467440.19947   -296887.75446  22204952.8204                   22204947.0004
        46.7504         36.0004
   -781300.21147   -496457.67647  21573743.8204                   21573741.7034
        46.7504         45.5004
   -400321.56246   -229574.02345  24537841.9924                   24537842.8014
        39.0004         31.2504
   -455418.23047   -296390.30546  21625811.6484                   21625807.2894
        46.2504         36.0004
   -594397.56247   -384115.85948  20207892.2274                   20207886.3954
        47.0004         49.7504
   -446004.31647   -283545.09045  23832854.2194                   23832852.8404
        42.0004         35.0004
   -675333.16057   -428685.27354  23213962.2814                   23213960.0744
        42.0004         27.5004
   -456766.89156   -263175.46554  24657547.3134                   24657547.8164
        37.5004         26.7504
   -790630.46546   -460744.19545  23312171.2894                   23312171.0234
        40.7504         34.5004
 25  7 15  0 11 30.0000000  0 10G01G02G03G10G28G31G32G04G25G26
   -838440.43747   -582549.64846  21168540.9224                   21168536.9224
        47.5004         37.0004
   -669961.12147   -454696.34446  22166413.9534                   22166408.3524
        47.0004         36.0004
  -1119092.08247   -759672.11747  21509464.2114                   21509461.9224
        47.5004         45.0004
   -573549.70746   -364557.18045  24504877.5784                   24504879.0434
        39.0004         31.7504
   -656699.58647   -453232.96546  21587508.8754                   21587505.0474
        45.5004         37.0004
   -856048.81247   -587999.96548  20158101.3284                   20158096.2154
        47.2504         49.5004
   -639820.11347   -434570.48446  23795972.7504                   23795971.3714
        42.2504         36.0004
  -1004076.85946   -684849.11344  23151403.6644                   23151402.0044
        41.2504         25.7504
                                  24614789.1564                   24614790.0314
        34.2504         19.2504
  -1138472.64146   -731789.97345  23245978.2974                   23245979.5904
        39.7504         35.0004
 25  7 15  0 12  0.0000000  0 10G01G02G03G10G28G31G32G04G25G26
  -1094125.23048   -781784.60546  21119885.7034                   21119882.0004
        49.0004         38.5004
   -872099.27747   -612206.62945  22127948.3914                   22127942.8754
        44.5004         35.5004
  -1456666.62147  -1022717.19547  21445225.8444                   21445224.0044
        47.0004         44.0004
   -746556.50845   -499367.87544  24471953.8204                   24471957.3094
        35.0004         26.5004
   -857549.08247   -609739.10946  21549288.8984                   21549283.9494
        47.7504         37.7504
  -1117067.94547   -791391.49248  20108431.0394                   20108425.6214
        47.0004         50.2504
   -833604.46546   -585571.27745  23759096.9774                   23759095.4064
        40.7504         30.0004
  -1332673.68447   -940898.51244  23088874.2194                   23088872.3324
        42.2504         27.2504
                                  24572133.5474                   24572134.2464
        29.7504         19.5004
  -1486114.34046  -1002679.54745  23179824.7734                   23179825.5044
        40.7504         35.7504
 25  7 15  0 12 30.0000000  0 10G01G02G03G10G28G31G32G04G25G26
  -1349187.10547   -980534.14846  21071349.0084                   21071345.0474
        47.7504         38.0004
  -1073837.02347   -769404.94545  22089559.3674                   22089553.6954
        45.0004         34.5004
  -1794001.80147  -1285575.73047  21381033.1174                   21381031.0204
        46.5004         44.5004
   -919323.14855   -607979.41853  24439079.1724                   24439080.7384
        34.7504         23.0004
  -1057949.16447   -765895.04346  21511153.7114                   21511149.1134
        45.0004         37.2504
  -1377435.71547   -994275.46148  20058884.7034                   20058879.1374
        46.5004         48.7504
  -1027337.73447   -736532.43746  23722230.8914                   23722229.9264
        44.5004         38.7504
  -1661104.03146  -1196818.20344  23026375.1174                   23026373.7344
        41.5004         28.0004
  -1129218.59855   -706859.86353  24529584.7114                   24529585.5944
        35.0004         22.5004
  -1833532.50445  -1273394.85244  23113713.3754                   23113714.3794
        35.5004         28.2504
 25  7 15  0 13  0.0000000  0 10G01G02G03G10G28G31G32G04G25G26
  -1603612.09448  -1178787.36745  21022933.6724                   21022929.2774
        48.0004         35.0004
  -1275161.98447   -926281.59045  22051248.3914                   22051242.2894
        45.2504         33.7504
  -2131081.16047  -1548234.96547  21316889.0864                   21316887.0434
        46.2504         42.7504
  -1091836.35946   -742405.59045  24406251.6024                   24406253.0634
        40.0004         33.5004
  -1257887.94547   -921691.50046  21473106.6094                   21473102.5124
        45.7504         36.2504
  -1637138.36347  -1196641.19148  20009464.9774                   20009459.4064
        47.0004         50.0004
  -1221005.73846   -887442.61745  23685376.5704                   23685375.4654
        41.7504         34.7504
  -1989353.63745  -1452596.96143  22963912.1564                   22963910.5984
        34.5004         19.7504
  -1352239.37946   -880642.33644  24487145.8594                   24487146.3094
        37.2504         24.0004
  -2180709.46956  -1543922.29755  23047647.2974                   23047647.8984
        40.0004         35.0004
 25  7 15  0 13 30.0000000  0 10G01G02G03G10G28G31G32G04G25G26
   -281965.46947   -148932.89146  21274434.4924                   21274430.1334
        47.5004         37.0004
     99356.47747    144771.66846  22312810.8674                   22312804.6254
        45.2504         36.0004
   -892464.69547   -583079.26247  21552589.6804                   21552587.7934
        47.7504         45.5004
    311335.36746    350974.68045  24673266.0314                   24673268.8404
        39.5004         33.2504
    118065.55147    150480.01246  21734942.0784                   21734937.5274
        45.7504         36.0004
   -320741.51647   -170877.39848  20259966.5004                   20259961.7274
        47.5004         49.5004
    160824.42247    189308.07446  23948330.2034                   23948329.6134
        43.0004         36.0004
   -741984.95347   -480621.31244  23201277.7114                   23201276.3874
        42.5004         27.5004
       747.00046    173632.67243  24744609.9614                   24744610.6644
        36.2504         21.5004
   -952203.80146   -586645.04745  23281424.3524                   23281424.5514
        39.7504         35.7504
 25  7 15  0 14  0.0000000  0 10G01G02G03G10G28G31G32G04G25G26
   -535102.57048   -346182.60246  21226264.2734                   21226259.9414
        48.5004         37.0004
   -101135.15247    -11455.64845  22274658.0704                   22274652.5514
        46.0004         35.2504
  -1229010.57847   -845322.77747  21488547.0784                   21488545.1644
        47.5004         45.7504
    139341.59846    216953.36744  24640535.1884                   24640538.3444
        37.0004         28.5004
    -80942.26247     -4591.04346  21697072.0784                   21697067.9924
        45.2504         36.5004
   -579100.84047   -372196.35948  20210802.7734                   20210797.4574
        47.0004         49.5004
    -32698.23447     38511.14846  23911503.8984                   23911502.8714
        43.0004         36.0004
  -1069857.96947   -736106.68044  23138885.9534                   23138884.1564
        42.5004         27.0004
   -221113.09446       754.65243  24702391.8834                   24702391.9844
        37.0004         21.2504
  -1298873.25446   -856777.01645  23215455.3524                   23215455.7194
        40.2504         35.5004
 25  7 15  0 14 30.0000000  0 10G01G02G03G10G28G31G32G04G25G26
   -787598.74648   -542932.89546  21178215.8984                   21178211.5084
        48.0004         36.7504
   -301215.61747   -167362.57445  22236584.1174                   22236578.4024
        45.7504         35.0004
  -1565288.80147  -1107357.73847  21424555.4924                   21424553.7584
        47.7504         45.7504
    -32396.06646     83131.59844  24607857.0004                   24607856.9574
        39.5004         28.2504
   -279490.45347   -159303.95346  21659289.4304                   21659285.0984
        46.0004         37.0004
   -836791.62947   -572994.37948  20161765.7194                   20161760.4734
        47.2504         49.5004
   -226150.80947   -112231.19146  23874691.7274                   23874690.7894
        42.0004         36.7504
  -1397545.21947   -991447.32844  23076529.0634                   23076527.0554
        42.0004         26.7504
   -442396.69046   -171674.13343  24660282.6724                   24660282.2464
        38.0004         20.2504
  -1645286.34046  -1126709.19946  23149534.4144                   23149535.2934
        40.2504         36.0004
 25  7 15  0 15  0.0000000  0 10G01G02G03G10G28G31G32G04G25G26
  -1039455.22347   -739184.71546  21130289.0474                   21130285.2384
        47.2504         36.7504
   -500888.49647   -322951.87545  22198587.5314                   22198582.0124
        45.0004         34.5004
  -1901297.95348  -1369183.02747  21360614.8754                   21360612.9304
        48.0004         46.0004
   -203879.45346    -50492.05145  24575225.1174                   24575226.2624
        41.5004         33.2504
   -477582.14147   -313661.14546  21621593.7974                   21621589.6254
        45.2504         36.2504
  -1093815.62547   -773272.81648  20112855.4384                   20112850.0084
        47.5004         49.5004
   -419534.07847   -262919.52046  23837891.8284                   23837890.6524
        42.2504         36.7504
  -1725047.52747  -1246643.83244  23014207.5704                   23014205.0084
        42.2504         28.7504
   -663105.43446   -343654.98443  24618283.7424                   24618282.8794
        38.2504         20.0004
  -1991440.48446  -1396439.64145  23083664.9694                   23083663.9414
        40.2504         35.7504
 25  7 15  0 15 30.0000000  0 10G01G02G03G10G28G31G32G04G25G26
  -1290674.01247   -934939.63746  21082483.7274                   21082479.6134
        47.7504         36.5004
   -700156.72347   -478225.89145  22160668.4774                   22160662.5904
        46.0004         35.2504
  -2237037.31648  -1630798.10247  21296726.2734                   21296724.0434
        48.0004         46.0004
   -375111.12546   -183919.58245  24542640.1724                   24542642.5704
        37.7504         30.7504
   -675221.23847   -467665.66846  21583984.3594                   21583980.2234
        46.2504         36.2504
  -1350174.95748   -973033.34048  20064072.1094                   20064066.9024
        48.0004         49.5004
   -612849.72746   -413555.16045  23801105.3284                   23801103.8244
        40.5004         35.5004
  -2052366.53547  -1501697.50844  22951920.6484                   22951918.6174
        42.5004         27.7504
   -883241.97346   -515189.94143  24576392.3284                   24576393.1844
        37.5004         20.0004
  -2337333.96946  -1665966.92645  23017842.9384                   23017843.2854
        40.2504         35.7504
 25  7 15  0 16  0.0000000  0 10G01G02G03G10G28G31G32G04G25G26
  -1541258.18047  -1130200.03946  21034798.8594                   21034794.9924
        47.5004         36.7504
   -899025.25847   -633188.44545  22122824.8984                   22122819.6134
        46.2504         35.5004
  -2572507.21547  -1892203.19547  21232888.2114                   21232886.1764
        47.5004         46.2504
   -546094.41846   -317153.66444  24510103.8984                   24510105.9304
        36.7504         29.5004
   -872412.60247   -621321.30546  21546460.3284                   21546455.7344
        45.0004         36.5004
  -1605873.14147  -1172278.67648  20015414.5314                   20015408.8164
        47.0004         49.5004
   -806100.37946   -564140.16045  23764330.5474                   23764329.8204
        39.5004         35.5004
  -2379504.90647  -1756610.43744  22889667.5864                   22889666.1054
        42.0004         26.0004
  -1102809.80946   -686281.73443  24534610.2344                   24534610.3204
        37.5004         20.5004
  -2682965.95346  -1935290.45746  22952071.3754                   22952071.1844
        40.7504         36.5004
 25  7 15  0 16 30.0000000  0 10G01G02G03G10G28G31G32G04G25G26
   -215783.62148    -97362.74646  21287028.1334                   21287024.3244
        48.0004         36.7504
    477926.16847    439760.66845  22384850.3054                   22384844.8244
        45.7504         35.0004
  -1332277.93047   -925790.73847  21468896.0634                   21468893.9024
        47.7504         46.0004
    858591.70746    777406.70745  24777406.7344                   24777407.9804
        38.2504         30.0004
    506264.30947    452972.35946  21808814.1094                   21808809.2194
        46.5004         36.2504
   -285485.96147   -143405.55148  20266675.6024                   20266670.3014
        47.5004         49.5004
    576136.60947    512927.53546  24027362.7034                   24027360.8014
        42.0004         36.0004
  -1131035.41047   -783776.96144  23127243.7424                   23127241.9384
        42.5004         28.5004
    253613.59446    370671.56344  24792729.1804                   24792729.8244
        39.0004         25.2504
  -1452905.29746   -976801.56246  23186143.9064                   23186143.8554
        40.5004         36.0004
 25  7 15  0 17  0.0000000  0 10G01G02G03G10G28G31G32G04G25G26
   -465112.69947   -291645.16846  21239582.6094                   21239578.5044
        47.0004         36.5004
    279836.72347    285405.19145  22347155.4064                   22347149.2344
        46.2504         34.7504
  -1667214.75047  -1186780.44147  21405159.6884                   21405157.2464
        47.2504         46.0004
    688089.57846    644547.70745  24744960.8364                   24744963.5864
        39.0004         31.0004
    309948.76647    299999.18446  21771456.3834                   21771452.0594
        45.2504         36.5004
   -539876.47748   -341631.92648  20218266.9454                   20218261.2234
        48.0004         49.5004
    383003.06347    362433.81646  23990609.8674                   23990609.0204
        43.5004         37.5004
  -1457825.14547  -1038418.22344  23065057.7504                   23065055.9844
        42.0004         27.7504
     35167.36346    200453.68444  24751160.0004                   24751160.9964
        37.5004         27.7504
  -1798016.93746  -1245719.62546  23120471.2274                   23120472.1134
        41.0004         36.2504
 25  7 15  0 17 30.0000000  0 10G01G02G03G10G28G31G32G04G25G26
   -713818.28147   -485441.74246  21192255.5864                   21192251.6604
        47.0004         36.2504
     82130.55947    131348.37945  22309533.1954                   22309527.1414
        45.2504         35.0004
  -2001884.88747  -1447562.34447  21341474.3674                   21341472.4774
        47.0004         46.2504
    517823.43846    511872.52345  24712560.5634                   24712563.8484
        37.2504         33.2504
    114064.39547    147361.97746  21734181.0084                   21734176.1604
        45.5004         36.5004
   -793617.49647   -539352.19948  20169981.2504                   20169976.1564
        47.5004         49.5004
    189924.81347    211983.16846  23953869.1094                   23953866.9534
        44.0004         37.0004
  -1784443.90647  -1292926.24644  23002904.2584                   23002902.0204
        43.0004         28.0004
   -182722.83645     30669.06644  24709697.2034                   24709698.0124
        35.2504         25.5004
  -2142866.57846  -1514433.53146  23054848.2194                   23054848.2424
        41.0004         36.0004
 25  7 15  0 18  0.0000000  0 10G01G02G03G10G28G31G32G04G25G26
   -961901.84847   -678753.63346  21145046.7664                   21145042.7774
        47.7504         36.2504
   -115195.57847    -22412.30545  22271983.3364                   22271976.9774
        46.2504         34.5004
  -2336286.92247  -1708135.33647  21277839.5634                   21277837.1484
        47.5004         46.0004
    347791.38346    379379.65245  24680204.8674                   24680207.8484
        37.5004         33.5004
    -81392.05547     -4941.78546  21696986.4144                   21696982.6844
        46.0004         36.7504
  -1046710.66447   -736567.66848  20121819.3134                   20121813.6334
        47.7504         49.2504
     -3099.12547     61574.86746  23917137.8204                   23917135.8054
        43.5004         37.5004
  -2110892.69547  -1547301.85244  22940782.8364                   22940781.0044
        42.5004         28.5004
   -400058.83645   -138683.72343  24668339.2814                   24668340.3834
        32.0004         22.5004
  -2487451.80146  -1782941.44146  22989275.9384                   22989275.9924
        40.5004         36.2504
 25  7 15  0 18 30.0000000  0 11G01G02G03G10G28G31G32G04G25G26G16
  -1209368.66847   -871584.93446  21097955.5234                   21097951.3404
        47.5004         36.5004
   -312148.46947   -175882.14145  22234503.8754                   22234498.5664
        45.2504         34.5004
  -2670423.21947  -1968501.25447  21214255.3444                   21214252.9734
        47.5004         46.0004
    177987.74246    247064.87145  24647892.3594                   24647895.2384
        36.2504         30.5004
   -276427.54747   -156917.52046  21659872.8284                   21659868.5124
        46.5004         36.0004
  -1299161.48447   -933282.59448  20073779.6024                   20073773.8874
        47.5004         49.2504
   -196073.39546    -88794.75046  23880414.8754                   23880414.1524
        41.7504         36.5004
  -2437176.11747  -1801548.57844  22878693.4534                   22878690.9924
        43.0004         28.2504
                                  24627086.2974                   24627086.3954
        31.2504         22.5004
  -2831773.91846  -2051244.29746  22923754.0084                   22923753.5984
        40.7504         36.2504
   2702569.34415                  25137086.000
        33.000
 25  7 15  0 19  0.0000000  0 11G01G02G03G10G28G31G32G04G25G26G16
  -1456223.25447  -1063939.17646  21050980.8834                   21050976.6214
        46.5004         36.2504
   -508734.82047   -329066.37145  22197095.2344                   22197089.4144
        46.2504         34.2504
  -3004295.42647  -2228661.39547  21150721.7114                   21150719.2624
        47.0004         46.2504
      8407.75046    114924.35544  24615622.4924                   24615625.2384
        38.0004         29.0004
   -471048.36347   -308570.13746  21622837.4774                   21622833.2234
        46.7504         36.0004
  -1550975.06248  -1129500.96948  20025860.8284                   20025855.5554
        48.2504         49.2504
   -389002.00846   -239128.81246  23843702.7344                   23843701.6334
        41.7504         36.7504
  -2763298.16447  -2055669.55544  22816634.1954                   22816632.3444
        42.5004         28.0004
   -833090.99655   -476111.46153  24585936.1884                   24585936.5164
        31.0004         22.5004
  -3175833.47346  -2319342.59046  22858281.1724                   22858281.2344
        40.2504         36.0004
   2342818.03145   2406602.09053  25068627.1254                   25068633.1024
        35.5004         19.2504
 25  7 15  0 19 30.0000000  0 11G01G02G03G10G28G31G32G04G25G26G16
   -127045.06247    -28215.92246  21303914.8284                   21303910.6174
        46.7504         36.0004
    870462.84047    745633.05545  22459547.7274                   22459542.0704
        45.0004         34.5004
  -1762477.07847  -1261010.71947  21387031.8284                   21387029.5904
        47.0004         46.5004
   1414469.07845   1210556.30144  24883186.4384                   24883190.0314
        34.7504         28.2504
    910162.64847    767698.16446  21885672.9534                   21885669.0314
        45.0004         36.0004
   -226730.55948    -97622.13748  20277856.6094                   20277851.1134
        48.0004         49.2504
    993534.56647    838172.33646  24106790.2664                   24106789.5944
        42.2504         36.2504
  -1513835.05547  -1082061.84044  23054399.0234                   23054397.0274
        43.0004         28.5004
                                  24844682.1954                   24844682.5824
        25.2504         18.2504
  -1944202.58246  -1359630.14146  23092652.7344                   23092653.0084
        41.2504         36.7504
   3558346.35546   3353767.52043  25299934.4924                   25299939.4414
        37.5004         18.2504
 25  7 15  0 20  0.0000000  0 10G01G02G03G10G28G31G32G04G26G16
   -372693.06247   -219629.96946  21257169.3834                   21257165.6294
        46.2504         36.5004
    674587.19947    593002.62145  22422273.6414                   22422268.2114
        46.7504         34.5004
  -2095830.05547  -1520766.25847  21323597.0164                   21323594.7074
        46.7504         46.2504
   1245317.62946   1078749.62945  24850999.5634                   24851002.1174
        36.0004         30.5004
    716348.28147    616673.95346  21848791.8524                   21848787.0474
        47.0004         36.2504
   -477287.76647   -292861.52348  20230177.3204                   20230171.6414
        47.5004         49.2504
    800681.50047    687897.14846  24070092.0474                   24070091.2814
        42.5004         37.5004
  -1839650.43047  -1335943.86744  22992398.5864                   22992395.8324
        43.5004         28.5004
  -2287742.78146  -1627323.72746  23027279.1884                   23027279.0394
        40.2504         36.0004
   3198290.91046   3073205.15642  25231417.5864                   25231422.5554
        36.0004         16.2504
 25  7 15  0 20 30.0000000  0 11G01G02G03G10G28G31G32G04G25G26G16
   -617739.97747   -410575.64546  21210538.7734                   21210534.6884
        47.2504         36.2504
    479062.39547    440645.56345  22385066.9454                   22385061.1804
        45.7504         34.5004
  -2428921.09447  -1780317.69947  21260211.5004                   21260209.0164
        47.0004         46.2504
   1076377.66846    947107.81345  24818851.4844                   24818854.5164
        37.7504         31.0004
    522932.41447    465960.26246  21811986.3204                   21811981.7114
        46.0004         36.0004
   -727219.29348   -487613.36348  20182616.8204                   20182610.9534
        48.0004         49.2504
    607865.00847    537650.46546  24033400.4614                   24033398.7704
        43.0004         37.0004
  -2165313.68047  -1589707.34444  22930427.2034                   22930424.1604
        43.0004         29.0004
     96800.11355    394835.10554  24762889.4304                   24762890.4064
        34.0004         26.0004
  -2631019.45746  -1894811.95746  22961956.0864                   22961955.7274
        41.2504         36.2504
   2838086.56646   2792526.77742  25162872.6564                   25162878.5514
        36.2504         14.7504
 25  7 15  0 21  0.0000000  0 11G01G02G03G10G28G31G32G04G25G26G16
   -862188.53947   -601055.06246  21164021.7504                   21164017.2424
        47.2504         36.5004
    283883.96147    288558.41445  22347925.8834                   22347919.6954
        46.0004         34.2504
  -2761749.93747  -2039664.83647  21196876.1024                   21196874.2234
        47.0004         46.2504
    907646.18846    815628.48044  24786743.0554                   24786746.0554
        36.5004         27.5004
    329910.64547    315553.65645  21775254.8984                   21775250.2384
        46.5004         35.5004
   -976528.19548   -681880.04348  20135174.9304                   20135169.4494
        48.2504         49.0004
    415083.07847    387430.73446  23996715.1564                   23996713.9414
        43.2504         37.0004
  -2490826.88347  -1843353.90644  22868483.2894                   22868480.9384
        43.0004         28.5004
   -117319.01245    227988.98843  24722143.5394                   24722144.0314
        34.7504         22.2504
  -2974031.24646  -2162093.80946  22896683.0554                   22896683.0704
        41.5004         37.0004
   2477733.645 5                  25094298.484
        31.250
 25  7 15  0 21 30.0000000  0 10G01G02G03G28G31G32G04G25G26G16
  -1106037.05147   -791066.91446  21117619.5554                   21117615.1994
        47.5004         36.5004
     89052.12147    136741.33245  22310850.6884                   22310844.9344
        46.2504         34.5004
  -3094311.75847  -2298803.90247  21133591.9454                   21133589.9494
        47.0004         46.7504
    137283.11347    165454.25845  21738599.3754                   21738594.6884
        46.7504         35.5004
  -1225213.07048   -875660.46948  20087851.6484                   20087845.9924
        49.5004         49.2504
    222338.19147    237239.85246  23960036.7974                   23960036.2344
        42.7504         36.7504
  -2816187.62147  -2096881.66444  22806569.3674                   22806566.8054
        43.0004         28.2504
   -330909.25446     61555.00443  24681498.7734                   24681499.3324
        36.5004         22.7504
  -3316772.35546  -2429164.72746  22831461.2344                   22831461.1454
        41.5004         38.0004
   2117237.270 5                  25025699.539
        34.500
 25  7 15  0 22  0.0000000  0 11G01G02G03G10G28G31G32G04G25G26G16
  -1349281.30547   -980607.91046  21071331.0704                   21071326.9734
        47.5004         36.2504
   -105430.73047    -14803.80945  22273841.7034                   22273835.9384
        45.5004         34.5004
  -3426599.31647  -2557729.24647  21070359.2584                   21070357.0124
        47.2504         46.5004
    570812.52056    596026.99654  24722647.8204                   24722649.7664
        37.2504         29.0004
    -54947.60547     15664.05945  21702019.0704                   21702014.6214
        45.2504         35.5004
  -1473269.85548  -1068951.47348  20040648.0554                   20040642.4534
        48.7504         49.2504
     29635.29746     87081.68046  23923366.2274                   23923365.4224
        41.2504         36.7504
  -3141390.99647  -2350286.79344  22744684.9774                   22744683.0514
        43.0004         27.5004
   -543967.08646   -104464.11344  24640955.8754                   24640956.0434
        38.2504         25.7504
  -3659234.49646  -2696018.25846  22766292.3284                   22766292.0984
        41.2504         37.2504
   1756605.25446   2605196.19152  24957073.4774                   24957074.8094
        38.0004         17.2504
 25  7 15  0 22 30.0000000  0 11G01G02G03G10G28G31G32G04G25G26G16
    -16495.84847     57926.18846  21324951.3284                   21324947.7854
        47.5004         36.0004
   1275857.89147   1061524.92245  22536692.0084                   22536686.2384
        46.5004         34.2504
  -2183181.01647  -1588831.85547  21306974.3914                   21306971.7894
        47.0004         46.5004
   1978141.73846   1692646.89145  24990453.8134                   24990456.5514
        40.5004         33.0004
   1328640.68447   1093784.78145  21965307.0394                   21965302.5474
        46.2504         35.2504
   -145273.14548    -34148.84848  20293357.4144                   20293351.7074
        48.7504         49.0004
   1412399.04347   1164559.85546  24186497.9694                   24186496.9384
        42.0004         36.0004
  -1891008.09047  -1375962.37544  22982625.4304                   22982622.8524
        43.5004         28.7504
    818931.46646    957534.74944  24900307.0004                   24900306.9104
        38.0004         24.0004
  -2425984.72346  -1735044.33646  23000972.3284                   23000972.1374
        41.2504         36.7504
   2971270.62546   3551689.11342  25188217.0084                   25188219.4384
        39.0004         16.2504
 25  7 15  0 23  0.0000000  0 11G01G02G03G10G28G31G32G04G25G26G16
   -258542.41047   -130681.54346  21278891.7734                   21278887.7114
        47.7504         36.0004
   1082057.81347    910511.80545  22499813.3594                   22499807.7074
        44.7504         34.5004
  -2514921.40648  -1847330.83647  21243846.2584                   21243843.9024
        48.0004         46.5004
   1810250.78546   1561822.45345  24958505.2734                   24958509.1334
        37.2504         30.7504
   1137188.05547    944600.89545  21928874.9304                   21928870.5904
        46.0004         35.0004
   -392085.40248   -226470.09048  20246390.5864                   20246384.9414
        49.0004         49.0004
   1219771.88746   1014460.71945  24149842.0314                   24149841.0784
        41.0004         35.5004
  -2215905.26247  -1629128.92244  22920798.8674                   22920796.9774
        43.0004         28.7504
    606926.40646    792336.00843  24859963.2814                   24859963.6764
        37.5004         22.2504
  -2767887.18747  -2001461.74246  22935910.5554                   22935910.1884
        42.0004         37.0004
   2610367.09046   3270465.88342  25119538.6334                   25119541.5354
        36.5004         16.2504
 25  7 15  0 23 30.0000000  0 10G01G02G03G10G28G31G32G04G26G16
   -499996.55947   -318827.65646  21232944.8444                   21232940.6214
        47.5004         36.5004
    888590.46947    759757.97745  22462997.6884                   22462991.9264
        44.5004         34.5004
  -2846389.87148  -2105617.92647  21180769.6254                   21180767.3094
        48.0004         47.0004
   1642561.32845   1431154.96944  24926595.8284                   24926598.6764
        35.7504         25.0004
    946115.72747    795713.34045  21892515.2974                   21892510.8284
        44.7504         34.7504
   -638282.09448   -418311.67648  20199541.0634                   20199535.1994
        48.7504         49.2504
   1027177.41847    864387.02345  24113192.7974                   24113191.6454
        42.2504         35.7504
  -2540654.64547  -1882180.30944  22859001.2814                   22858998.8914
        43.0004         28.7504
  -3109510.05546  -2267661.31646  22870901.3284                   22870901.2464
        40.5004         36.7504
                                  25050834.070
        32.750
 25  7 15  0 24  0.0000000  0 10G01G02G03G10G28G31G32G04G26G16
   -740860.87947   -506514.16446  21187109.9384                   21187105.5314
        47.7504         36.2504
    695451.71547    609260.18045  22426244.6644                   22426239.0234
        45.2504         34.0004
  -3177585.76647  -2363692.62947  21117745.2504                   21117743.3324
        47.0004         47.0004
   1475070.78946   1300642.63744  24894722.6334                   24894725.4774
        36.7504         25.2504
    755419.64547    647118.96145  21856226.7584                   21856222.2584
        46.5004         35.2504
   -883866.14148   -609675.87548  20152807.5784                   20152802.3284
        49.0004         49.2504
    834614.03947    714337.57845  24076549.6024                   24076547.9304
        42.7504         35.5004
  -2865257.88747  -2135117.82044  22797231.4224                   22797228.9614
        43.0004         28.5004
  -3450851.60247  -2533641.65246  22805946.5864                   22805946.2114
        42.2504         37.2504
   1888149.72716                  24982103.945
        36.250
 25  7 15  0 24 30.0000000  0 10G01G02G03G10G28G31G32G04G26G16
   -981134.02347   -693740.00846  21141387.4614                   21141383.2584
        47.5004         36.7504
    502641.45747    459018.35545  22389554.3204                   22389548.5164
        46.5004         33.7504
  -3508504.53147  -2621551.37947  21054773.3674                   21054771.1724
        47.5004         47.0004
   1307780.07046   1170285.95344  24862889.8364                   24862891.9844
        39.2504         27.0004
    565099.58647    498817.59445  21820010.0704                   21820006.1454
        46.0004         35.0004
  -1128836.22348   -800561.66048  20106191.2114                   20106185.7974
        49.0004         49.0004
    642083.97746    564314.09845  24039911.5784                   24039910.8954
        41.0004         35.2504
  -3189712.89147  -2387939.81244  22735489.3914                   22735487.2154
        42.5004         28.7504
  -3791906.31646  -2799398.50046  22741045.5864                   22741045.8134
        41.0004         37.0004
   1526842.49646   2917717.06653  24913349.2344                   24913351.4734
        36.0004         19.2504
 25  7 15  0 25  0.0000000  0 10G01G02G03G10G28G31G32G04G26G16
  -1220814.16447   -880503.77046  21095777.3834                   21095773.5824
        46.7504         36.2504
    310160.05547    309032.77745  22352926.3984                   22352920.5434
        44.2504         34.5004
  -3839141.03547  -2879190.19147  20991855.2034                   20991853.1524
        47.0004         47.0004
   1140690.98046   1040086.44945  24831093.5474                   24831096.9884
        41.7504         34.2504
    375155.98047    350809.56345  21783865.1024                   21783860.7704
        44.0004         34.5004
  -1373190.64848   -990967.71148  20059692.6564                   20059686.6414
        48.2504         49.0004
    449590.05147    414318.75045  24003281.8284                   24003280.2424
        42.5004         35.0004
  -3514016.86747  -2640644.12544  22673777.1804                   22673773.8634
        42.5004         28.5004
  -4132668.07847  -3064927.07046  22676201.3674                   22676200.6604
        42.0004         37.7504
   1165409.86745   2636081.77742  24844569.6564                   24844574.3984
        32.7504         17.2504
 25  7 15  0 25 30.0000000  0 10G01G02G03G10G28G31G32G04G26G16
    115523.41047    160798.20745  21350074.2584                   21350070.3204
        46.0004         35.5004
   1693429.26247   1386904.80945  22616153.7584                   22616147.8364
        45.2504         34.0004
  -2594064.21547  -1909000.42647  21228785.5784                   21228783.8094
        46.0004         46.5004
   2549225.80946   2137645.73444  25099127.9224                   25099131.6684
        36.7504         27.2504
   1761010.41847   1430696.11345  22047584.8674                   22047580.2974
        44.7504         33.5004
    -41505.13747     46709.30948  20313104.0704                   20313098.3244
        46.7504         48.7504
   1832556.51647   1491954.87545  24266451.4614                   24266450.8594
        42.0004         35.5004
  -2262741.41047  -1665624.21144  22911886.8594                   22911883.9884
        42.2504         28.0004
  -2897704.46146  -2102617.69946  22911206.4224                   22911206.1994
        41.2504         36.5004
   2379284.17644   3581958.20342  25075562.0554                   25075567.4844
        28.7504         15.5004
 25  7 15  0 26  0.0000000  0 10G01G02G03G10G28G31G32G04G26G16
   -122980.24647    -25048.81646  21304688.6564                   21304684.2974
        47.0004         36.2504
   1501591.52747   1237420.79745  22579648.2664                   22579642.5864
        45.5004         33.5004
  -2924135.80147  -2166199.04747  21165975.0554                   21165972.8754
        46.0004         47.2504
   2382530.26246   2007752.68444  25067407.1804                   25067411.0234
        36.7504         27.2504
   1571805.83647   1283263.94945  22011579.6174                   22011575.6254
        46.0004         34.5004
   -284638.92247   -142745.59848  20266837.1954                   20266831.8484
        47.7504         49.0004
   1640128.41446   1342010.82045  24229833.4304                   24229832.6254
        41.5004         34.5004
  -2586750.20347  -1918098.52344  22850229.0784                   22850226.7814
        42.7504         28.0004
  -3237876.97747  -2367687.11746  22846473.5944                   22846473.8914
        42.0004         38.0004
   2017602.44955   3300128.55952  25006738.1724                   25006742.2664
        35.0004         15.5004
 25  7 15  0 26 30.0000000  0 10G01G02G03G10G28G31G32G04G26G16
   -360900.16047   -210440.98046  21259414.0704                   21259409.8984
        47.0004         36.0004
   1310069.05147   1088182.43845  22543202.7664                   22543197.1454
        44.5004         33.5004
  -3253924.38347  -2423177.13747  21103218.2114                   21103216.3404
        46.2504         47.5004
   2216026.96146   1878009.51643  25035722.7504                   25035726.1414
        37.5004         22.5004
   1382964.14547   1136114.55945  21975644.6644                   21975640.1994
        44.0004         34.7504
   -527167.35548   -331728.79748  20220685.4144                   20220679.4844
        48.5004         49.0004
   1447730.34046   1192090.18445  24193220.9694                   24193220.8524
        40.2504         34.0004
  -2910614.51646  -2170460.25044  22788599.7894                   22788597.4884
        41.5004         28.7504
  -3577752.85247  -2632525.39846  22781797.8134                   22781797.1294
        42.0004         37.5004
   1655797.40645   3018202.84042  24937887.6414                   24937891.6214
        32.0004         17.2504
 25  7 15  0 27  0.0000000  0 10G01G02G03G10G28G31G32G04G26G16
   -598238.31647   -395379.82846  21214250.0394                   21214246.0514
        46.5004         36.5004
   1118858.42647    939187.06345  22506816.4454                   22506811.1764
        44.0004         33.5004
  -3583428.56647  -2679933.62547  21040515.6094                   21040513.3914
        46.2504         47.2504
   2049713.60547   1748414.56644  25004074.7734                   25004078.7274
        42.0004         29.0004
   1194482.05547    989245.35945  21939777.7664                   21939773.2274
        43.7504         34.5004
   -769092.40647   -520241.82848  20174648.3364                   20174642.7154
        47.7504         49.0004
   1255361.41846   1042192.21145  24156614.2114                   24156614.2854
        38.2504         34.5004
  -3234335.31246  -2422710.15644  22726997.7504                   22726994.9224
        41.5004         28.0004
  -3917329.73446  -2897130.67646  22717177.8674                   22717177.5824
        41.5004         37.7504
                                  24869013.6804                   24869019.0744
        31.5004         15.5004
 25  7 15  0 27 30.0000000  0 10G01G02G03G10G28G31G32G04G26G16
   -834996.90647   -579867.06246  21169196.4144                   21169192.2544
        46.2504         36.2504
    927956.05147    790431.89845  22470488.9534                   22470483.0514
        45.0004         34.2504
  -3912647.14547  -2936467.55547  20977867.3754                   20977865.2154
        46.7504         47.2504
   1883588.08246   1618965.88344  24972462.9774                   24972465.5474
        39.7504         26.0004
   1006355.92647    842653.54345  21903978.2734                   21903974.0984
        44.5004         34.5004
  -1010416.44948   -708286.54348  20128725.9534                   20128720.6174
        48.2504         49.0004
   1063020.48846    892316.05145  24120014.6564                   24120012.9384
        39.5004         32.7504
  -3557913.81247  -2674849.16444  22665422.5164                   22665420.4534
        42.5004         28.2504
  -4256605.49247  -3161501.33646  22652615.9384                   22652615.9144
        42.0004         37.0004
    931824.52746   2454069.04742  24800120.2194                   24800122.4414
        36.0004         15.5004
 25  7 15  0 28  0.0000000  0 10G01G02G03G10G28G31G32G04G26G16
  -1071179.80147   -763905.70746  21124252.2814                   21124248.3404
        45.7504         36.5004
    737356.58647    641912.77745  22434219.1484                   22434214.2464
        46.0004         33.5004
  -4241580.50447  -3192779.23847  20915273.4384                   20915271.2854
        46.0004         47.5004
   1717646.52046   1489660.44944  24940885.4614                   24940889.7974
        39.5004         27.2504
    818580.57047    696335.05945  21868246.0864                   21868241.5084
        46.0004         34.5004
  -1251143.77747   -895866.27748  20082917.1644                   20082911.6604
        47.5004         49.0004
    870704.89846    742459.67645  24083417.8204                   24083415.8324
        41.2504         33.0004
  -3881352.88347  -2926879.53944  22603874.3674                   22603871.6054
        42.0004         27.5004
  -4595579.52747  -3425636.86746  22588110.7974                   22588110.9774
        42.0004         37.7504
    569658.46545   2171862.05542  24731201.0084                   24731204.5944
        31.2504         17.2504
 25  7 15  0 28 30.0000000  0 10G01G02G03G10G28G31G32G04G26G16
    268638.34047    280108.40646  21379211.1174                   21379207.2774
        46.0004         36.2504
   2122482.61347   1721231.69945  22697799.9614                   22697794.8634
        45.5004         34.0004
  -2994796.79747  -2221259.43747  21152528.4064                   21152526.3714
        46.0004         47.5004
   3127311.88346   2588100.69145  25209136.1414                   25209139.4384
        40.0004         30.0004
   2206578.43047   1777891.79745  22132373.3984                   22132369.0204
        45.2504         34.7504
     84151.18847    144623.30148  20337015.3134                   20337009.8524
        47.5004         49.0004
   2253839.63347   1820226.94145  24346620.1414                   24346618.1644
        42.5004         33.5004
  -2629223.19146  -1951194.00444  22842146.4774                   22842144.1994
        41.7504         28.2504
  -3358818.80146  -2461927.12546  22823459.2114                   22823458.2934
        41.7504         37.5004
   1782806.05145   3117172.28142  24962054.4694                   24962058.5394
        32.7504         16.2504
 25  7 15  0 29  0.0000000  0 10G01G02G03G10G28G31G32G04G26G16
     33600.60947     96962.10546  21334484.8364                   21334481.1564
        45.5004         36.5004
   1932478.94947   1573176.81645  22661643.8914                   22661638.2304
        45.5004         33.5004
  -3323155.60247  -2477123.41847  21090044.0944                   21090041.7774
        47.5004         47.5004
   2961731.96146   2459077.00045  25177627.5314                   25177631.7974
        38.7504         31.5004
   2019494.50847   1632112.09045  22096772.4774                   22096768.0744
        46.2504         35.5004
   -155389.18747    -42031.53948  20291432.4224                   20291426.9574
        47.5004         49.0004
   2061572.00446   1670407.95745  24310031.9534                   24310031.1684
        41.5004         34.0004
  -2952386.41847  -2203009.43444  22780650.4774                   22780647.7814
        42.5004         28.0004
  -3697182.56647  -2725587.13346  22759070.4064                   22759070.7154
        42.0004         37.5004
   1420406.01645   2834783.05542  24893092.9454                   24893094.9304
        35.5004         16.7504
 25  7 15  0 29 30.0000000  0 10G01G02G03G10G28G31G32G04G26G16
   -200868.66047    -85741.24245  21289866.8594                   21289863.4534
        46.0004         35.5004
   1742766.89847   1425349.16845  22625543.1564                   22625537.0124
        46.0004         33.5004
  -3651225.98047  -2732762.64547  21027614.5944                   21027611.9844
        47.0004         47.5004
   2796328.75046   2330191.00845  25146153.1804                   25146156.3134
        40.2504         30.0004
   1832750.20347   1486597.02045  22061236.3364                   22061231.8094
        46.2504         34.5004
   -394340.82047   -228227.62148  20245961.8364                   20245955.9654
        47.5004         49.0004
   1869326.09446   1520605.85545  24273448.7504                   24273448.0944
        40.2504         33.5004
  -3275414.27347  -2454719.37544  22719179.9064                   22719177.8324
        42.0004         28.5004
  -4035238.67247  -2989007.39846  22694740.7894                   22694739.9924
        42.0004         38.2504
   1057890.89545   2552304.13342  24824108.5004                   24824110.6294
        35.5004         16.7504
 25  7 15  0 30  0.0000000  0 10G01G02G03G10G28G31G32G04G26G16
   -434770.01247   -268002.06645  21245356.9774                   21245353.1764
        46.5004         35.7504
   1553344.98847   1277747.60945  22589497.0944                   22589491.1954
        45.0004         34.0004
  -3979004.89148  -2988174.75447  20965239.9384                   20965237.6414
        48.0004         47.7504
   2631101.74246   2201442.34043  25114711.8984                   25114715.2734
        38.7504         23.2504
   1646343.84447   1341345.27345  22025764.1564                   22025760.0664
        45.7504         35.5004
   -632704.09848   -413965.23848  20200602.4614                   20200596.8164
        48.5004         49.0004
   1677102.59046   1370821.21145  24236870.0554                   24236869.0164
        41.0004         32.7504
  -3598306.10946  -2706323.34044  22657735.7894                   22657733.3794
        41.7504         28.2504
  -4372983.14547  -3252184.84846  22630469.4844                   22630469.5044
        42.0004         37.7504
    695264.29345   2269738.40242  24755102.2274                   24755104.5704
        35.5004         16.7504
 25  7 15  0 30 30.0000000  0  9G01G02G03G28G31G32G04G26G16
   -668106.75447   -449822.92646  21200954.3834                   21200950.7464
        46.2504         36.0004
   1364208.19947   1130368.23845  22553505.0704                   22553500.0514
        45.0004         33.0004
  -4306492.13747  -3243359.59847  20902921.3524                   20902918.9964
        47.7504         47.7504
   1460270.80947   1196353.26245  21990355.7974                   21990351.3244
        46.2504         35.2504
   -870482.65648   -599247.23448  20155354.2424                   20155348.7934
        48.0004         49.0004
   1484899.49646   1221052.49245  24200294.5084                   24200294.5744
        39.2504         30.5004
  -3921064.16446  -2957823.05144  22596317.6414                   22596314.4804
        41.5004         28.7504
  -4710414.85947  -3515118.58646  22566258.6254                   22566257.8954
        42.0004         38.0004
    332526.87546   1987086.27343  24686075.4144                   24686076.5784
        37.2504         18.2504
 25  7 15  0 31  0.0000000  0  9G01G02G03G28G31G32G04G26G16
   -900879.39847   -631204.22746  21156659.3754                   21156655.5084
        47.5004         36.0004
   1175354.91847    983209.75845  22517567.6644                   22517562.2304
        44.7504         32.5004
  -4633684.54347  -3498314.68747  20840658.7584                   20840656.7584
        47.5004         47.7504
   1274529.42647   1051619.68045  21955010.3834                   21955006.1954
        46.2504         35.0004
  -1107677.21547   -784074.16848  20110217.5864                   20110211.9064
        47.7504         48.7504
   1292717.63346   1071300.32045  24163723.5784                   24163723.4884
        39.5004         31.0004
  -4243687.70747  -3209217.94944  22534924.0784                   22534921.4344
        42.2504         28.7504
  -5047529.76247  -3777805.46546  22502107.7584                   22502107.2544
        42.0004         37.5004
    -30317.99646   1704350.43443  24617027.8754                   24617029.5944
        36.5004         20.7504
 25  7 15  0 31 30.0000000  0  9G01G02G03G28G31G32G04G26G16
    442340.25447    415460.41846  21412265.9144                   21412261.7974
        46.5004         36.2504
   2562210.64547   2063876.47745  22781478.0164                   22781472.6524
        44.0004         33.2504
  -3385147.14148  -2525428.37948  21078247.3284                   21078244.7544
        48.2504         48.0004
   2664545.19147   2134748.81645  22219521.8524                   22219517.5234
        45.7504         34.7504
    231140.40248    259160.33648  20364986.6254                   20364981.1764
        48.2504         49.0004
   2675985.32046   2149171.15245  24426951.1334                   24426950.9064
        39.2504         32.7504
  -2990744.34447  -2232898.39844  22773350.3444                   22773348.8014
        42.2504         28.7504
  -3808891.64547  -2812632.83246  22737812.8134                   22737812.1804
        42.5004         38.0004
   1182166.88745   2649144.28542  24847755.5864                   24847756.9964
        33.7504         17.2504
 25  7 15  0 32  0.0000000  0  9G01G02G03G28G31G32G04G26G16
    210700.44947    234961.84446  21368185.8054                   21368182.1844
        46.5004         36.0004
   2373925.41047   1917160.64545  22745648.4384                   22745643.2814
        45.0004         32.0004
  -3711734.36348  -2779911.90247  21016099.4534                   21016097.2304
        48.0004         47.7504
   2479468.32047   1990533.02345  22184302.6254                   22184298.8324
        46.2504         35.2504
     -4882.04747     75246.73448  20320072.6254                   20320067.3524
        47.7504         49.0004
   2483854.74646   1999458.91845  24390390.0004                   24390390.0594
        40.7504         33.0004
  -3313090.61747  -2484077.23044  22712010.7664                   22712007.5904
        42.0004         29.0004
  -4145354.71547  -3074811.77346  22673785.8524                   22673785.8244
        42.2504         38.5004
    819124.91046   2366254.89543  24778670.5314                   24778672.3754
        36.0004         18.2504
 25  7 15  0 32 30.0000000  0  9G01G02G03G28G31G32G04G26G16
    -20373.99647     54903.81346  21324214.2034                   21324210.0164
        47.0004         36.0004
   2185921.23447   1770663.80945  22709872.5084                   22709867.4534
        44.7504         33.5004
  -4038014.53947  -3034156.16447  20954010.8524                   20954008.1134
        47.2504         47.7504
   2294720.87547   1846573.95345  22149146.3134                   22149142.0234
        45.5004         34.5004
   -240319.71548   -108211.19548  20275270.6334                   20275265.0434
        48.2504         48.7504
   2291750.88746   1849767.50045  24353834.1804                   24353833.8714
        41.2504         32.7504
  -3635297.51647  -2735147.48044  22650696.5164                   22650693.9694
        42.2504         28.0004
  -4481486.09447  -3336732.25446  22609822.1564                   22609820.9964
        42.2504         38.0004
    455989.66446   2083292.74243  24709568.5634                   24709569.7034
        36.7504         18.5004
 25  7 15  0 33  0.0000000  0  9G01G02G03G28G31G32G04G26G16
   -250886.79747   -124716.56245  21280348.7274                   21280345.1374
        46.2504         35.5004
   1998193.22347   1624382.16445  22674149.6174                   22674143.7114
        45.5004         32.2504
  -4363987.71547  -3288161.20747  20891980.1024                   20891977.8134
        47.5004         47.7504
   2110298.03147   1702867.78945  22114051.9454                   22114047.8874
        46.5004         35.5004
   -475176.64547   -291216.59448  20230578.7734                   20230573.4344
        47.5004         48.7504
   2099671.34447   1700095.05545  24317283.5084                   24317281.8634
        42.2504         32.5004
  -3957367.50846  -2986111.04744  22589408.1334                   22589406.2114
        41.7504         28.2504
  -4817284.99247  -3598393.66046  22545921.6484                   22545921.1564
        42.5004         39.0004
     92761.45346   1800258.25843  24640447.9534                   24640449.0434
        37.5004         19.2504
 25  7 15  0 33 30.0000000  0  9G01G02G03G28G31G32G04G26G16
   -480839.73447   -303900.69145  21236590.5554                   21236586.2704
        46.5004         35.5004
   1810738.28947   1478313.31645  22638477.4534                   22638471.9384
        45.5004         32.5004
  -4689651.93047  -3541925.50848  20830008.2114                   20830005.9104
        47.5004         48.2504
   1926196.98047   1559412.40245  22079018.4924                   22079014.6174
        46.2504         34.2504
   -709454.60247   -473770.84848  20185997.2894                   20185992.0234
        46.7504         48.7504
   1907615.83247   1550441.37945  24280736.4694                   24280734.6094
        42.2504         30.7504
  -4279301.03147  -3236968.27344  22528146.7034                   22528144.3594
        42.5004         29.7504
  -5152748.58647  -3859793.78146  22482085.3364                   22482084.8874
        43.2504         39.0004
   -270557.26246   1517153.10943  24571309.7194                   24571311.1024
        37.5004         19.5004
 25  7 15  0 34  0.0000000  0  9G01G02G03G28G31G32G04G26G16
   -710237.16047   -482651.95745  21192937.4224                   21192933.5354
        47.2504         35.7504
   1623551.09447   1332453.09845  22602857.1804                   22602851.8874
        45.0004         31.7504
  -5015007.79347  -3795449.53948  20768094.9844                   20768092.4304
        47.0004         48.0004
   1742412.22347   1416203.45745  22044045.4614                   22044041.6994
        45.7504         34.5004
   -943158.36747   -655877.68048  20141524.6804                   20141519.2384
        47.0004         48.7504
   1715581.52346   1400804.20744  24244192.8284                   24244191.3484
        40.2504         29.5004
  -4601101.15247  -3487721.55144  22466909.7664                   22466907.6134
        42.0004         28.5004
  -5487876.54747  -4120932.39546  22418312.2424                   22418311.7114
        42.0004         38.7504
   -633966.37146   1233977.55543  24502155.8914                   24502155.4964
        38.5004         19.2504
 25  7 15  0 34 30.0000000  0  9G01G02G03G28G31G32G04G26G16
    636347.86347    566635.05545  21449184.4534                   21449179.7504
        47.5004         35.7504
   3012055.71547   2414404.65645  22867081.0864                   22867075.2154
        46.2504         31.7504
  -3764621.36747  -2821122.43448  21006035.6254                   21006033.1914
        47.2504         48.0004
   3134368.21947   2500844.45745  22308926.3594                   22308921.6844
        46.0004         34.2504
    399139.02347    390068.33248  20396955.5634                   20396949.8444
        47.2504         48.5004
   3098995.71146   2478789.22744  24507446.4304                   24507446.8794
        39.0004         28.7504
  -3347336.48447  -2510761.99644  22705493.4384                   22705490.7234
        43.0004         28.5004
  -4247233.89147  -3154197.79346  22654398.4844                   22654397.9694
        42.7504         38.5004
    577969.68045   2178343.81343  24732778.9774                   24732780.1524
        34.2504         18.5004
 25  7 15  0 35  0.0000000  0  9G01G02G03G28G31G32G04G26G16
    408055.65647    388745.00445  21405741.4774                   21405737.4844
        46.5004         35.7504
   2825394.47747   2268954.27745  22831560.3134                   22831555.1414
        45.0004         32.2504
  -4089354.93447  -3074161.55548  20944241.0864                   20944238.7194
        47.0004         48.2504
   2951207.28947   2358121.60945  22274071.8984                   22274067.3284
        45.7504         34.7504
    166577.46147    208851.53548  20352700.5084                   20352695.1214
        46.5004         48.5004
   2907002.68746   2329184.19345  24470912.0394                   24470912.1914
        39.7504         31.5004
  -3668871.48447  -2761308.69144  22644307.7194                   22644304.6484
        43.2504         28.5004
  -4581682.62547  -3414807.13346  22590755.6174                   22590754.2664
        42.7504         38.7504
    214387.34446   1895033.27743  24663590.9924                   24663592.3324
        38.7504         19.7504
 25  7 15  0 35 30.0000000  0  9G01G02G03G28G31G32G04G26G16
