     2.11           OBSERVATION DATA    G (GPS)             RINEX VERSION / TYPE
teqc  2019Feb25     K Rivera            20250728 22:30:51UTCPGM / RUN BY / DATE
Linux 2.6.32-573.12.1.x86_64|x86_64|gcc -static|Linux 64|=+ COMMENT
teqc  2019Feb25                         20250728 22:30:25UTCCOMMENT
BIT 2 OF LLI FLAGS DATA COLLECTED UNDER A/S CONDITION       COMMENT
HAW0                                                        MARKER NAME
                                                            MARKER NUMBER
K Baraggiotta       University of California, Riverside     OBSERVER / AGENCY
0220413516          TRIMBLE R7          2.32                REC # / TYPE / VERS
12118428            TRM41249.00                             ANT # / TYPE
 -2410322.4991 -4646317.4869  3633562.3373                  APPROX POSITION XYZ
        1.0573        0.0000        0.0000                  ANTENNA: DELTA H/E/N
     1     1                                                WAVELENGTH FACT L1/2
     7    L1    L2    C1    P1    P2    S1    S2            # / TYPES OF OBSERV
    18                                                      LEAP SECONDS
 SNR is mapped to RINEX snr flag value [0-9]                COMMENT
  L1 & L2: min(max(int(snr_dBHz/6), 0), 9)                  COMMENT
  2025     7    15     0     0   30.0000000     GPS         TIME OF FIRST OBS
                                                            END OF HEADER
 25  7 15  0  0 30.0000000  0 10G01G02G03G10G28G31G32G25G04G26
 -17833373.01257 -13867627.81655  21189910.7034                   21189908.6884
        45.7504         35.2504
  -9756909.90657  -7584438.02355  21959376.3594                   21959372.2774
        47.5004         34.5004
 -23295309.60957 -18100942.27056  21854355.1564                   21854354.8204
        46.0004         41.5004
  -3624268.75856  -2819071.35955  24210988.9694                   24210991.5664
        40.5004         33.2504
 -10267534.41057  -7981387.39856  21405145.1094                   21405142.3874
        46.5004         36.0004
 -18940225.48058 -14727290.60558  20230667.8754                   20230664.5124
        49.5004         49.0004
  -4063260.98057  -3157929.15656  23573668.7504                   23573669.7074
        43.0004         37.0004
 -13469685.91855 -10460395.00054  24541997.7194                   24541999.8094
        33.0004         26.2504
 -20965915.29756 -16293684.17253  23446168.7664                   23446169.7034
        38.7504         21.5004
 -17901947.95356 -13905541.82055  23673649.0944                   23673652.2814
        39.0004         31.5004
 25  7 15  0  1  0.0000000  0 10G01G02G03G10G28G31G32G25G04G26
 -17934145.68047 -13946151.98045  21170734.4694                   21170731.9844
        46.5004         35.2504
  -9799680.35947  -7617765.69545  21951237.2504                   21951232.9964
        46.5004         34.5004
 -23468602.69547 -18235975.80147  21821378.7114                   21821378.4494
        45.5004         42.0004
  -3634242.32846  -2826843.10545  24209091.1334                   24209093.8364
        40.0004         33.0004
 -10310214.31647  -8014644.46946  21397022.9614                   21397020.1254
        47.0004         36.0004
 -19047056.48048 -14810535.52748  20210338.5164                   20210335.3364
        49.7504         49.0004
  -4089232.14147  -3178166.47345  23568726.6254                   23568727.5514
        43.0004         35.7504
 -13538219.00445 -10513797.39544  24528955.6484                   24528958.0634
        33.5004         26.0004
 -21129571.17646 -16421208.10543  23415026.3524                   23415027.0784
        39.5004         22.5004
 -18084922.95346 -14048119.60945  23638830.4844                   23638833.1254
        38.2504         31.0004
 25  7 15  0  1 30.0000000  0 10G01G02G03G10G28G31G32G25G04G26
 -18034265.11747 -14024167.14145  21151682.5634                   21151680.0234
        45.2504         35.0004
  -9841975.48047  -7650722.97345  21943188.7344                   21943184.8674
        45.5004         35.0004
 -23641673.37147 -18370836.03946  21788444.1884                   21788444.0824
        45.5004         41.7504
  -3643931.45346  -2834393.21545  24207247.4774                   24207250.3364
        39.5004         32.5004
 -10352366.02347  -8047489.97745  21389001.9534                   21388999.6564
        46.0004         35.0004
 -19153199.80948 -14893244.60948  20190140.0704                   20190136.4694
        49.0004         49.0004
  -4115119.94147  -3198338.83646  23563800.7424                   23563801.1564
        42.7504         36.2504
 -13606149.14545 -10566729.99644  24516029.5314                   24516031.1254
        34.0004         27.2504
 -21293027.72746 -16548576.73443  23383921.3054                   23383922.3914
        39.5004         22.7504
 -18267719.74646 -14190558.53545  23604044.9614                   23604048.1294
        39.0004         30.5004
 25  7 15  0  2  0.0000000  0 10G01G02G03G10G28G31G32G25G04G26
 -18133735.05947 -14101676.19945  21132754.0944                   21132751.8984
        47.0004         35.2504
  -9883801.56647  -7683314.77745  21935229.7584                   21935225.5634
        47.0004         35.5004
 -23814523.53947 -18505524.45347  21755551.9924                   21755551.9534
        45.7504         42.0004
  -3653340.73046  -2841725.26245  24205457.4774                   24205459.9024
        40.2504         32.5004
 -10393995.60547  -8079928.62145  21381079.9384                   21381077.8594
        46.2504         35.5004
 -19258659.62548 -14975421.07848  20170071.5944                   20170068.2624
        50.0004         48.7504
  -4140928.56247  -3218449.50046  23558889.7664                   23558889.9654
        43.5004         36.2504
 -13673480.57845 -10619196.07444  24503217.0394                   24503218.9184
        33.2504         26.7504
 -21456288.91046 -16675793.10944  23352853.8834                   23352854.2664
        40.0004         25.7504
 -18450339.09046 -14332859.19945  23569294.2424                   23569296.2854
        39.7504         31.0004
 25  7 15  0  2 30.0000000  0 10G01G02G03G10G28G31G32G25G04G26
 -18232547.87547 -14178673.20745  21113950.5394                   21113948.0204
        45.5004         35.5004
  -9925152.66847  -7715536.45745  21927360.6414                   21927356.8984
        46.7504         35.0004
 -23987143.78147 -18640033.70347  21722703.6334                   21722703.3674
        46.0004         42.5004
  -3662463.62946  -2848834.17645  24203720.7814                   24203724.0084
        40.0004         33.5004
 -10435097.78147  -8111956.30145  21373258.6804                   21373256.0744
        45.7504         35.5004
 -19363428.14548 -15057058.87548  20150134.7114                   20150131.3134
        49.0004         48.7504
  -4166650.93047  -3238492.95346  23553994.7424                   23553995.5474
        42.5004         36.5004
 -13740206.40245 -10671190.26244  24490518.4844                   24490521.0474
        34.5004         29.0004
 -21619347.45746 -16802851.59844  23321824.9384                   23321825.6054
        40.2504         24.0004
 -18632770.24246 -14475013.23845  23534578.0314                   23534580.8484
        39.0004         31.5004
 25  7 15  0  3  0.0000000  0 10G01G02G03G10G28G31G32G25G04G26
 -18330702.87147 -14255157.62545  21095272.1644                   21095269.8444
        46.0004         35.5004
  -9966030.53947  -7747389.38745  21919581.9534                   21919577.9344
        46.7504         35.0004
 -24159531.55147 -18774361.80547  21689899.6644                   21689899.1214
        45.5004         42.0004
  -3671300.16046  -2855719.94545  24202039.3984                   24202042.3164
        39.2504         33.0004
 -10475674.16847  -8143574.27746  21365537.0474                   21365534.6914
        46.0004         36.2504
 -19467505.26648 -15138157.92248  20130329.9614                   20130326.4344
        48.7504         48.7504
  -4192286.82047  -3258469.02046  23549116.5314                   23549116.5864
        43.0004         36.0004
 -13806326.40245 -10722712.37544  24477936.6564                   24477939.0434
        34.7504         27.2504
 -21782202.85946 -16929751.78944  23290834.3284                   23290834.9614
        40.0004         24.0004
 -18815009.41446 -14617017.68445  23499898.7504                   23499901.4264
        39.2504         31.0004
 25  7 15  0  3 30.0000000  0 10G01G02G03G10G28G31G32G25G04G26
 -18428196.28947 -14331126.53145  21076719.8444                   21076717.7934
        46.5004         35.5004
 -10006433.27047  -7778872.08245  21911893.6254                   21911889.2424
        46.0004         34.0004
 -24331681.21547 -18908504.37547  21657140.2504                   21657140.1374
        46.0004         42.5004
  -3679847.53146  -2862380.39845  24200413.4844                   24200416.1374
        39.5004         33.7504
 -10515723.27747  -8174781.39145  21357915.7814                   21357913.5704
        45.7504         35.7504
 -19570887.29748 -15218715.34448  20110656.8524                   20110653.6214
        48.5004         48.7504
  -4217832.89147  -3278375.10245  23544255.5394                   23544255.5354
        42.7504         35.2504
 -13871837.51245 -10773760.02044  24465470.5394                   24465473.0044
        34.2504         28.5004
 -21944851.51246 -17056490.87543  23259882.9534                   23259883.7774
        40.0004         23.7504
 -18997049.79346 -14758867.21945  23465258.2974                   23465260.6724
        39.2504         30.2504
 25  7 15  0  4  0.0000000  0 10G01G02G03G10G28G31G32G25G04G26
 -18525026.39547 -14406578.57845  21058293.8754                   21058291.6604
        45.5004         35.2504
 -10046361.00447  -7809984.64845  21904295.6564                   21904291.5434
        45.7504         34.7504
 -24503589.06247 -19042458.51247  21624426.6954                   21624427.1054
        46.2504         42.2504
  -3688104.83646  -2868814.83245  24198842.2424                   24198845.1564
        38.7504         34.0004
 -10555245.63347  -8205578.04345  21350395.1644                   21350392.7384
        46.0004         35.7504
 -19673572.74248 -15298729.97348  20091116.4774                   20091112.8404
        49.0004         48.7504
  -4243287.75047  -3298210.11346  23539411.6804                   23539411.7274
        42.5004         36.2504
 -13936738.41445 -10824332.19944  24453119.7974                   24453122.5824
        34.5004         27.0004
 -22107291.82046 -17183067.61343  23228971.2274                   23228972.3524
        41.0004         23.2504
 -19178886.45946 -14900558.02445  23430655.2974                   23430658.4184
        39.7504         31.0004
 25  7 15  0  4 30.0000000  0 10G01G02G03G10G28G31G32G25G04G26
 -18621192.56647 -14481513.26645  21039994.1334                   21039991.3674
        45.7504         35.0004
 -10085815.56647  -7840728.50445  21896787.7114                   21896783.3404
        45.2504         34.2504
 -24675252.45747 -19176222.17247  21591760.5394                   21591760.6564
        47.0004         42.5004
  -3696072.21946  -2875023.34045  24197326.9304                   24197328.9964
        38.7504         33.5004
 -10594242.85947  -8235965.50445  21342974.2974                   21342972.0124
        45.7504         35.5004
 -19775561.05948 -15378201.38748  20071708.7894                   20071705.0784
        48.5004         49.0004
  -4268651.16447  -3317973.87545  23534585.0554                   23534585.5274
        43.0004         35.5004
 -14001029.08645 -10874428.86344  24440886.7814                   24440887.8244
        35.5004         29.0004
 -22269523.30146 -17309481.62944  23198099.4774                   23198100.6724
        40.2504         24.5004
 -19360515.48846 -15042087.03145  23396092.8524                   23396095.0514
        39.7504         31.5004
 25  7 15  0  5  0.0000000  0 10G01G02G03G10G28G31G32G25G04G26
 -18716691.49647 -14555928.03145  21021820.8204                   21021818.6914
        45.5004         35.5004
 -10124795.77347  -7871102.73845  21889370.2974                   21889365.9534
        45.0004         34.5004
 -24846666.23047 -19309791.32047  21559141.5164                   21559141.5514
        46.5004         43.0004
  -3703747.30946  -2881004.11745  24195865.1564                   24195868.3874
        37.7504         33.0004
 -10632713.94147  -8265942.98845  21335653.3594                   21335651.0514
        46.0004         35.5004
 -19876849.39547 -15457127.35548  20052434.3914                   20052430.7154
        47.5004         48.7504
  -4293920.13347  -3337664.03145  23529776.8364                   23529777.0984
        42.7504         35.0004
 -14064706.84845 -10924047.93444  24428768.5704                   24428770.9654
        35.5004         28.5004
 -22431542.78546 -17435730.45744  23167268.3984                   23167269.1524
        40.2504         24.7504
 -19541930.47346 -15183449.25045  23361569.9844                   23361572.7504
        39.7504         31.5004
 25  7 15  0  5 30.0000000  0 10G01G02G03G10G28G31G32G25G04G26
 -18811523.77747 -14629823.32045  21003775.1884                   21003773.0004
        45.7504         35.5004
 -10163304.20747  -7901109.35245  21882042.5634                   21882038.2154
        45.7504         34.5004
 -25017828.88347 -19443164.78147  21526570.2424                   21526570.2424
        46.5004         42.7504
  -3711131.42246  -2886758.14845  24194460.0944                   24194463.5904
        37.0004         32.2504
 -10670661.65247  -8295512.64545  21328432.5164                   21328429.5434
        46.0004         35.0004
 -19977438.50448 -15535508.48048  20033292.7584                   20033289.0514
        48.7504         49.0004
  -4319095.52047  -3357281.27745  23524985.7114                   23524986.4654
        43.0004         35.5004
 -14127772.80946 -10973190.25444  24416767.9454                   24416769.9144
        36.0004         28.5004
 -22593350.93746 -17561814.62144  23136477.0944                   23136477.6914
        40.0004         25.7504
 -19723128.74246 -15324642.60245  23327089.3134                   23327092.1254
        39.2504         31.2504
 25  7 15  0  6  0.0000000  0 10G01G02G03G10G28G31G32G25G04G26
 -18905690.43447 -14703199.94945  20985855.8284                   20985853.1884
        45.7504         35.5004
 -10201343.52047  -7930750.42645  21874803.3754                   21874799.3594
        46.0004         34.0004
 -25188739.29747 -19576341.70347  21494047.4924                   21494046.9264
        47.0004         43.5004
  -3718226.38346  -2892286.87945  24193110.0704                   24193113.3524
        37.7504         32.0004
 -10708089.23447  -8324677.00845  21321310.1804                   21321307.8054
        46.5004         34.7504
 -20077329.55948 -15613345.66448  20014284.1564                   20014280.7624
        48.7504         49.0004
  -4344178.61747  -3376826.61345  23520212.7344                   23520213.1524
        42.5004         35.5004
 -14190228.66045 -11021857.18744  24404882.6724                   24404885.4454
        35.5004         27.7504
 -22754948.82446 -17687734.94144  23105725.7114                   23105726.5984
        40.0004         25.5004
 -19904108.04746 -15465665.32045  23292650.1884                   23292652.6294
        38.7504         31.7504
 25  7 15  0  6 30.0000000  0 10G01G02G03G10G28G31G32G25G04G26
 -18999191.42647 -14776057.87545  20968062.8364                   20968061.0664
        45.5004         35.2504
 -10238916.03147  -7960027.76645  21867653.7274                   21867649.8364
        46.5004         34.0004
 -25359395.44547 -19709320.48847  21461572.2424                   21461572.3244
        45.7504         43.0004
  -3725032.87546  -2897590.83245  24191815.3284                   24191819.1094
        36.7504         31.0004
 -10744998.90647  -8353437.80545  21314286.3754                   21314283.6414
        45.7504         35.5004
 -20176522.87148 -15690639.14548  19995408.1174                   19995404.5164
        49.0004         49.0004
  -4369169.62147  -3396300.17245  23515456.8134                   23515457.6454
        43.7504         35.2504
 -14252074.75446 -11070048.99244  24393113.5554                   24393116.3404
        36.2504         28.5004
 -22916336.53146 -17813491.47344  23075015.4924                   23075015.2974
        41.0004         26.0004
 -20084865.09046 -15606514.85245  23258253.4384                   23258255.9654
        39.0004         32.0004
 25  7 15  0  7  0.0000000  0 10G01G02G03G10G28G31G32G25G04G26
 -19092025.72747 -14848396.30145  20950397.1094                   20950395.0274
        46.0004         35.0004
 -10276022.93447  -7988942.28145  21860592.9694                   21860588.7854
        46.2504         34.5004
 -25529794.12947 -19842098.65247  21429147.0554                   21429146.7544
        46.5004         43.2504
  -3731550.71946  -2902669.86345  24190575.8204                   24190578.7234
        36.5004         31.0004
 -10781391.72347  -8381795.85945  21307361.2664                   21307358.5594
        45.5004         35.5004
 -20275017.71948 -15767388.38348  19976665.3524                   19976661.5234
        48.0004         49.0004
  -4394067.72347  -3415701.34845  23510718.6414                   23510719.6804
        42.2504         35.2504
 -14313310.78546 -11117765.42645  24381461.4224                   24381463.3594
        36.2504         30.0004
 -23077512.96546 -17939083.38344  23044344.1024                   23044344.6994
        40.7504         26.0004
 -20265395.43446 -15747187.74245  23223899.1644                   23223901.3794
        39.5004         32.2504
 25  7 15  0  7 30.0000000  0 10G01G02G03G10G28G31G32G25G04G26
 -17608773.65647 -13692615.46945  21232650.7194                   21232648.4734
        45.7504         34.7504
  -8737247.96947  -6789896.90245  22153411.9454                   22153407.7504
        45.5004         34.7504
 -24124510.91047 -18747072.74247  21696563.2034                   21696563.2074
        46.0004         43.2504
  -2162363.77046  -1679926.98445  24489181.9224                   24489184.6254
        36.0004         30.5004
  -9241852.07447  -7182154.59445  21600325.6804                   21600323.0784
        46.0004         35.2504
 -18797394.21148 -14615993.43048  20257847.7584                   20257844.1724
        48.7504         49.0004
  -2843455.60247  -2207432.23045  23805790.8834                   23805791.4694
        43.2504         35.7504
 -12798518.55546  -9937407.88344  24669716.9534                   24669718.3524
        37.7504         28.5004
 -21663056.17246 -16836909.15644  23313505.8674                   23313506.6454
        41.5004         26.7504
 -18870273.16446 -14660079.37945  23489382.1954                   23489384.2424
        39.5004         32.5004
 25  7 15  0  8  0.0000000  0 10G01G02G03G10G28G31G32G25G04G26
 -17700277.22748 -13763916.96145  21215237.8524                   21215235.9534
        48.2504         35.5004
  -8773431.72747  -6818092.08245  22146526.2114                   22146522.3284
        46.2504         34.7504
 -24294390.82847 -18879446.67247  21664235.8984                   21664236.0084
        47.0004         43.2504
  -2168309.01245  -1684559.83245  24488050.0704                   24488053.9734
        35.5004         30.0004
  -9277220.39847  -7209714.34445  21593595.3284                   21593593.2464
        46.0004         35.2504
 -18894495.13348 -14691656.48448  20239370.2664                   20239366.4534
        48.5004         49.0004
  -2868170.92247  -2226690.97345  23801087.9844                   23801088.7074
        42.7504         34.5004
 -12858538.60946  -9984176.77744  24658295.0084                   24658297.1644
        37.5004         28.5004
 -21823812.71546 -16962173.88344  23282915.1334                   23282915.6844
        41.2504         26.0004
 -19050342.74246 -14800393.21145  23455116.0084                   23455118.4454
        40.2504         33.0004
 25  7 15  0  8 30.0000000  0 10G01G02G03G10G28G31G32G25G04G26
 -17791116.21548 -13834700.59845  21197952.2664                   21197950.1134
        48.0004         35.2504
  -8809157.72347  -6845930.57045  22139727.8834                   22139724.0124
        45.5004         34.5004
 -24464008.70747 -19011616.41847  21631958.6334                   21631958.4694
        46.7504         43.2504
  -2173969.78145  -1688971.03544  24486972.6334                   24486976.9844
        34.5004         29.0004
  -9312080.36347  -7236877.96545  21586962.2034                   21586959.4774
        45.2504         34.7504
 -18990900.20347 -14766777.30948  20221024.8444                   20221021.3094
        47.5004         49.0004
  -2892795.77347  -2245879.24245  23796401.2274                   23796402.4614
        42.7504         35.0004
 -12917952.27046 -10030473.18044  24646988.5474                   24646991.2154
        37.2504         28.0004
 -21984360.00446 -17087275.54744  23252364.2114                   23252364.6094
        41.2504         26.7504
 -19230177.60546 -14940524.17645  23420894.5474                   23420896.8984
        40.7504         32.2504
 25  7 15  0  9  0.0000000  0 10G01G02G03G10G28G31G32G25G04G26
 -17881285.37147 -13904962.28545  21180793.3914                   21180790.9184
        46.0004         35.5004
  -8844422.75047  -6873409.86745  22133017.2504                   22133013.0864
        45.7504         34.2504
 -24633357.23847 -19143576.28147  21599732.5394                   21599732.2544
        47.0004         43.5004
  -2179341.56245  -1693157.03544  24485951.4844                   24485954.7704
        35.7504         29.7504
  -9346428.96947  -7263643.12945  21580425.3364                   21580422.9844
        45.2504         35.5004
 -19086604.52348 -14841352.10248  20202812.7194                   20202808.9964
        49.5004         49.0004
  -2917325.00847  -2264992.98846  23791733.8984                   23791734.9224
        42.5004         36.0004
 -12976754.92246 -10076293.46544  24635799.4224                   24635801.9964
        37.5004         29.2504
 -22144692.73446 -17212210.03944  23221853.5944                   23221854.1684
        41.2504         26.5004
 -19409769.12546 -15080465.50445  23386719.9304                   23386721.7194
        40.5004         32.5004
 25  7 15  0  9 30.0000000  0 10G01G02G03G10G28G31G32G25G04G26
 -17970793.38347 -13974708.80145  21163760.6174                   21163758.6174
        47.5004         35.0004
  -8879237.32447  -6900538.14545  22126392.6094                   22126388.8094
        45.2504         34.5004
 -24802442.68447 -19275331.14547  21567556.8524                   21567556.7854
        46.7504         43.5004
  -2184433.76645  -1697125.21144  24484982.4454                   24484986.3404
        34.2504         27.5004
  -9380276.92647  -7290018.17645  21573984.6174                   21573981.9694
        45.5004         35.5004
 -19181617.02748 -14915387.80948  20184732.2504                   20184728.8674
        48.0004         49.2504
  -2941767.27747  -2284038.97345  23787083.0474                   23787083.5784
        43.0004         35.7504
 -13034955.73046 -10121644.78144  24624723.5554                   24624726.5434
        37.7504         29.0004
 -22304819.45746 -17336984.00444  23191382.3674                   23191382.8444
        41.7504         25.7504
 -19589122.43046 -15220221.21945  23352588.9844                   23352591.8404
        40.5004         34.0004
 25  7 15  0 10  0.0000000  0 10G01G02G03G10G28G31G32G25G04G26
 -18059634.65647 -14043935.77045  21146854.8054                   21146852.3954
        47.7504         35.5004
  -8913597.66047  -6927312.48445  22119853.6804                   22119849.8364
        46.0004         34.2504
 -24971257.16447 -19406874.87147  21535433.0864                   21535432.4104
        46.7504         43.5004
  -2189241.29345  -1700871.55544  24484068.6644                   24484071.4844
        35.5004         29.0004
  -9413620.68747  -7316000.34445  21567639.3364                   21567636.7544
        46.2504         34.7504
 -19275932.41448 -14988880.31248  20166784.6644                   20166781.1994
        48.0004         49.0004
  -2966117.03547  -2303012.86345  23782449.2504                   23782450.4884
        43.0004         35.7504
 -13092549.64546 -10166523.19944  24613764.3834                   24613766.8244
        37.5004         28.5004
 -22464734.50846 -17461593.01644  23160951.4534                   23160951.4064
        41.2504         25.5004
 -19768228.50446 -15359784.28545  23318506.5004                   23318508.5594
        40.5004         33.2504
 25  7 15  0 10 30.0000000  0 10G01G02G03G10G28G31G32G25G04G26
 -18147812.14847 -14112645.52045  21130075.0004                   21130072.8364
        46.7504         35.5004
  -8947508.81647  -6953736.80145  22113400.9924                   22113396.7814
        45.7504         35.0004
 -25139801.26647 -19538207.91447  21503359.6954                   21503359.6174
        47.0004         43.5004
  -2193767.78145  -1704398.88344  24483205.9774                   24483210.3014
        35.7504         28.0004
  -9446465.36347  -7341593.61745  21561389.3834                   21561386.5634
        45.2504         35.5004
 -19369553.83647 -15061832.06648  20148969.1254                   20148965.8984
        47.5004         49.0004
  -2990377.16447  -2321916.91445  23777832.9064                   23777833.8364
        42.0004         35.5004
 -13149540.17646 -10210931.43744  24602919.0864                   24602921.8874
        37.7504         27.7504
 -22624440.63346 -17586039.24244  23130560.5234                   23130560.9734
        41.2504         24.7504
 -19947086.71546 -15499154.20745  23284470.6414                   23284473.1994
        41.0004         34.5004
 25  7 15  0 11  0.0000000  0 10G01G02G03G10G28G31G32G25G04G26
 -18235324.16047 -14180836.70745  21113422.1644                   21113419.6954
        47.5004         35.0004
  -8980971.09047  -6979811.35545  22107033.3914                   22107029.3054
        46.7504         34.7504
 -25308070.90247 -19669327.07847  21471339.1564                   21471338.9384
        47.0004         43.5004
  -2198012.25046  -1707706.48444  24482398.7034                   24482402.7734
        36.5004         27.7504
  -9478811.21547  -7366798.18745  21555234.0634                   21555231.4224
        45.7504         35.5004
 -19462479.79347 -15134241.89548  20131285.8364                   20131282.1644
        47.5004         49.0004
  -3014545.90247  -2340749.75045  23773233.3754                   23773234.2624
        42.0004         35.2504
 -13205926.17246 -10254868.59444  24592189.5634                   24592191.8524
        38.5004         28.0004
 -22783936.05546 -17710321.28144  23100209.1414                   23100209.7894
        40.5004         25.2504
 -20125691.89546 -15638326.96945  23250483.2504                   23250485.8874
        39.7504         34.5004
 25  7 15  0 11 30.0000000  0 10G01G02G03G10G28G31G32G25G04G26
 -18322171.50047 -14248509.97745  21096895.3444                   21096893.7974
        47.7504         35.0004
  -9013987.19947  -7005538.24245  22100750.7664                   22100746.6644
        46.0004         34.5004
 -25476064.47747 -19800231.13747  21439370.5314                   21439370.7544
        47.5004         43.5004
  -2201976.00446  -1710795.34044  24481645.0634                   24481648.9654
        37.0004         28.0004
  -9510661.08647  -7391616.29345  21549173.2194                   21549170.6414
        45.5004         34.7504
 -19554711.33648 -15206110.62148  20113734.7504                   20113731.6254
        48.5004         48.7504
  -3038623.96947  -2359511.93745  23768652.0234                   23768652.7584
        42.5004         35.5004
 -13261708.96546 -10298335.71944  24581574.7504                   24581576.9224
        39.0004         26.2504
 -22943221.26246 -17834439.52044  23069898.1484                   23069898.5904
        40.0004         25.7504
 -20304041.17646 -15777300.33645  23216544.3284                   23216546.5234
        39.7504         34.0004
 25  7 15  0 12  0.0000000  0 10G01G02G03G10G28G31G32G25G04G26
 -18408345.28147 -14315658.38745  21080497.2894                   21080495.2234
        47.5004         35.0004
  -9046550.06247  -7030911.95345  22094553.8524                   22094550.1644
        45.5004         34.7504
 -25643770.58247 -19930911.19547  21407457.5394                   21407457.4774
        47.2504         43.7504
  -2205650.68746  -1713658.93744  24480945.8204                   24480949.7624
        37.5004         28.7504
  -9542008.06247  -7416042.51645  21543208.1254                   21543205.7894
        45.2504         35.0004
 -19646239.88747 -15277431.55948  20096317.6094                   20096314.1294
        47.5004         48.7504
  -3062602.32047  -2378196.42646  23764089.3754                   23764089.4884
        42.2504         36.5004
 -13316880.21546 -10341326.33244  24571076.0784                   24571078.1604
        38.2504         27.5004
 -23102287.12546 -17958386.83244  23039628.8284                   23039629.4184
        40.7504         24.5004
 -20482122.12946 -15916064.60545  23182656.9064                   23182659.1294
        39.5004         34.0004
 25  7 15  0 12 30.0000000  0 10G01G02G03G10G28G31G32G25G04G26
 -18493845.50048 -14382281.94945  21064227.5234                   21064224.8634
        48.0004         35.2504
  -9078661.50447  -7055933.90645  22088443.6094                   22088439.8094
        45.0004         34.0004
 -25811186.73047 -20061365.30947  21375598.8754                   21375599.0744
        47.2504         44.0004
  -2209036.90246  -1716297.75844  24480301.3204                   24480305.2274
        38.2504         27.7504
  -9572854.18447  -7440078.47745  21537338.2114                   21537335.4964
        45.0004         34.5004
 -19737065.56247 -15348204.80548  20079034.1024                   20079030.3204
        47.5004         49.0004
  -3086480.77347  -2396803.06246  23759545.5784                   23759546.0124
        42.5004         36.0004
 -13371440.36746 -10383840.77744  24560692.9694                   24560695.9414
        38.7504         26.2504
 -23261133.49246 -18082163.12544  23009401.2814                   23009401.8444
        41.0004         27.0004
 -20659931.04746 -16054616.90645  23148821.0554                   23148822.8914
        39.5004         34.2504
 25  7 15  0 13  0.0000000  0 10G01G02G03G10G28G31G32G25G04G26
 -18578684.20748 -14448390.04745  21048082.7194                   21048080.6024
        48.5004         35.2504
  -9110335.16847  -7080614.73045  22082415.8984                   22082412.4614
        46.5004         34.2504
 -25978322.52747 -20191600.97347  21343794.7194                   21343794.1484
        47.2504         44.0004
  -2212147.33646  -1718721.68044  24479710.1174                   24479713.3834
        38.7504         27.0004
  -9603213.41847  -7463735.04345  21531561.4144                   21531558.8484
        46.0004         34.5004
 -19827200.73448 -15418440.00048  20061882.0554                   20061878.4144
        48.0004         48.7504
  -3110271.21947  -2415341.13746  23755018.1804                   23755019.1954
        43.0004         36.0004
 -13425402.16446 -10425888.96544  24550424.6414                   24550427.0234
        38.0004         25.7504
 -23419772.09446 -18205777.51644  22979213.5084                   22979214.1054
        40.2504         24.5004
 -20837476.37946 -16192963.81245  23115035.0394                   23115036.7664
        39.7504         34.5004
 25  7 15  0 13 30.0000000  0 10G01G02G03G10G28G31G32G25G04G26
 -18662862.41848 -14513983.47345  21032064.3754                   21032062.5234
        48.2504         35.0004
  -9141574.30147  -7104956.96545  22076471.3524                   22076467.8444
        45.5004         34.2504
 -26145176.37948 -20321616.93747  21312043.0234                   21312042.9024
        48.0004         44.0004
  -2214983.41046  -1720931.80544  24479170.2114                   24479174.2624
        39.2504         27.5004
  -9633088.74247  -7487014.53145  21525876.3364                   21525873.5474
        45.7504         34.7504
 -19916646.79747 -15488138.22748  20044860.8984                   20044857.2974
        47.2504         48.7504
  -3133974.37547  -2433811.19146  23750508.2814                   23750508.5274
        43.0004         36.0004
 -13478767.01246 -10467472.00844  24540269.9064                   24540272.1994
        38.2504         25.5004
 -23578203.62146 -18329230.55944  22949064.5084                   22949064.8134
        41.0004         25.7504
 -21014755.43746 -16331103.22345  23081299.6174                   23081301.9264
        39.2504         34.7504
 25  7 15  0 14  0.0000000  0 10G01G02G03G10G28G31G32G25G04G26
 -18746383.07848 -14579064.52345  21016170.8204                   21016168.6604
        48.0004         35.0004
  -9172383.66447  -7128964.31245  22070608.5234                   22070605.4144
        45.0004         34.7504
 -26311748.63747 -20451413.47347  21280345.6724                   21280345.0904
        47.5004         44.2504
  -2217548.65246  -1722930.90644  24478682.5084                   24478685.7234
        40.0004         27.0004
  -9662485.07047  -7509920.78545  21520282.0944                   21520279.7734
        44.7504         35.0004
 -20005406.76247 -15557301.83248  20027970.3284                   20027967.0984
        47.7504         48.7504
  -3157592.98447  -2452215.36345  23746013.4224                   23746014.1604
        42.0004         35.5004
 -13531538.33246 -10508592.53544  24530228.1484                   24530230.3984
        38.5004         25.0004
 -23736430.75046 -18452524.32444  22918955.0394                   22918955.3404
        40.7504         26.0004
 -21191767.46946 -16469034.58245  23047615.4614                   23047617.8204
        39.5004         35.0004
 25  7 15  0 14 30.0000000  0 10G01G02G03G10G28G31G32G25G04G26
 -18829252.57447 -14643638.17245  21000401.5474                   21000399.6804
        47.7504         35.2504
  -9202771.23847  -7152642.98845  22064826.0864                   22064822.2464
        45.0004         34.0004
 -26478043.09447 -20580993.53547  21248700.5944                   21248700.2344
        47.5004         44.5004
  -2219849.88346  -1724724.27744  24478244.9774                   24478248.3364
        40.0004         28.0004
  -9691410.66047  -7532460.22745  21514777.8134                   21514775.4064
        45.2504         35.0004
 -20093487.17248 -15625935.90648  20011209.2034                   20011205.8874
        48.2504         49.0004
  -3181133.21547  -2470558.45746  23741533.7504                   23741534.5164
        42.2504         36.0004
 -13583723.19146 -10549256.08644  24520296.4534                   24520299.4264
        38.0004         25.0004
 -23894459.43446 -18575663.46144  22888883.3754                   22888883.5314
        40.0004         25.5004
 -21368515.08246 -16606759.89545  23013981.0314                   23013983.6604
        40.0004         34.0004
 25  7 15  0 15  0.0000000  0 10G01G02G03G10G28G31G32G25G04G26
 -18911464.98447 -14707699.80945  20984757.0394                   20984755.0514
        47.5004         35.2504
  -9232733.45747  -7175990.23045  22059124.6254                   22059121.1804
        45.5004         33.7504
 -26644051.19947 -20710350.46947  21217110.0634                   21217110.6684
        47.7504         44.5004
  -2221881.74246  -1726307.76244  24477858.6414                   24477862.4574
        40.7504         27.7504
  -9719861.49247  -7554629.73045  21509363.8204                   21509361.2504
        45.7504         34.7504
 -20180882.55148 -15694036.19148  19994578.3914                   19994575.2154
        48.0004         48.7504
  -3204588.62946  -2488835.46146  23737070.4304                   23737071.4494
        41.5004         36.0004
 -13635315.99646 -10589458.29744  24510479.6094                   24510481.5314
        39.0004         24.5004
 -24052283.52046 -18698643.16844  22858850.1334                   22858850.0354
        40.7504         26.5004
 -21544988.64146 -16744271.66045  22980399.5394                   22980401.8524
        40.5004         34.5004
 25  7 15  0 15 30.0000000  0 10G01G02G03G10G28G31G32G25G04G26
 -17417601.44547 -13543650.30545  21269029.7894                   21269027.5634
        47.7504         35.0004
  -7686854.07847  -5971408.94945  22353295.9304                   22353292.1524
        45.2504         32.7504
 -25234348.55947 -19611880.84447  21485367.8754                   21485367.5514
        47.7504         44.5004
   -648228.30546   -500084.53144  24777315.2504                   24777318.7974
        40.0004         28.2504
  -8172422.34847  -6348833.02045  21803831.7734                   21803829.6334
        45.7504         34.0004
 -18692173.96148 -14534003.52748  20277870.1174                   20277866.6684
        48.0004         48.7504
  -1652542.00846  -1279448.55146  24032414.8444                   24032415.6054
        41.5004         36.0004
 -12110899.53946  -9401601.33244  24800566.2194                   24800568.6564
        39.0004         24.5004
 -22634481.06246 -17593861.93044  23128649.0084                   23128648.9574
        41.2504         25.5004
 -20145762.25846 -15653965.29345  23246663.2114                   23246665.2704
        40.0004         34.2504
 25  7 15  0 16  0.0000000  0 10G01G02G03G10G28G31G32G25G04G26
 -17498508.31247 -13606694.62945  21253633.8204                   21253631.4224
        47.5004         35.0004
  -7715977.91447  -5994102.89845  22347753.4844                   22347750.1134
        44.5004         34.0004
 -25399784.45347 -19740791.89847  21453886.1564                   21453885.9774
        47.5004         44.7504
   -649731.26246   -501255.89544  24777028.7274                   24777033.1914
        40.5004         29.0004
  -8199937.84047  -6370273.68745  21798595.4614                   21798593.4264
        45.0004         34.2504
 -18778208.63348 -14601043.52348  20261498.2734                   20261495.0164
        48.5004         48.7504
  -1675835.43046  -1297599.33245  24027982.2584                   24027983.4774
        41.2504         35.2504
 -12161318.61746  -9440888.94544  24790971.2734                   24790974.6134
        39.0004         25.2504
 -22791903.15246 -17716528.38344  23098692.6414                   23098692.6454
        41.5004         27.0004
 -20321684.83246 -15791047.73445  23213185.9454                   23213188.2814
        41.2504         34.7504
 25  7 15  0 16 30.0000000  0 10G01G02G03G10G28G31G32G25G04G26
 -17578763.29748 -13669230.99245  21238361.7664                   21238359.5634
        48.7504         35.5004
  -7744686.59447  -6016473.34845  22342290.5704                   22342287.1054
        45.5004         33.2504
 -25564931.00847 -19869477.48847  21422460.0164                   21422459.8404
        47.7504         45.0004
   -650971.28946   -502222.39844  24776793.1024                   24776797.2194
        38.7504         29.5004
  -8226989.34847  -6391352.80545  21793447.8204                   21793445.6054
        45.7504         34.7504
 -18863564.13748 -14667554.30148  20245256.1094                   20245252.4264
        48.2504         48.7504
  -1699048.15246  -1315687.23046  24023564.2894                   24023566.1454
        41.0004         36.0004
 -12211152.40246  -9479720.50044  24781489.7584                   24781491.2894
        39.2504         25.2504
 -22949124.45346 -17839038.41444  23068774.5314                   23068774.1054
        41.7504         25.2504
 -20497327.05146 -15927911.71145  23179762.5474                   23179764.8714
        39.7504         34.5004
 25  7 15  0 17  0.0000000  0 10G01G02G03G10G28G31G32G25G04G26
 -17658364.44547 -13731257.87945  21223213.7274                   21223211.8014
        47.7504         35.2504
  -7772979.94947  -6038520.17645  22336906.3364                   22336902.8164
        44.5004         33.2504
 -25729783.50847 -19997933.94947  21391089.7424                   21391089.3634
        47.5004         45.0004
   -651946.78946   -502982.77344  24776607.8984                   24776611.8594
        38.2504         29.2504
  -8253576.69147  -6412070.23845  21788388.3984                   21788386.2704
        44.7504         34.5004
 -18948238.77748 -14733534.53148  20229142.7504                   20229139.4264
        48.5004         48.5004
  -1722177.70746  -1333710.32445  24019163.7274                   24019164.6254
        41.0004         35.5004
 -12260399.54746  -9518094.92643  24772117.1644                   24772120.0944
        38.2504         23.0004
 -23106142.57847 -17961390.10244  23038894.9774                   23038894.7234
        42.2504         25.0004
 -20672683.10946 -16064552.70745  23146393.3204                   23146395.4924
        40.2504         34.7504
 25  7 15  0 17 30.0000000  0 10G01G02G03G10G28G31G32G25G04G26
 -17737317.32847 -13792779.62145  21208189.6564                   21208187.6294
        47.5004         34.7504
  -7800864.89147  -6060248.75845  22331600.2194                   22331596.5984
        45.5004         33.0004
 -25894344.75447 -20126163.45347  21359774.3284                   21359774.2624
        47.0004         45.0004
   -652663.80546   -503541.75844  24776471.3914                   24776475.5944
        38.0004         28.7504
  -8279707.22247  -6432431.72045  21783416.0394                   21783414.0044
        46.0004         34.0004
 -19032238.39148 -14798988.77048  20213158.0864                   20213154.7504
        48.2504         48.7504
  -1745229.22347  -1351672.60245  24014777.3134                   24014778.1954
        42.5004         35.5004
 -12309065.96146  -9556016.84143  24762857.4614                   24762858.7504
        38.5004         22.7504
 -23262962.60947 -18083587.42644  23009053.5864                   23009052.7384
        42.7504         26.0004
 -20847754.68046 -16200972.01245  23113078.0474                   23113080.5474
        40.5004         35.2504
 25  7 15  0 18  0.0000000  0 10G01G02G03G10G28G31G32G25G04G26
 -17815623.60247 -13853797.50445  21193288.7114                   21193286.2424
        47.7504         35.0004
  -7828344.85247  -6081661.76645  22326371.0944                   22326367.3164
        44.7504         32.5004
 -26058613.54747 -20254165.07447  21328515.0864                   21328515.0394
        47.5004         45.0004
   -653124.38346   -503900.90644  24776383.4304                   24776388.7034
        37.5004         29.5004
  -8305384.50847  -6452440.02345  21778530.1644                   21778527.8444
        45.0004         34.2504
 -19115564.71148 -14863918.36348  20197301.7584                   20197298.1724
        48.7504         48.7504
  -1768203.83247  -1369574.96945  24010405.9614                   24010406.4884
        42.0004         35.7504
 -12357153.93046  -9593487.98843  24753705.1414                   24753707.8014
        37.5004         22.5004
 -23419585.73447 -18205631.33644  22979248.3364                   22979247.7854
        43.2504         26.2504
 -21022539.52046 -16337167.91045  23079817.1334                   23079820.0634
        40.2504         35.5004
 25  7 15  0 18 30.0000000  0 10G01G02G03G10G28G31G32G25G04G26
 -17893283.28147 -13914311.55945  21178510.5314                   21178508.3364
        47.2504         35.0004
  -7855421.35247  -6102760.39845  22321218.4454                   22321214.5864
        45.5004         33.0004
 -26222586.98047 -20381936.55147  21297312.0004                   21297311.6724
        47.5004         45.2504
   -653328.77346   -504060.45344  24776345.3134                   24776349.8364
        37.0004         28.0004
  -8330610.10947  -6472096.36345  21773729.9844                   21773727.5594
        44.5004         34.2504
 -19198218.00448 -14928323.52048  20181573.3914                   20181569.9144
        48.7504         48.7504
  -1791100.94946  -1387416.93446  24006048.7894                   24006049.6644
        41.0004         36.0004
 -12404663.80946  -9630508.69143  24744665.0784                   24744667.7304
        38.0004         22.5004
 -23576011.28147 -18327521.28944  22949481.5314                   22949481.1174
        42.7504         26.5004
 -21197033.62546 -16473137.25845  23046612.4144                   23046614.6174
        40.5004         35.5004
 25  7 15  0 19  0.0000000  0 10G01G02G03G10G28G31G32G25G04G26
 -17970298.85948 -13974323.70745  21163855.2194                   21163852.5084
        48.5004         35.0004
  -7882099.04747  -6123548.26245  22316142.1094                   22316138.4344
        44.2504         33.0004
 -26386264.71147 -20509477.60947  21266165.4064                   21266165.0004
        47.7504         45.5004
   -653279.87945   -504022.62944  24776354.9924                   24776359.2664
        34.5004         27.0004
  -8355388.33647  -6491404.09445  21769014.3754                   21769012.5744
        44.7504         34.7504
 -19280201.32848 -14992206.62548  20165972.5164                   20165969.1334
        48.7504         48.7504
  -1813922.61346  -1405200.10545  24001705.5944                   24001706.5204
        40.7504         35.2504
 -12451598.71146  -9667081.37543  24735733.1954                   24735736.6644
        37.5004         22.2504
 -23732241.26247 -18449258.84044  22919751.9454                   22919751.2974
        43.0004         26.0004
 -21371235.55946 -16608878.94545  23013462.9534                   23013464.9614
        39.5004         34.7504
 25  7 15  0 19 30.0000000  0 11G01G02G03G16G10G28G31G32G25G04G26
 -18046672.51647 -14033835.64845  21149321.4924                   21149318.9304
        47.2504         35.5004
  -7908381.57047  -6144028.20345  22311140.6254                   22311137.0314
        44.2504         32.7504
 -26549645.96547 -20636787.64547  21235075.0474                   21235074.4144
        47.0004         45.2504
   2891294.52056   2298291.48452  25178554.0004                   25178559.2114
        38.5004         16.7504
   -652980.09445   -503789.31244  24776412.0084                   24776416.9614
        33.5004         25.5004
  -8379723.07047  -6510366.24645  21764383.6804                   21764381.3714
        44.5004         34.5004
 -19361516.79748 -15055569.32848  20150498.5474                   20150495.2624
        48.0004         48.7504
  -1836670.13746  -1422925.50845  23997377.2034                   23997377.6174
        40.7504         35.2504
 -12497961.23446  -9703208.04743  24726910.7274                   24726914.0824
        36.2504         20.7504
 -23888277.25847 -18570845.23444  22890058.7504                   22890058.4384
        43.5004         25.7504
 -21545143.50046 -16744391.55145  22980369.5784                   22980371.1564
        40.0004         35.2504
 25  7 15  0 20  0.0000000  0 11G01G02G03G16G10G28G31G32G25G04G26
 -18122409.41847 -14092851.43445  21134909.2344                   21134907.3554
        47.7504         34.7504
  -7934275.72347  -6164205.52345  22306213.0164                   22306209.4844
        44.7504         32.7504
 -26712732.94947 -20763868.38347  21204040.0554                   21204039.9924
        47.0004         45.5004
   2701368.23446   2150297.31642  25142410.5394                   25142417.4304
        36.7504         16.2504
   -652434.95745   -503364.85943  24776515.6724                   24776520.9654
        32.7504         23.7504
  -8403621.16047  -6528988.16045  21759836.3594                   21759833.6804
        45.0004         34.7504
 -19442170.01248 -15118415.97748  20135150.7344                   20135146.8984
        49.2504         48.7504
  -1859348.19546  -1440596.78545  23993061.2894                   23993062.6454
        41.5004         35.0004
 -12543756.99245  -9738893.10243  24718196.9144                   24718200.0004
        35.5004         19.5004
 -24044123.79347 -18692283.99244  22860402.6024                   22860402.0234
        43.2504         26.0004
 -21718758.57046 -16879675.94545  22947331.4844                   22947333.5234
        40.7504         35.5004
 25  7 15  0 20 30.0000000  0 11G01G02G03G16G10G28G31G32G25G04G26
 -18197511.03947 -14151372.19145  21120617.9924                   21120616.0864
        47.0004         34.7504
  -7959784.46147  -6184082.51645  22301359.1024                   22301355.6214
        44.0004         32.7504
 -26875524.10547 -20890718.61347  21173062.2894                   21173061.8554
        47.0004         45.5004
   2511325.43046   2002212.30942  25106247.5004                   25106253.3404
        37.2504         17.2504
   -651646.31245   -502750.62144  24776666.3284                   24776670.8634
        32.5004         26.0004
  -8427085.74247  -6547272.27345  21755371.0784                   21755368.5744
        45.0004         35.0004
 -19522162.52748 -15180747.80148  20119929.0084                   20119925.2424
        48.5004         48.5004
  -1881957.58646  -1458214.55545  23988759.3594                   23988759.9694
        41.5004         35.0004
 -12588987.92645  -9774137.97342  24709589.7734                   24709591.6994
        35.0004         17.2504
 -24199781.71147 -18813575.78144  22830781.7424                   22830781.2464
        43.0004         26.5004
 -21892078.16447 -17014730.08645  22914349.5634                   22914351.8404
        42.0004         35.2504
 25  7 15  0 21  0.0000000  0 11G01G02G03G16G10G28G31G32G25G04G26
 -18271982.25447 -14209401.71945  21106446.8674                   21106444.4884
        47.5004         35.5004
  -7984914.40647  -6203664.34845  22296577.1484                   22296573.5554
        45.5004         32.5004
 -27038021.32447 -21017339.79747  21142140.0704                   21142139.3134
        47.0004         45.5004
   2321164.26646   1854035.23842  25070060.3364                   25070066.8874
        36.0004         17.2504
   -650619.03545   -501950.46144  24776861.6254                   24776867.1764
        32.2504         26.5004
  -8450123.35247  -6565223.68445  21750987.1644                   21750984.9494
        46.5004         34.5004
 -19601499.55548 -15242568.85948  20104831.3524                   20104827.7854
        49.0004         48.5004
  -1904502.45346  -1475782.04345  23984468.7734                   23984470.1884
        40.7504         33.7504
 -12633659.39845  -9808946.94943  24701088.6334                   24701091.0354
        35.0004         19.0004
 -24355255.17247 -18934723.84844  22801196.0234                   22801195.4104
        43.5004         27.0004
 -22065103.14846 -17149554.66046  22881424.0944                   22881426.1684
        41.5004         36.0004
 25  7 15  0 21 30.0000000  0 11G01G02G03G16G10G28G31G32G25G04G26
 -18345816.02047 -14266934.54345  21092396.8524                   21092394.3164
        47.0004         35.5004
  -8009660.04347  -6222946.71945  22291868.4144                   22291864.3484
        45.5004         32.0004
 -27200214.55947 -21143724.11347  21111275.4774                   21111275.3204
        46.7504         45.5004
   2130895.14146   1705773.91442  25033853.8914                   25033859.4454
        36.2504         17.7504
   -649346.78945   -500959.39144  24777105.1804                   24777109.9534
        33.0004         27.2504
  -8472728.60547  -6582838.19545  21746685.3674                   21746683.4884
        46.2504         34.0004
 -19680174.34848 -15303873.89548  20089859.7814                   20089856.3404
        50.0004         48.5004
  -1926975.01246  -1493293.19945  23980192.7194                   23980193.5354
        41.5004         34.2504
 -12677764.73045  -9843314.76642  24692695.6724                   24692698.0234
        35.2504         17.7504
 -24510536.48847 -19055722.18744  22771646.8284                   22771646.7034
        42.2504         26.7504
 -22237822.37946 -17284140.98445  22848556.8754                   22848558.6374
        41.7504         35.7504
 25  7 15  0 22  0.0000000  0 11G01G02G03G16G10G28G31G32G25G04G26
 -18419009.21148 -14323968.21545  21078468.2974                   21078466.3594
        48.5004         35.0004
  -8034019.91447  -6241928.49245  22287232.9774                   22287228.9694
        44.0004         32.0004
 -27362097.50047 -21269866.64147  21080470.2814                   21080469.9184
        47.5004         45.5004
   1940524.80945   1557433.80542  24997626.7034                   24997632.5474
        35.2504         17.7504
   -647826.19545   -499774.82044  24777394.5784                   24777399.4144
        32.7504         27.2504
  -8494899.89847  -6600114.54745  21742466.4454                   21742464.2114
        44.7504         34.0004
 -19758183.89548 -15364660.55148  20075014.9224                   20075011.5784
        49.2504         48.5004
  -1949371.32046  -1510744.92645  23975931.0084                   23975931.9574
        40.7504         33.5004
 -12721301.35945  -9877239.42643  24684411.6414                   24684413.3674
        35.0004         19.5004
 -24665621.77047 -19176567.76244  22742134.8134                   22742134.5744
        42.5004         25.2504
 -22410228.61746 -17418483.43045  22815748.5474                   22815751.0944
        41.2504         35.2504
 25  7 15  0 22 30.0000000  0 11G01G02G03G16G10G28G31G32G25G04G26
 -18491566.61348 -14380506.46145  21064660.8754                   21064658.6604
        48.2504         35.0004
  -8058000.28147  -6260614.53945  22282669.5634                   22282665.9304
        45.5004         32.5004
 -27523671.86347 -21395768.70747  21049723.3364                   21049722.8914
        47.5004         45.2504
   1750052.16445   1409013.95742  24961379.9774                   24961385.6914
        34.7504         17.2504
   -646062.44145   -498400.78544  24777730.2734                   24777734.7344
        34.0004         26.7504
  -8516643.64547  -6617057.75445  21738329.2734                   21738326.6174
        47.2504         34.0004
 -19835533.14848 -15424932.69548  20060296.1644                   20060292.7624
        50.0004         48.5004
  -1971695.39146  -1528140.35545  23971682.7504                   23971683.8204
        40.5004         33.0004
 -12764274.43445  -9910724.93043  24676234.3594                   24676236.6604
        33.2504         20.2504
 -24820515.13747 -19297263.80944  22712659.5314                   22712659.3554
        43.5004         26.5004
 -22582322.46546 -17552582.44145  22783000.1334                   22783002.3594
        41.2504         34.2504
 25  7 15  0 23  0.0000000  0 10G01G02G03G16G10G28G31G32G04G26
 -18563484.25848 -14436546.20345  21050975.6094                   21050973.4024
        48.2504         35.2504
  -8081598.84847  -6279003.09445  22278179.0554                   22278174.9884
        45.5004         33.2504
 -27684930.57048 -21521424.82447  21019036.8984                   21019036.9264
        48.0004         45.7504
   1559484.41445   1260519.94542  24925116.7814                   24925122.4654
        34.7504         17.2504
   -644051.85245   -496834.38345  24778112.8284                   24778118.0204
        35.0004         30.5004
  -8537957.48047  -6633665.96545  21734273.1094                   21734270.6644
        47.2504         34.0004
 -19912218.66848 -15484687.64848  20045703.4844                   20045700.0514
        49.5004         48.5004
  -1993942.45346  -1545475.80545  23967449.7584                   23967449.9844
        40.2504         32.5004
 -24975211.80147 -19417806.58644  22683222.6724                   22683221.2934
        42.7504         26.5004
 -22754095.87146 -17686431.76245  22750313.1564                   22750314.8094
        41.2504         35.7504
 25  7 15  0 23 30.0000000  0 10G01G02G03G16G10G28G31G32G04G26
 -18634766.02348 -14492090.45745  21037411.4304                   21037409.3554
        48.2504         34.7504
  -8104820.82047  -6297098.19145  22273759.9304                   22273756.2934
        44.5004         32.5004
 -27845874.35248 -21646835.53547  20988410.6724                   20988410.2774
        48.0004         45.5004
   1368821.13345   1111951.50442  24888834.2424                   24888840.3714
        35.5004         16.2504
   -641798.39146   -495078.74645  24778541.9224                   24778547.1294
        36.0004         30.7504
  -8558846.77747  -6649943.35945  21730297.7344                   21730295.6214
        46.2504         33.7504
 -19988244.31648 -15543928.40648  20031236.0554                   20031232.6644
        49.5004         48.5004
  -2016115.48446  -1562753.55545  23963229.3444                   23963230.9774
        38.7504         32.2504
 -25129714.89547 -19538198.52044  22653820.6724                   22653820.2114
        42.5004         26.5004
 -22925548.44146 -17820031.07845  22717686.3054                   22717688.4694
        40.7504         35.7504
 25  7 15  0 24  0.0000000  0 10G01G02G03G16G10G28G31G32G04G26
 -17129984.91847 -13319533.77045  21323761.5084                   21323759.3524
        47.7504         35.0004
  -6552242.43747  -5087296.90245  22569205.7344                   22569202.0164
        45.2504         32.2504
 -26431069.89847 -20544390.48447  21257638.7504                   21257638.3674
        47.7504         45.5004
   2753497.19145   2190920.25442  25152328.3984                   25152335.1844
        34.5004         15.5004
    936122.41446    734469.64145  25078810.8834                   25078815.8164
        37.2504         31.2504
  -7003887.71147  -5438286.96545  22026196.6564                   22026194.5514
        45.7504         34.0004
 -18488183.28148 -14375049.67648  20316688.2424                   20316684.6604
        49.7504         48.2504
   -462788.23046   -352368.73845  24258818.0234                   24258819.5634
        39.0004         31.7504
 -23708593.73047 -18430831.29344  22924250.9224                   22924250.7584
        42.0004         26.5004
 -21521245.69946 -16725769.13745  22984916.5784                   22984917.9614
        41.7504         35.5004
 25  7 15  0 24 30.0000000  0 10G01G02G03G16G10G28G31G32G04G26
 -17199982.37147 -13374077.26245  21310441.4224                   21310439.4414
        47.7504         35.0004
  -6574703.28947  -5104798.91845  22564931.8914                   22564928.3094
        46.0004         32.5004
 -26591361.53947 -20669293.03947  21227136.3444                   21227135.9184
        47.5004         45.7504
   2562666.84445   2042221.64542  25116015.2664                   25116020.7774
        33.5004         16.7504
    938873.71946    736613.20345  25079334.6724                   25079339.4964
        38.5004         31.2504
  -7023919.95347  -5453896.53145  22022384.7194                   22022382.2854
        46.0004         33.0004
 -18562877.35948 -14433252.85948  20302474.2734                   20302470.8984
        48.5004         48.5004
   -484797.90246   -369519.20745  24254630.1724                   24254630.8714
        38.5004         32.5004
