     2.11           OBSERVATION DATA    G (GPS)             RINEX VERSION / TYPE
teqc  2019Feb25                         20250728 22:25:47UTCPGM / RUN BY / DATE
Linux 2.6.32-573.12.1.x86_64|x86_64|gcc -static|Linux 64|=+ COMMENT
BIT 2 OF LLI FLAGS DATA COLLECTED UNDER A/S CONDITION       COMMENT
35163321                                                    MARKER NAME
3321                                                        MARKER NUMBER
-Unknown-           -Unknown-                               OBSERVER / AGENCY
0220413516          TRIMBLE R7          2.32                REC # / TYPE / VERS
-Unknown-           TRM39105.00     NONE                    ANT # / TYPE
 -2410322.3600 -4646317.4510  3633564.1202                  APPROX POSITION XYZ
        0.0000        0.0000        0.0000                  ANTENNA: DELTA H/E/N
     1     1                                                WAVELENGTH FACT L1/2
     7    L1    L2    C1    P1    P2    S1    S2            # / TYPES OF OBSERV
    18                                                      LEAP SECONDS
 SNR is mapped to RINEX snr flag value [0-9]                COMMENT
  L1 & L2: min(max(int(snr_dBHz/6), 0), 9)                  COMMENT
  2025     7    14    22    57    0.0000000     GPS         TIME OF FIRST OBS
                                                            END OF HEADER
 25  7 14 22 57  0.0000000  0  9G01G02G03G08G10G28G31G32G25
   -215378.60557   -139322.50055  22144165.4924                   22144164.2774
        45.5004         31.5004
   -136029.65258    -87645.76656  21391827.3054                   21391823.1644
        48.0004         38.2504
   -227500.07456   -126034.60555  23845680.7504                   23845683.2384
        39.0004         31.5004
    -19278.47756    -10756.54754  24893816.7274                   24893824.0044
        38.2504         27.0004
    -51055.39557    -34739.19156  22492601.2114                   22492602.0984
        46.0004         41.5004
   -146477.05957    -94849.81256  20932779.3284                   20932777.1684
        47.7504         38.0004
   -230983.84458   -148665.86357  21392582.3204                   21392580.4024
        48.5004         43.5004
    -39930.41458    -22862.29357  21940940.8984                   21940940.7384
        48.7504         46.0004
   -163577.64856    -92002.05154  24675728.3594                   24675731.4774
        37.0004         29.5004
 25  7 14 22 57 30.0000000  0  9G01G02G03G08G10G28G31G32G25
   -381914.85247   -269090.96945  22112474.4844                   22112473.4574
        45.5004         31.5004
   -240993.57847   -169435.84846  21371853.2424                   21371849.1054
        47.7504         38.2504
   -408361.12546   -266965.18444  23811263.7664                   23811266.1484
        37.0004         29.7504
    -39156.43446    -26246.10944  24890034.7114                   24890041.8594
        38.7504         26.2504
    -92179.73047    -66784.16846  22484775.5634                   22484776.5634
        46.5004         41.5004
   -259896.42247   -183228.51646  20911195.9924                   20911193.6804
        47.2504         38.0004
   -408566.72747   -287042.06647  21358789.3524                   21358787.6994
        47.2504         43.5004
    -74189.26248    -49557.51647  21934421.4844                   21934421.3204
        48.5004         46.2504
   -295657.74646   -194921.55144  24650593.9144                   24650597.5744
        36.7504         29.5004
 25  7 14 22 58  0.0000000  0  9G01G02G03G08G10G28G31G32G25
   -548498.06247   -398896.02745  22080775.0394                   22080773.3364
        45.0004         32.0004
   -345889.80147   -251173.16846  21351892.3754                   21351888.1094
        47.7504         37.5004
   -589680.32846   -408252.76244  23776759.4304                   23776762.0824
        38.2504         29.5004
    -59492.25446    -42092.46544  24886164.8364                   24886171.9964
        39.0004         26.2504
   -133503.21547    -98984.31646  22476912.3674                   22476913.0744
        46.5004         41.2504
   -373171.51648   -271494.80546  20889640.2034                   20889638.5004
        48.0004         37.7504
   -586164.76248   -425430.08647  21324993.6564                   21324991.7894
        48.2504         43.7504
   -108762.11348    -76497.42247  21927842.4224                   21927842.3754
        48.5004         46.2504
   -427781.23846   -297874.82044  24625451.7894                   24625455.2624
        37.7504         28.0004
 25  7 14 22 58 30.0000000  0  9G01G02G03G08G10G28G31G32G25
   -714992.94147   -528632.26245  22049091.8524                   22049090.4264
        44.5004         32.0004
   -450585.15647   -332753.96946  21331969.4844                   21331965.1414
        47.5004         38.0004
   -771324.09046   -549793.26644  23742194.1564                   23742196.0234
        37.5004         28.7504
    -80156.02746    -58194.37944  24882232.3914                   24882240.7584
        38.0004         25.7504
   -174892.72747   -131235.92246  22469036.0474                   22469037.3284
        46.2504         41.2504
   -486169.02048   -359544.78946  20868137.4224                   20868135.3054
        48.0004         37.5004
   -763642.19548   -563724.11747  21291221.0394                   21291218.8284
        48.5004         43.7504
   -143517.52748   -103579.58647  21921228.8834                   21921228.6524
        49.0004         46.0004
   -559812.82446   -400756.52044  24600326.2894                   24600330.0704
        36.7504         28.5004
 25  7 14 22 59  0.0000000  0  9G01G02G03G08G10G28G31G32G25
   -881360.22347   -658269.07445  22017433.2034                   22017431.8714
        45.0004         32.5004
   -555042.06247   -414148.96146  21312092.0554                   21312087.4804
        47.7504         37.5004
   -953254.82046   -691557.38344  23707573.6884                   23707575.4774
        37.5004         26.5004
   -101113.49246    -74525.12544  24878244.3914                   24878253.1604
        38.0004         27.5004
   -216311.09447   -163510.01246  22461154.4774                   22461155.1254
        45.0004         41.5004
   -598851.53548   -447349.32446  20846694.6804                   20846692.8794
        48.5004         37.5004
   -940959.25448   -701893.19147  21257478.3444                   21257476.1484
        48.2504         44.0004
   -178419.95348   -130776.30147  21914587.1724                   21914587.0434
        48.0004         46.0004
   -691713.33646   -503536.07844  24575226.3054                   24575230.2544
        37.7504         28.0004
 25  7 14 22 59 30.0000000  0  9G01G02G03G08G10G28G31G32G25
  -1047576.50047   -787788.20345  21985803.7664                   21985801.9414
        45.5004         31.5004
   -659239.50048   -495341.76646  21292263.8204                   21292259.3134
        48.0004         36.7504
  -1135450.74246   -833528.13744  23672903.0004                   23672904.6604
        37.2504         26.5004
   -122346.45746    -91070.56244  24874203.9384                   24874212.4924
        38.0004         28.5004
   -257737.05947   -195790.03146  22453271.4694                   22453272.1564
        45.2504         41.2504
   -711197.63347   -534891.71546  20825316.2274                   20825313.4734
        47.5004         38.5004
  -1118092.48448   -839919.01647  21223771.1254                   21223768.9774
        48.5004         44.0004
   -213449.80148   -158072.30947  21907921.4614                   21907920.8244
        49.0004         45.7504
   -823459.43746   -606195.27344  24550156.2114                   24550159.8204
        38.2504         28.0004
 25  7 14 23  0  0.0000000  0  9G01G02G03G08G10G28G31G32G25
  -1213619.47347   -917172.30145  21954206.3754                   21954205.0554
        45.0004         33.0004
   -763157.32047   -576316.69546  21272489.1174                   21272484.5984
        47.0004         37.5004
  -1317891.17246   -975689.40244  23638185.6884                   23638187.4654
        36.5004         28.0004
   -143837.80546   -107817.32844  24870114.9064                   24870123.0044
        39.0004         26.7504
   -299150.45347   -228060.24246  22445390.3754                   22445391.2234
        45.5004         41.2504
   -823187.01648   -622156.14546  20804005.3364                   20804002.7774
        48.0004         38.0004
  -1295019.01248   -977783.77747  21190103.0394                   21190100.5904
        48.0004         44.0004
   -248588.56248   -185453.17247  21901234.3834                   21901234.2894
        48.7504         46.0004
   -955028.90646   -708716.89544  24525119.3054                   24525122.6724
        36.2504         29.2504
 25  7 14 23  0 30.0000000  0  9G01G02G03G08G10G28G31G32G25
  -1379469.82447  -1046406.31245  21922646.4844                   21922644.7154
        45.7504         32.0004
   -866777.69547   -657059.84446  21252770.7894                   21252766.1564
        47.7504         38.0004
  -1500558.44146  -1118027.44144  23603424.8284                   23603426.8834
        37.7504         28.0004
   -165573.60246   -124754.57444  24865979.3524                   24865987.2424
        38.0004         27.0004
   -340534.12147   -260307.29746  22437515.8284                   22437516.2774
        44.5004         41.0004
   -934802.34847   -709129.10946  20782765.1174                   20782763.1954
        47.7504         37.5004
  -1471719.35248  -1115472.28547  21156478.1334                   21156475.6214
        48.7504         44.5004
   -283820.68448   -212906.80147  21894530.5234                   21894529.8404
        48.5004         45.7504
  -1086402.66046   -811085.96945  24500120.0704                   24500123.5864
        37.7504         30.0004
 25  7 14 23  1  0.0000000  0  9G01G02G03G08G10G28G31G32G25
  -1545108.54347  -1175475.40645  21891126.7344                   21891124.6604
        45.2504         31.7504
   -970083.63747   -737557.98046  21233112.4774                   21233108.1844
        47.5004         37.5004
  -1683435.06646  -1260528.60944  23568624.6414                   23568626.3054
        38.2504         27.7504
   -187539.64846   -141871.25044  24861799.2034                   24861807.6414
        37.7504         27.0004
   -381871.05947   -292517.94946  22429649.3914                   22429650.3204
        45.2504         41.2504
  -1046026.54748   -795797.30546  20761600.0234                   20761597.6994
        48.0004         38.0004
  -1648174.18048  -1252969.49647  21122899.6094                   21122897.7194
        49.0004         44.5004
   -319130.80948   -240421.20347  21887811.0474                   21887810.6804
        48.7504         45.7504
  -1217561.55146   -913287.61744  24475160.8364                   24475164.6564
        38.0004         29.7504
 25  7 14 23  1 30.0000000  0 10G01G02G03G08G10G28G31G32G25G04
  -1710519.51647  -1304367.04345  21859649.4774                   21859647.9304
        44.5004         32.2504
  -1073061.26247   -817800.28946  21213515.9144                   21213511.5274
        47.5004         37.7504
  -1866506.53946  -1403181.61344  23533787.6644                   23533789.0354
        37.7504         28.2504
   -209725.14146   -159158.92244  24857576.7424                   24857585.9804
        36.2504         26.2504
   -423147.35947   -324681.34046  22421795.0864                   22421795.4494
        45.5004         41.0004
  -1156845.63348   -882149.81246  20740512.5164                   20740510.0314
        48.2504         37.5004
  -1824367.22348  -1390262.71147  21089371.0164                   21089368.7704
        49.0004         44.2504
   -354506.62148   -267986.78547  21881078.7974                   21881078.7384
        48.0004         45.7504
  -1348489.85246  -1015309.59444  24450246.4534                   24450249.6954
        36.0004         29.5004
   -367961.87555   -243354.38753  24967507.1094                   24967515.2734
        35.5004         18.2504
 25  7 14 23  2  0.0000000  0 10G01G02G03G08G10G28G31G32G25G04
  -1875695.50847  -1433075.56245  21828217.7814                   21828216.0004
        45.2504         32.2504
  -1175705.27747   -897782.64546  21193983.4384                   21193978.9104
        47.0004         38.0004
  -2049767.23046  -1545982.06244  23498913.6564                   23498915.8524
        36.2504         29.2504
   -232127.86746   -176615.86344  24853314.1484                   24853323.0234
        36.5004         25.2504
   -464357.92647   -356793.51646  22413952.9144                   22413953.5314
        43.7504         41.0004
  -1267254.37548   -968182.58246  20719502.1804                   20719499.6994
        48.0004         38.2504
  -2000290.81248  -1527345.96547  21055894.3364                   21055891.6804
        49.0004         44.5004
   -389944.56648   -295600.79347  21874335.2814                   21874335.3364
        48.7504         45.5004
  -1479180.30546  -1117146.23444  24425376.9304                   24425380.2854
        36.2504         29.2504
   -549621.50046   -384907.12942  24932939.9384                   24932945.9184
        36.2504         17.2504
 25  7 14 23  2 30.0000000  0 10G01G02G03G08G10G28G31G32G25G04
   -465200.42647   -333988.45745  22096626.2114                   22096624.1604
        44.5004         32.2504
    297416.36748    250104.34846  21474309.5554                   21474304.8794
        48.0004         38.0004
   -657781.91446   -461318.08244  23763799.7424                   23763802.1954
        36.7504         29.5004
   1320678.25845   1033362.69144  25148803.4534                   25148812.2934
        33.7504         24.7504
   1069927.17647    838753.27346  22705917.6484                   22705918.5044
        45.5004         41.2504
    198179.43848    173713.92246  20998364.4844                   20998362.3874
        48.0004         38.0004
   -600508.21948   -436606.22747  21322263.8444                   21322261.5044
        48.7504         44.5004
   1149983.45748    904343.09847  22167374.0704                   22167373.7704
        48.0004         45.2504
    -34198.17245      8813.94144  24700347.2734                   24700351.3134
        35.5004         29.7504
    844089.53145    701101.77042  25198153.1024                   25198160.0204
        35.2504         17.2504
 25  7 14 23  3  0.0000000  0 10G01G02G03G08G10G28G31G32G25G04
   -629868.11347   -462300.89845  22065290.3914                   22065288.6484
        44.5004         32.5004
    195471.93048    170667.11746  21454910.0164                   21454905.8954
        48.0004         37.7504
   -841387.18046   -604387.01245  23728861.0704                   23728862.8204
        37.0004         30.0004
   1297863.90645   1015584.98044  25144462.7504                   25144471.6254
        33.7504         24.0004
   1028880.13347    806768.51646  22698106.6024                   22698107.4144
        44.7504         41.0004
     88623.56648     88345.72346  20977516.6954                   20977514.5944
        48.0004         37.5004
   -775853.87148   -573239.14147  21288896.5314                   21288894.3754
        49.0004         44.7504
   1114448.54347    876653.53147  22160612.0784                   22160611.9574
        47.7504         45.2504
   -164375.09045    -92622.56644  24675575.9454                   24675578.7814
        35.0004         29.0004
    662334.43845    559474.61742  25163565.0004                   25163573.0864
        33.2504         16.7504
 25  7 14 23  3 30.0000000  0 10G01G02G03G08G10G28G31G32G25G04
   -794255.20747   -590394.69545  22034008.6024                   22034006.7584
        43.7504         32.2504
     93900.50047     91520.53946  21435581.5634                   21435577.2114
        47.7504         37.5004
  -1025140.64546   -747571.43745  23693894.0864                   23693895.5664
        36.5004         30.2504
   1274862.53145    997661.55144  25140086.0474                   25140094.7344
        34.0004         24.0004
    987938.22747    774865.68446  22690315.9224                   22690316.7154
        45.0004         40.7504
    -20482.60948      3327.94946  20956754.8054                   20956752.6994
        49.0004         37.5004
   -950883.60948   -709625.89547  21255589.6334                   21255587.0354
        49.2504         44.7504
   1078886.12147    848942.53147  22153844.6094                   22153844.5514
        47.7504         45.2504
   -294268.93445   -193838.46544  24650857.5164                   24650860.7814
        34.2504         28.5004
    480555.18045    417828.67242  25128974.1954                   25128981.1334
        33.2504         17.2504
 25  7 14 23  4  0.0000000  0 10G01G02G03G08G10G28G31G32G25G04
   -958353.10247   -718263.15245  22002781.9614                   22002780.3794
        45.0004         31.7504
     -7291.32047     12669.76646  21416325.5004                   21416320.8134
        46.5004         37.5004
  -1209035.05946   -890865.67644  23658899.6884                   23658901.5394
        36.5004         29.7504
   1251677.87545    979595.33644  25135673.1644                   25135683.5744
        33.0004         25.0004
    947107.79747    743049.71546  22682546.0394                   22682546.7384
        45.5004         41.2504
   -129132.54748    -81334.32046  20936078.9924                   20936076.6374
        49.5004         37.7504
  -1125588.59448   -845759.59047  21222344.0944                   21222342.0204
        49.5004         44.7504
   1043301.14147    821213.96147  22147073.1174                   22147072.7194
        47.5004         44.7504
   -423871.40645   -294827.29344  24626194.3984                   24626198.3754
        34.2504         27.2504
    298758.39845    276169.09442  25094379.2664                   25094386.3444
        33.2504         16.7504
 25  7 14 23  4 30.0000000  0 10G01G02G03G08G10G28G31G32G25G04
  -1122144.27747   -845892.60245  21971613.7274                   21971611.6884
        45.2504         32.2504
   -108088.00847    -65873.11746  21397144.6334                   21397140.2504
        46.2504         37.5004
  -1393054.53146  -1034257.38745  23623881.7424                   23623883.9964
        37.0004         30.5004
   1228322.18045    961395.81344  25131229.7894                   25131239.0084
        33.7504         25.5004
    906404.39547    711332.73846  22674800.3594                   22674800.9804
        44.5004         41.0004
   -237310.87948   -165629.10946  20915493.5944                   20915491.2624
        48.2504         37.5004
  -1299951.18448   -981626.48447  21189164.3754                   21189161.3954
        49.2504         44.7504
   1007707.52747    793478.65247  22140299.6804                   22140299.3524
        47.5004         44.7504
   -553164.87145   -395575.35544  24601591.4694                   24601594.9184
        33.2504         28.5004
    116959.74245    134508.00843  25059783.6254                   25059791.1054
        33.0004         18.2504
 25  7 14 23  5  0.0000000  0 10G01G02G03G08G10G28G31G32G25G04
  -1285618.56647   -973275.13345  21940505.3524                   21940503.5784
        45.2504         32.5004
   -208481.66047   -144101.93746  21378040.2424                   21378035.9304
        47.2504         37.7504
  -1577190.22346  -1177739.63345  23588841.2894                   23588844.0984
        37.5004         31.2504
   1204800.56346    943067.01644  25126754.7034                   25126763.3634
        37.0004         26.0004
    865835.94947    679720.91046  22667080.7034                   22667081.3754
        44.7504         40.7504
   -345009.57848   -249550.15646  20894998.9694                   20894996.6564
        48.5004         38.0004
  -1473960.68748  -1117218.23847  21156050.9774                   21156048.4574
        49.7504         45.0004
    972111.79747    765741.70747  22133526.3524                   22133526.1414
        47.5004         44.7504
   -682139.71545   -496075.13744  24577047.6884                   24577050.9184
        33.2504         27.2504
    -64832.47345     -7148.02043  25025189.5474                   25025196.7344
        33.5004         19.0004
 25  7 14 23  5 30.0000000  0 10G01G02G03G08G10G28G31G32G25G04
  -1448764.09847  -1100401.48045  21909459.4924                   21909457.9104
        44.5004         32.5004
   -308462.35947   -222008.97746  21359014.8674                   21359010.1644
        46.2504         37.2504
  -1761431.67246  -1321304.30145  23553781.9534                   23553783.3484
        37.5004         32.0004
   1181120.14845    924614.47344  25122247.6884                   25122256.9844
        35.5004         25.5004
    825412.35547    648221.95746  22659388.1884                   22659389.1644
        44.0004         40.5004
   -452218.90248   -333089.87546  20874597.8754                   20874595.7704
        48.0004         38.2504
  -1647605.16848  -1252525.56647  21123007.4064                   21123004.8594
        49.2504         44.7504
    936522.27047    738009.58647  22126753.6254                   22126753.6054
        47.5004         44.5004
   -810783.94145   -596317.29344  24552567.3754                   24552570.4344
        33.2504         27.7504
   -246608.24655   -148791.21552  24990598.8594                   24990606.3054
        31.5004         16.7504
 25  7 14 23  6  0.0000000  0 10G01G02G03G08G10G28G31G32G25G04
  -1611569.67247  -1227262.93445  21878478.8364                   21878477.2774
        44.5004         32.2504
   -408020.88747   -299587.06246  21340069.4224                   21340064.9344
        47.0004         38.0004
  -1945769.18746  -1464943.81645  23518703.6884                   23518705.3594
        38.2504         32.2504
   1157287.00445    906042.90644  25117713.1254                   25117722.0744
        35.5004         26.0004
    785142.59447    616842.86346  22651725.3134                   22651726.1684
        43.5004         40.2504
   -558929.86748   -416241.27046  20854291.5474                   20854289.5594
        48.0004         38.2504
  -1820873.25848  -1387539.59847  21090035.7424                   21090033.1724
        48.7504         45.0004
    900946.58647    710288.26247  22119983.6954                   22119983.7424
        47.5004         44.5004
   -939086.68045   -696293.35944  24528152.1724                   24528155.6054
        33.0004         27.0004
   -428358.31645   -290414.46542  24956012.8054                   24956020.1334
        32.5004         16.7504
 25  7 14 23  6 30.0000000  0 10G01G02G03G08G10G28G31G32G25G04
  -1774027.84047  -1353853.68445  21847563.8204                   21847562.1724
        44.7504         33.2504
   -507152.01248   -376832.09446  21321205.1564                   21321200.4144
        48.2504         37.7504
  -2130196.62546  -1608653.41045  23483608.0234                   23483610.3364
        38.0004         32.7504
   1133303.54345    887354.21544  25113148.2274                   25113158.3054
        33.5004         25.2504
    745032.08247    585587.85946  22644092.5004                   22644093.1884
        43.5004         40.2504
   -665137.19148   -499000.20346  20834081.0704                   20834078.8134
        48.7504         38.5004
  -1993756.89148  -1522254.05947  21057136.8834                   21057134.2894
        49.2504         44.7504
    865388.60947    682580.73447  22113217.4304                   22113217.0164
        47.5004         44.5004
  -1067040.62145   -795997.64544  24503802.8134                   24503806.8484
        32.5004         27.0004
   -610077.14545   -432013.24242  24921432.9774                   24921439.4654
        32.7504         14.7504
 25  7 14 23  7  0.0000000  0 10G01G02G03G08G10G28G31G32G25G04
  -1936130.78147  -1480167.63745  21816717.0784                   21816715.1764
        45.0004         32.0004
   -605849.99647   -453739.62546  21302423.9224                   21302419.2664
        47.0004         38.5004
  -2314707.53946  -1752428.03145  23448496.4384                   23448498.0234
        39.5004         33.0004
   1109172.71545    868550.69544  25108557.9614                   25108566.7504
        32.2504         26.0004
    705086.54347    554461.41446  22636491.0474                   22636491.9264
        43.0004         40.0004
   -770835.27348   -581362.32446  20813967.3134                   20813965.0514
        49.0004         38.5004
  -2166248.37548  -1656662.94547  21024313.0314                   21024310.3794
        49.0004         45.0004
    829852.66447    654890.37947  22106455.2194                   22106454.7814
        46.7504         44.2504
  -1194638.10945   -895424.19144  24479522.6254                   24479525.5124
        32.2504         25.2504
   -791758.72745   -573583.08242  24886859.3054                   24886866.9414
        32.7504         16.2504
 25  7 14 23  7 30.0000000  0 10G01G02G03G08G10G28G31G32G25G04
  -2097865.43447  -1606194.60945  21785940.1094                   21785938.0704
        44.5004         33.0004
   -704104.04748   -530301.21946  21283726.1724                   21283721.9804
        48.0004         38.0004
  -2499290.29746  -1896258.64145  23413371.4844                   23413373.4024
        39.5004         33.5004
   1084902.50845    849638.56643  25103938.2194                   25103948.5984
        30.2504         23.2504
    665316.95347    523472.07846  22628923.0634                   22628923.9304
        43.0004         40.2504
   -876013.25048   -663319.16846  20793952.9304                   20793950.2234
        48.0004         37.7504
  -2338334.39548  -1790755.87947  20991565.9534                   20991563.3554
        48.7504         44.7504
    794348.27747    627224.60947  22099699.1174                   22099698.9304
        47.5004         44.7504
  -1321866.53145   -994563.16044  24455312.6414                   24455314.6334
        32.0004         26.7504
   -973391.83245   -715115.12942  24852295.3754                   24852303.1094
        31.7504         15.5004
 25  7 14 23  8  0.0000000  0 10G01G02G03G08G10G28G31G32G25G04
  -2259218.85947  -1731924.52745  21755235.3444                   21755233.1094
        43.5004         33.0004
   -801903.38747   -606508.50846  21265115.9694                   21265111.4694
        47.5004         37.7504
  -2683933.25446  -2040136.16845  23378235.0864                   23378237.1954
        40.2504         34.7504
                                  25099294.1564                   25099305.7704
        26.7504         23.5004
    625734.12947    492628.27046  22621390.7114                   22621391.7734
        42.7504         40.0004
   -980660.54348   -744862.49246  20774038.8984                   20774036.2664
        48.5004         37.7504
  -2510001.44948  -1924522.35547  20958898.6954                   20958896.2974
        49.0004         45.0004
    758884.82047    599590.73847  22092950.6564                   22092950.1524
        46.2504         44.0004
  -1448712.81255  -1093404.34454  24431173.0704                   24431176.4884
        32.5004         26.0004
  -1154965.44945   -856600.80542  24817743.6804                   24817750.7304
        33.2504         16.7504
 25  7 14 23  8 30.0000000  0 10G01G02G03G08G10G28G31G32G25G04
  -2420176.50447  -1857346.04345  21724605.7504                   21724604.1524
        44.2504         32.7504
   -899235.39547   -682351.64146  21246594.4144                   21246589.7814
        47.5004         37.5004
  -2868623.19546  -2184050.32045  23343090.1564                   23343091.4964
        39.7504         33.7504
   1035977.99255    811514.98454  25094630.7114                   25094639.2544
        33.0004         24.5004
    586350.54347    461939.70346  22613896.5784                   22613897.1804
        42.7504         40.0004
  -1084764.75448   -825982.64546  20754228.7274                   20754226.2584
        48.0004         37.5004
  -2681235.07848  -2057951.09447  20926314.3594                   20926311.3204
        48.7504         45.0004
    723473.40647    571997.41447  22086212.2274                   22086211.4414
        47.0004         44.0004
  -1575162.91445  -1191936.84844  24407111.1884                   24407114.1564
        32.2504         25.2504
  -1336466.91845   -998030.27042  24783205.8984                   24783211.7464
        31.5004         16.2504
 25  7 14 23  9  0.0000000  0 10G01G02G03G08G10G28G31G32G25G04
  -2580734.66447  -1982456.27345  21694052.3674                   21694050.5514
        44.0004         32.5004
   -996098.89847   -757829.69546  21228161.8524                   21228157.3914
        47.7504         37.5004
  -3053357.69546  -2327999.16845  23307935.8674                   23307938.0044
        39.0004         34.7504
   1011332.14145    792310.15643  25089938.3054                   25089949.2934
        30.5004         22.7504
    547167.86747    431407.69546  22606440.5704                   22606441.0354
        43.5004         40.0004
  -1188324.44947   -906678.49246  20734521.3834                   20734519.1724
        47.0004         37.5004
  -2852031.25448  -2191038.94547  20893812.2974                   20893810.1484
        48.5004         45.0004
    688114.34047    544444.88747  22079483.3594                   22079482.8054
        47.0004         44.0004
  -1701213.10945  -1290157.70344  24383124.8364                   24383127.5904
        32.2504         25.5004
                                  24748679.2344                   24748687.7074
        30.5004         14.7504
 25  7 14 23  9 30.0000000  0 10G01G02G03G08G10G28G31G32G25G04
  -2740883.60547  -2107247.63345  21663577.8444                   21663575.8244
        44.2504         32.7504
  -1092486.08247   -832936.60546  21209820.0474                   21209815.2974
        46.2504         37.5004
  -3238128.34846  -2471976.18745  23272775.3984                   23272776.8204
        39.0004         35.0004
    986568.18445    773013.30544  25085228.6414                   25085237.3204
        35.7504         27.2504
    508193.68447    401038.14546  22599023.6094                   22599024.2974
        43.7504         39.7504
  -1291332.19947   -986944.26246  20714919.9224                   20714917.4924
        47.7504         38.2504
  -3022380.09048  -2323778.23047  20861396.5164                   20861393.4454
        48.7504         45.0004
    652813.85247    516937.99247  22072765.9694                   22072765.5634
        47.2504         44.0004
  -1826854.02745  -1388059.66844  24359216.1414                   24359218.5594
        31.5004         25.0004
  -1699240.00045  -1280709.92242  24714170.1884                   24714177.7154
        32.7504         16.7504
 25  7 14 23 10  0.0000000  0 10G01G02G03G08G10G28G31G32G25G04
  -2900622.67647  -2231719.59845  21633180.1564                   21633177.9144
        44.5004         33.5004
  -1188398.73047   -907673.74246  21191568.2894                   21191563.9734
        47.5004         37.0004
  -3422935.69546  -2615981.80145  23237607.7114                   23237608.9884
        40.0004         34.5004
    961682.15245    753621.34044  25080493.0944                   25080502.0664
        35.5004         28.0004
    469426.66847    370830.03946  22591646.6724                   22591647.5004
        43.5004         40.2504
  -1393789.66847  -1066781.22746  20695422.7974                   20695420.0314
        47.5004         38.2504
  -3192280.43448  -2456168.04347  20829065.1414                   20829063.0434
        48.5004         45.2504
    617569.17647    489474.58647  22066059.1644                   22066058.7424
        46.5004         44.0004
  -1952085.25855  -1485642.37554  24335385.9224                   24335387.7344
        33.0004         26.5004
  -1880504.93445  -1421955.04342  24679676.2814                   24679684.3244
        32.5004         16.2504
 25  7 14 23 10 30.0000000  0 10G01G02G03G08G10G28G31G32G25G04
  -1484518.12547  -1128261.48045  21902655.6724                   21902653.9534
        44.5004         32.7504
    291592.61747    245566.25846  21473201.3054                   21473196.6564
        46.5004         37.2504
  -2032346.37546  -1532405.60945  23502227.5784                   23502229.4104
        39.5004         35.5004
   2512098.26245   1961737.44544  25375527.3444                   25375537.9414
        35.7504         27.2504
   2006294.37947   1568389.24646  22884103.0004                   22884104.0274
        43.7504         39.5004
     79732.66447     81418.01246  20975824.8674                   20975822.7734
        46.0004         38.0004
  -1786298.43448  -1360597.58247  21096614.6174                   21096612.1254
        49.2504         45.0004
   2157806.51647   1689659.50047  22359156.1094                   22359156.3554
        47.5004         43.7504
   -501474.40655   -355296.19954  24611426.8134                   24611429.9454
        32.7504         25.5004
   -486256.46945   -335527.38742  24944993.9614                   24944999.9144
        35.0004         17.7504
 25  7 14 23 11  0.0000000  0 10G01G02G03G08G10G28G31G32G25G04
  -1643417.42247  -1252079.09445  21872418.1724                   21872416.2424
        44.5004         33.0004
    196642.82047    171579.39846  21455132.7814                   21455128.4064
        46.5004         37.5004
  -2217210.77046  -1676455.69945  23467048.7734                   23467050.6454
        40.2504         34.7504
   2486973.41446   1942159.46144  25370747.8524                   25370755.6994
        38.0004         26.5004
   1967955.43047   1538514.69146  22876807.4454                   22876808.3134
        43.5004         40.5004
    -21611.14147      2448.84046  20956539.5004                   20956536.9924
        47.5004         38.0004
  -1955281.89848  -1492272.93747  21064458.0944                   21064455.5084
        49.5004         45.2504
   2122683.37147   1662290.79347  22352473.0634                   22352472.7344
        46.7504         43.7504
   -625866.94945   -452225.38344  24587756.5084                   24587758.7774
        32.5004         25.5004
   -667345.45345   -476635.36742  24910533.0554                   24910539.1374
        35.0004         16.7504
 25  7 14 23 11 30.0000000  0 10G01G02G03G08G10G28G31G32G25G04
  -1801887.65647  -1375562.36745  21842262.6174                   21842260.2774
        44.5004         33.5004
    102180.06347     97972.03946  21437157.4304                   21437153.0744
        47.7504         38.0004
  -2402096.25446  -1820522.21145  23431866.9774                   23431868.0594
        39.7504         34.7504
   2461731.08246   1922489.91444  25365943.3984                   25365952.4804
        36.7504         28.0004
   1929836.53947   1508811.60246  22869553.7344                   22869554.4804
        43.2504         39.5004
   -122392.51247    -76082.08246  20937361.5784                   20937359.2074
        47.0004         37.5004
  -2123797.39148  -1623583.63747  21032390.7194                   21032388.1764
        49.2504         45.2504
   2087625.06347   1634972.61747  22345801.5554                   22345801.2194
        46.7504         43.7504
   -749831.46955   -548821.07054  24564166.3134                   24564168.8484
        32.7504         26.5004
   -848340.16846   -617669.95342  24876091.0164                   24876097.2234
        36.0004         17.7504
 25  7 14 23 12  0.0000000  0 10G01G02G03G08G10G28G31G32G25G04
  -1959924.87947  -1498708.22345  21812188.8674                   21812186.7814
        44.7504         33.5004
      8206.46547     24745.85246  21419274.6414                   21419270.0394
        47.2504         37.5004
  -2587000.15646  -1964603.07845  23396680.4064                   23396681.7974
        40.0004         35.0004
   2436370.42246   1902728.08644  25361117.3364                   25361126.3444
        37.5004         28.0004
   1891939.70747   1479281.55946  22862342.3364                   22862343.0044
        43.0004         39.5004
   -222609.75847   -154173.41846  20918290.7034                   20918288.3714
        46.0004         37.7504
  -2291840.69548  -1754526.41447  21000412.7734                   21000410.2854
        48.7504         45.2504
   2052632.28547   1607705.49647  22339142.7814                   22339142.3244
        46.2504         44.0004
   -873364.05155   -645080.16054  24540658.4304                   24540661.7664
        30.5004         25.7504
  -1029238.29746   -758629.21942  24841666.6094                   24841671.9304
        36.5004         16.7504
 25  7 14 23 12 30.0000000  0 10G01G02G03G08G10G28G31G32G25G04
  -2117518.08647  -1621508.09445  21782199.8364                   21782197.8754
        44.0004         32.5004
    -85269.60247    -48092.64846  21401486.8594                   21401482.3714
        47.5004         38.5004
  -2771912.55546  -2108690.57045  23361493.0634                   23361494.1024
        40.0004         35.0004
   2410897.70746   1882878.98844  25356269.9614                   25356279.6604
        36.2504         26.0004
   1854273.78147   1449931.44546  22855174.5944                   22855175.6414
        43.7504         39.7504
   -322254.30147   -231818.50046  20899329.3914                   20899326.9964
        47.7504         37.7504
  -2459400.46548  -1885092.40647  20968527.4304                   20968524.6024
        48.7504         45.2504
   2017712.60947   1580495.34447  22332497.5944                   22332496.9024
        46.2504         43.7504
                                  24517234.5944                   24517237.8554
        31.0004         26.0004
  -1210030.83646   -899506.23843  24807262.8444                   24807268.4344
        36.2504         18.2504
 25  7 14 23 13  0.0000000  0 10G01G02G03G08G10G28G31G32G25G04
  -2274666.07047  -1743961.03145  21752295.3444                   21752293.4694
        44.5004         33.7504
   -178249.09847   -120544.21146  21383793.4614                   21383788.8364
        46.2504         37.7504
  -2956833.42246  -2252784.67245  23326303.5164                   23326304.9924
        39.5004         34.7504
   2385309.34446   1862939.75444  25351401.2274                   25351410.5354
        39.0004         27.7504
   1816837.91447   1420760.57846  22848050.8524                   22848051.8364
        43.5004         39.2504
   -421327.34047   -309018.25046  20880476.3204                   20880473.8204
        47.5004         37.7504
  -2626475.68448  -2015280.82047  20936734.1024                   20936731.0004
        48.5004         45.5004
   1982863.97347   1553340.54747  22325866.5394                   22325866.1564
        46.5004         43.5004
  -1119100.70755   -836563.14554  24493895.8054                   24493898.6884
        31.0004         25.0004
  -1390718.35546  -1040301.41843  24772879.0944                   24772884.3204
        37.5004         19.5004
 25  7 14 23 13 30.0000000  0 11G01G02G03G08G10G28G31G32G25G04G26
  -2431364.50047  -1866063.66445  21722476.8204                   21722474.8094
        44.2504         33.7504
   -270729.81647   -192607.12146  21366194.9384                   21366190.3554
        47.5004         37.2504
  -3141759.41846  -2396882.76245  23291112.9144                   23291114.4414
        39.7504         34.2504
   2359605.00046   1842910.25444  25346509.9844                   25346519.4774
        38.2504         25.7504
   1779634.56347   1391770.90246  22840971.1724                   22840972.2664
        44.0004         39.2504
   -519826.87547   -385771.11746  20861732.1254                   20861730.0314
        46.7504         37.5004
  -2793061.72348  -2145088.06647  20905033.5474                   20905030.7664
        49.2504         45.5004
   1948087.51647   1526241.99647  22319248.3754                   22319248.2814
        46.5004         43.5004
  -1241299.84055   -931783.21154  24470642.7734                   24470645.0984
        31.5004         26.0004
  -1571298.21546  -1181012.73443  24738515.4144                   24738521.1024
        36.7504         18.2504
   2776217.48056   2207279.48054  25210260.8134                   25210271.8834
        37.7504         27.0004
 25  7 14 23 14  0.0000000  0 11G01G02G03G08G10G28G31G32G25G04G26
  -2587614.89547  -1987817.19145  21692743.3204                   21692741.3164
        44.5004         32.7504
   -362715.26247   -264284.09846  21348690.7974                   21348686.1174
        46.5004         37.7504
  -3326693.22346  -2540986.95345  23255921.1334                   23255922.3164
        39.5004         33.5004
   2333778.51246   1822785.40244  25341595.4774                   25341605.4454
        40.0004         26.5004
   1742660.05947   1362959.55146  22833935.6024                   22833936.3284
        44.2504         39.7504
   -617756.87947   -462080.19546  20843096.7974                   20843094.4964
        47.5004         38.5004
  -2959159.60248  -2274514.92647  20873426.2274                   20873423.1374
        49.2504         45.5004
   1913378.34447   1499195.86747  22312643.7974                   22312643.3594
        46.0004         43.7504
  -1363053.21155  -1026655.90654  24447474.2664                   24447476.6454
        31.2504         25.0004
  -1751773.82446  -1321642.79342  24704171.7424                   24704177.1054
        38.0004         17.7504
   2591703.75446   2063503.06344  25175148.3364                   25175159.7114
        38.0004         27.2504
 25  7 14 23 14 30.0000000  0 11G01G02G03G08G10G28G31G32G25G04G26
  -2743413.57847  -2109218.74245  21663095.9774                   21663093.7584
        45.0004         33.2504
   -454204.59847   -335574.50446  21331281.1564                   21331276.3984
        47.7504         37.0004
  -3511632.21546  -2685095.19145  23220728.6334                   23220729.9804
        39.0004         34.0004
   2307828.84446   1802564.68444  25336656.3984                   25336668.3284
        38.2504         26.2504
   1705916.04747   1334327.80546  22826943.1254                   22826944.2154
        43.0004         39.2504
   -715116.12147   -537944.52346  20824569.9924                   20824567.4884
        45.5004         38.0004
  -3124765.90248  -2403558.73447  20841912.3364                   20841909.5864
        49.5004         46.0004
   1878736.94547   1472202.55147  22306051.5474                   22306051.4384
        46.0004         43.7504
  -1484357.56245  -1121178.74643  24424390.2974                   24424392.9144
        31.7504         23.2504
  -1932143.23446  -1462190.08642  24669848.4224                   24669853.2504
        38.0004         17.2504
   2407013.24646   1919588.91444  25140002.4384                   25140013.5554
        38.0004         28.5004
 25  7 14 23 15  0.0000000  0 10G01G02G03G10G28G31G32G25G04G26
  -2898749.94947  -2230260.03945  21633536.3594                   21633534.1414
        45.0004         33.5004
   -545189.31647   -406471.69546  21313967.1094                   21313962.8444
        47.7504         37.2504
  -3696566.80946  -2829200.00045  23185536.6254                   23185538.2584
        39.0004         33.7504
   1669411.09047   1305882.32846  22819996.7274                   22819997.1764
        43.0004         38.5004
   -811896.37947   -613357.69146  20806153.1254                   20806150.9064
        47.2504         37.2504
  -3289869.89848  -2532211.15247  20810493.9774                   20810491.2734
        48.5004         45.7504
   1844170.71547   1445267.80147  22299473.8204                   22299473.3554
        45.7504         43.5004
  -1605202.54345  -1215343.61343  24401395.0634                   24401396.5434
        31.7504         22.7504
  -2112397.72346  -1602647.87542  24635547.0004                   24635552.4144
        38.5004         16.7504
   2222156.95346   1775545.62944  25104824.9774                   25104836.0434
        37.0004         27.0004
 25  7 14 23 15 30.0000000  0 10G01G02G03G10G28G31G32G25G04G26
  -3053623.02047  -2350940.32845  21604064.6884                   21604062.5864
        45.5004         33.5004
   -635670.77348   -476976.73846  21296748.9224                   21296744.1884
        48.0004         37.5004
  -3881497.08746  -2973301.42145  23150346.2424                   23150346.8834
        38.5004         33.0004
   1633144.18447   1277622.33646  22813095.4924                   22813096.4144
        44.2504         38.7504
   -908099.06647   -688320.81246  20787846.7814                   20787843.6454
        47.5004         37.5004
  -3454470.13748  -2660471.02347  20779171.8134                   20779168.6764
        48.2504         45.5004
   1809677.41047   1418389.87947  22292909.8204                   22292909.4774
        47.0004         43.2504
  -1725587.39855  -1309149.95753  24378485.2814                   24378487.8714
        31.2504         22.7504
  -2292537.99746  -1743016.67542  24601268.3284                   24601273.0474
        39.5004         17.2504
   2037136.26646   1631374.23844  25069616.2734                   25069627.6844
        37.0004         27.0004
 25  7 14 23 16  0.0000000  0 10G01G02G03G10G28G31G32G25G04G26
  -3208021.57047  -2471250.86745  21574683.8984                   21574681.6174
        45.5004         33.7504
   -725639.78948   -547082.47346  21279628.4614                   21279624.1374
        48.0004         37.5004
  -4066412.67646  -3117391.41445  23115157.6954                   23115158.4224
        39.5004         33.0004
   1597124.53947   1249555.03146  22806240.8674                   22806241.9884
        43.2504         38.7504
  -1003715.50447   -762827.10546  20769651.1564                   20769648.9384
        46.0004         38.0004
  -3618555.44148  -2788329.64847  20747946.9224                   20747944.6524
        48.2504         45.5004
   1775265.13747   1391575.10247  22286361.3444                   22286361.2774
        47.2504         43.5004
  -1845501.46955  -1402589.44154  24355667.1724                   24355669.6684
        33.5004         25.2504
  -2472554.66846  -1883289.17642  24567011.5944                   24567016.9304
        40.0004         16.7504
   1851962.71146   1487083.74244  25034378.3674                   25034389.1644
        37.5004         27.0004
 25  7 14 23 16 30.0000000  0 10G01G02G03G10G28G31G32G25G04G26
  -3361934.59047  -2591183.04745  21545395.1334                   21545393.1724
        44.7504         33.7504
   -815087.89848   -616782.30946  21262607.1414                   21262602.9614
        48.7504         37.5004
  -4251303.63746  -3261462.23045  23079972.7344                   23079974.5204
        40.0004         33.7504
   1561361.08247   1221687.34046  22799435.1804                   22799436.2974
        43.7504         38.5004
  -1098737.21147   -836869.98046  20751569.4454                   20751566.6294
        46.7504         38.0004
  -3782114.72748  -2915778.39847  20716822.5864                   20716820.1604
        48.5004         45.7504
   1740941.64147   1364829.50047  22279830.1094                   22279829.7344
        47.0004         43.2504
  -1964933.87555  -1495653.61754  24332940.5554                   24332941.9654
        31.2504         24.5004
  -2652438.43046  -2023458.03542  24532779.8204                   24532785.2154
        39.0004         17.2504
   1666647.80146   1342683.12544  24999113.6724                   24999124.0474
        36.2504         28.0004
 25  7 14 23 17  0.0000000  0 10G01G02G03G10G28G31G32G25G04G26
  -3515358.44547  -2710734.07845  21516199.5234                   21516197.3444
        45.7504         33.5004
   -904013.73448   -686075.18046  21245685.1094                   21245680.6914
        48.7504         37.5004
  -4436167.20346  -3405511.68745  23044794.3754                   23044796.5394
        39.0004         33.2504
   1525855.54347   1194020.63346  22792679.5864                   22792679.9964
        44.0004         38.7504
  -1193162.94947   -910448.45346  20733600.3914                   20733598.1134
        47.2504         38.5004
  -3945144.24248  -3042814.32847  20685799.3594                   20685796.2154
        48.0004         46.0004
   1706707.52747   1338153.54747  22273315.2034                   22273315.1374
        46.7504         43.0004
  -2083881.37545  -1588339.93444  24310304.3674                   24310306.9694
        32.5004         24.7504
  -2832187.52046  -2163521.97742  24498573.9454                   24498579.5944
        38.2504         16.2504
   1481195.58645   1198175.53944  24963822.7274                   24963833.5084
        34.5004         27.5004
 25  7 14 23 17 30.0000000  0 10G01G02G03G10G28G31G32G25G04G26
  -3668287.07447  -2829899.21545  21487097.8594                   21487095.9774
        44.7504         33.0004
   -992413.52748   -754958.14146  21228862.9844                   21228858.5554
        48.2504         37.2504
  -4620998.34046  -3549535.86345  23009622.8674                   23009623.7664
        37.7504         33.0004
   1490611.97347   1166558.05546  22785972.4614                   22785973.3244
        43.5004         39.0004
  -1286989.17247   -983559.78146  20715746.0634                   20715743.6884
        46.2504         37.5004
  -4107637.42648  -3169432.34847  20654877.5004                   20654874.9844
        49.0004         46.0004
   1672565.67247   1311549.48047  22266818.5704                   22266818.3794
        47.5004         43.2504
  -2202338.20755  -1680643.92254  24287763.2114                   24287765.5554
        33.0004         25.2504
  -3011797.49646  -2303477.57842  24464396.1804                   24464400.8364
        37.7504         17.2504
   1295612.55545   1053566.02744  24928507.0314                   24928517.4494
        34.0004         27.2504
 25  7 14 23 18  0.0000000  0 10G01G02G03G10G28G31G32G25G04G26
  -3820719.07047  -2948677.37145  21458091.0554                   21458089.0274
        44.7504         33.7504
  -1080288.38348   -823432.05946  21212140.8284                   21212136.6484
        48.0004         37.5004
  -4805796.44946  -3693534.31245  22974456.4774                   22974457.6954
        39.0004         32.2504
   1455629.78547   1139299.13746  22779316.1174                   22779316.7624
        42.5004         38.5004
  -1380216.96547  -1056204.80146  20698005.2504                   20698002.8714
        47.5004         38.0004
  -4269593.05148  -3295631.48847  20624058.7584                   20624055.7274
        48.7504         46.2504
   1638514.45347   1285016.04347  22260339.0314                   22260338.3164
        45.7504         43.5004
  -2320303.39855  -1772564.82454  24265315.6484                   24265317.1724
        33.0004         24.0004
  -3191268.74246  -2443325.03942  24430243.8204                   24430248.2274
        37.0004         16.7504
   1109900.65245    908856.07444  24893166.8444                   24893177.0474
        34.0004         26.7504
 25  7 14 23 18 30.0000000  0 10G01G02G03G10G28G31G32G25G04G26
  -2397225.27347  -1839461.41045  21728972.8984                   21728970.9774
        44.7504         34.0004
    407786.65248    336106.91846  21495312.4694                   21495307.8324
        48.5004         38.0004
  -3415132.15646  -2609899.73045  23239091.2504                   23239092.3594
        39.0004         32.2504
   2996332.19947   2339846.41846  23072501.3914                   23072502.2074
        42.5004         38.2504
    102578.34847     99220.13746  20980172.0704                   20980169.2814
        47.0004         38.0004
  -2855581.64547  -2193804.36347  20893136.1414                   20893133.1214
        47.7504         46.0004
   3179976.00447   2486154.89547  22553669.0234                   22553668.7664
        46.2504         43.0004
   -862349.25455   -636496.62554  24542754.7974                   24542756.8014
        33.7504         25.2504
  -1795172.83645  -1355457.85242  24695911.8674                   24695916.3834
        35.7504         16.2504
   2499490.66045   1991654.08644  25157596.7194                   25157606.7074
        32.7504         24.2504
 25  7 14 23 19  0.0000000  0 10G01G02G03G10G28G31G32G25G04G26
  -2548653.90647  -1957457.72345  21700156.7504                   21700154.9774
        45.0004         33.5004
    320965.12548    268453.77046  21478790.6644                   21478786.2234
        48.0004         37.7504
  -3599856.67246  -2753840.83645  23203938.8674                   23203940.3094
        39.5004         32.5004
   2961876.86747   2312998.05146  23065945.0784                   23065945.7774
        42.5004         38.5004
     10549.96547     27509.72746  20962659.7424                   20962657.1914
        47.0004         38.0004
  -3016451.62947  -2319157.54747  20862523.3674                   20862520.6524
        47.0004         46.2504
   3146106.91047   2459763.36747  22547224.1644                   22547223.9804
        46.2504         43.2504
   -979321.94155   -727644.12954  24520494.8984                   24520497.8554
        33.2504         25.5004
  -1974361.64545  -1495085.21142  24661813.5634                   24661817.5204
        35.0004         15.5004
   2313532.65645   1846752.35544  25122209.4614                   25122219.6564
        32.5004         25.0004
 25  7 14 23 19 30.0000000  0 10G01G02G03G10G28G31G32G25G04G26
  -2699574.98447  -2075058.54345  21671437.3674                   21671435.4454
        45.5004         33.2504
    234672.83248    201213.02046  21462369.7974                   21462365.8554
        48.5004         37.7504
  -3784539.81646  -2897749.69545  23168794.9224                   23168796.2504
        39.5004         33.2504
   2927687.90647   2286357.24646  23059439.2034                   23059440.2194
        43.2504         38.0004
    -80876.68047    -43731.80546  20945261.4694                   20945259.2194
        47.2504         38.0004
  -3176772.75448  -2444083.05547  20832015.1644                   20832012.4734
        48.2504         46.5004
   3112330.25447   2433443.86747  22540796.9144                   22540796.6134
        45.7504         42.7504
  -1095793.18445   -818400.87544  24498330.8834                   24498333.4454
        32.7504         25.0004
  -2153405.95745  -1634600.03942  24627740.8594                   24627745.7974
        34.5004         16.2504
   2127458.53145   1701760.12944  25086800.7274                   25086810.5474
        30.5004         25.0004
 25  7 14 23 20  0.0000000  0 10G01G02G03G10G28G31G32G25G04G26
  -2849985.08247  -2192261.19145  21642815.5554                   21642813.4614
        45.5004         33.0004
    148910.33248    134385.09046  21446050.0314                   21446045.2934
        48.7504         37.2504
  -3969178.94146  -3041624.28145  23133659.4064                   23133660.6884
        39.7504         34.2504
   2893766.78147   2259925.14546  23052984.6334                   23052984.8364
        43.0004         38.2504
   -171700.65647   -114503.72346  20927978.4774                   20927975.7544
        47.0004         37.7504
  -3336541.35948  -2568578.01647  20801612.4224                   20801609.2114
        48.5004         46.2504
   3078646.43447   2407196.70747  22534386.5554                   22534386.3714
        45.2504         42.5004
  -1211759.73455   -908764.39154  24476262.1644                   24476266.3284
        33.2504         25.7504
  -2332304.01245  -1774000.84442  24593697.9534                   24593702.7034
        34.0004         17.2504
   1941271.89554   1556680.25853  25051370.0314                   25051379.5634
        29.5004         22.0004
 25  7 14 23 20 30.0000000  0 10G01G02G03G10G28G31G32G25G04G26
  -2999884.40247  -2309065.84845  21614290.8204                   21614288.7274
        45.7504         33.7504
     63675.35548     67968.22746  21429830.2034                   21429825.7234
        48.7504         37.7504
  -4153774.99246  -3185465.30945  23098532.1954                   23098532.9964
        39.7504         33.0004
   2860111.26247   2233700.00846  23046580.2504                   23046580.3794
        43.7504         38.7504
   -261924.73847   -184808.18046  20910809.2664                   20910806.8094
        47.5004         38.0004
  -3495757.66048  -2692642.61747  20771314.6644                   20771311.5354
        48.2504         46.2504
   3045052.29747   2381019.43447  22527994.0084                   22527993.6844
        46.2504         42.2504
  -1327222.33255   -998735.21154  24454291.7274                   24454294.1334
        33.5004         26.2504
  -2511057.69545  -1913289.15642  24559682.3284                   24559686.9144
        35.0004         16.2504
   1754973.57454   1411513.31653  25015917.9064                   25015927.6214
        29.2504         23.0004
 25  7 14 23 21  0.0000000  0 10G01G02G03G10G28G31G32G25G04G26
  -3149264.05547  -2425465.56245  21585864.7344                   21585862.3404
        46.5004         33.7504
    -21025.61748      1967.46146  21413711.7584                   21413707.5904
        48.7504         37.7504
  -4338319.83646  -3329266.40645  23063413.8754                   23063414.9694
        40.0004         33.5004
   2826728.31347   2207687.25046  23040227.2814                   23040228.3554
        43.2504         38.5004
   -351542.59447   -254640.27046  20893755.5234                   20893753.2074
        47.0004         37.5004
  -3654412.77348  -2816269.93047  20741123.1334                   20741120.1174
        48.0004         46.5004
   3011553.76647   2354916.66047  22521619.5634                   22521619.0704
        46.2504         42.0004
  -1442172.49645  -1088306.74244  24432416.2584                   24432419.5704
        33.5004         24.5004
  -2689659.77745  -2052459.36742  24525694.6724                   24525700.0044
        33.7504         16.7504
   1568572.96144   1266266.69543  24980447.5164                   24980456.1684
        28.5004         22.7504
 25  7 14 23 21 30.0000000  0 10G01G02G03G10G28G31G32G25G04G26
  -3298121.77047  -2541458.56645  21557538.0234                   21557535.9654
        46.2504         32.7504
   -105192.64148    -63617.25046  21397695.5704                   21397691.4104
        48.5004         37.7504
  -4522811.77746  -3473026.23045  23028306.9064                   23028308.0164
        41.0004         35.5004
   2793618.38347   2181887.23046  23033926.7274                   23033927.3164
        44.2504         38.5004
   -440554.54748   -324000.22346  20876816.9614                   20876814.4414
        48.5004         38.0004
  -3812504.20348  -2939458.01247  20711039.1484                   20711036.6724
        48.5004         46.5004
   2978150.19147   2328887.87946  22515262.7734                   22515262.9104
        46.2504         41.7504
  -1556608.11745  -1177477.32844  24410640.2894                   24410643.3204
        32.5004         25.0004
  -2868109.80545  -2191511.07442  24491736.8524                   24491741.9534
        33.5004         17.2504
                                  24944954.4304                   24944965.7774
        28.5004         22.7504
 25  7 14 23 22  0.0000000  0 10G01G02G03G10G28G31G32G25G04G26
  -3446457.35247  -2657044.71545  21529310.7114                   21529308.4384
        46.2504         33.5004
