     2.11           OBSERVATION DATA    G (GPS)             RINEX VERSION / TYPE
teqc  2019Feb25                         20250821 07:18:14UTCPGM / RUN BY / DATE
Linux 2.6.32-573.12.1.x86_64|x86_64|gcc -static|Linux 64|=+ COMMENT
BIT 2 OF LLI FLAGS DATA COLLECTED UNDER A/S CONDITION       COMMENT
04223561                                                    MARKER NAME
0422                                                        MARKER NUMBER
-Unknown-           -Unknown-                               OBSERVER / AGENCY
0220340422          TRIMBLE 5700        2.32                REC # / TYPE / VERS
-Unknown-           TRM41249.00     NONE                    ANT # / TYPE
 -2421503.7332 -4592703.4795  3693450.9905                  APPROX POSITION XYZ
        0.0000        0.0000        0.0000                  ANTENNA: DELTA H/E/N
     1     1                                                WAVELENGTH FACT L1/2
     7    L1    L2    C1    P1    P2    S1    S2            # / TYPES OF OBSERV
    18                                                      LEAP SECONDS
 SNR is mapped to RINEX snr flag value [0-9]                COMMENT
  L1 & L2: min(max(int(snr_dBHz/6), 0), 9)                  COMMENT
  2005    12    22    18    54   30.0000000     GPS         TIME OF FIRST OBS
                                                            END OF HEADER
 05 12 22 18 54 30.0000000  0  6G10G23G27G32G08G02
     -4292.57058     -2769.42258  21029123.1644                   21029125.0824
        50.0004         50.0004
     75052.69157     51242.83255  21905104.4774                   21905105.1374
        45.5004         32.0004
     52979.52357     32784.74657  21671856.6564                   21671859.6054
        46.0004         45.0004
    -74158.71958    -45495.13758  20798440.0234                   20798441.8524
        51.5004         51.0004
    -31764.75057    -19570.95356  22590322.9144                   22590326.6994
        43.5004         36.7504
   -152491.03956    -80790.92253  24730852.7344                   24730854.4844
        38.5004         20.2504
 05 12 22 18 55  0.0000000  0  8G18G10G24G23G27G32G08G02
     93026.79757     60943.23455  22663928.4144                   22663927.6994
        43.0004         31.0004
     -7057.30548     -4923.78148  21028597.1884                   21028598.8554
        48.7504         49.7504
     23819.96156     14021.79355  23244182.5314                   23244186.0474
        39.0004         32.0004
    126291.81647     91169.38345  21914855.3914                   21914855.7974
        45.7504         32.5004
     86033.70747     58541.18447  21678146.1174                   21678149.0234
        46.7504         45.0004
   -119466.39148    -80799.80548  20789818.5944                   20789820.3554
        51.5004         50.7504
    -59744.41047    -41373.31646  22584998.3834                   22585002.2234
        42.7504         38.0004
   -246919.14146   -154371.14143  24712883.7664                   24712884.9534
        36.7504         19.5004
 05 12 22 18 55 30.0000000  0  9G18G10G24G23G28G27G32G08G02
    169948.98447    120882.45344  22678566.4454                   22678568.3054
        43.2504         29.7504
     -9731.46948     -7007.56248  21028088.0554                   21028090.3444
        50.5004         50.0004
     44027.03946     29767.53145  23248027.6804                   23248031.6454
        38.2504         30.5004
    177562.15647    131120.22345  21924611.4454                   21924612.1214
        45.7504         32.5004
   -226842.12554    -79970.99253  25109043.9384                   25109054.1254
        28.7504         19.0004
    119544.36347     84653.30147  21684522.9774                   21684526.2074
        47.2504         45.5004
   -164372.28948   -115791.41048  20781272.9774                   20781275.1684
        51.7504         51.0004
    -87251.12947    -62807.14846  22579763.9224                   22579768.2894
        43.0004         38.2504
   -341410.88346   -228000.94143  24694902.0084                   24694903.7854
        38.0004         20.0004
 05 12 22 18 56  0.0000000  0  8G18G10G24G23G27G32G08G02
    247153.40247    181041.60544  22693258.0004                   22693259.8054
        43.7504         29.2504
    -12262.41448     -8979.74648  21027606.4454                   21027608.3094
        49.0004         50.0004
     64814.12546     45965.23045  23251983.2974                   23251987.4654
        38.0004         30.5004
    228916.50447    171136.54345  21934384.0084                   21934384.8834
        46.0004         32.7504
    153562.71148    111161.02347  21690996.8754                   21690999.8834
        48.0004         45.0004
   -208822.88348   -150428.23048  20772814.4844                   20772816.4694
        52.0004         51.0004
   -114231.39147    -83830.74646  22574629.5944                   22574634.2584
        43.0004         37.2504
   -435911.36746   -301637.57843  24676919.8834                   24676921.3364
        37.5004         19.5004
 05 12 22 18 56 30.0000000  0  8G18G10G24G23G27G32G08G02
    324662.27747    241438.00444  22708007.6644                   22708009.3204
        43.5004         28.0004
    -14627.27348    -10822.50048  21027156.5004                   21027158.0124
        51.0004         50.0004
     86203.93446     62632.59044  23256054.5634                   23256057.6564
        38.0004         29.7504
    280377.69947    211236.12945  21944177.2034                   21944177.4384
        46.2504         32.2504
    188110.10547    138080.98847  21697571.0864                   21697573.8524
        47.2504         45.5004
   -252794.57048   -184691.86748  20764446.8444                   20764448.6454
        51.5004         51.0004
   -140661.56647   -104425.71146  22569600.2344                   22569604.1954
        42.5004         37.5004
   -530396.33246   -375262.10243  24658939.6334                   24658940.8364
        38.5004         20.5004
 05 12 22 18 57  0.0000000  0  8G18G10G24G23G27G32G08G02
    402484.52347    302078.57844  22722816.8364                   22722818.9144
        44.5004         28.5004
    -16816.55548    -12528.44548  21026739.8834                   21026741.7274
        49.0004         50.0004
    108205.85246     79776.90645  23260240.8284                   23260244.8554
        37.5004         30.0004
    331955.34847    251426.44945  21953991.7504                   21953992.2384
        45.5004         32.7504
    223194.44947    165419.35947  21704247.5704                   21704250.1804
        47.0004         45.0004
   -296277.05948   -218574.31648  20756172.4844                   20756174.7114
        52.0004         51.2504
   -166531.40647   -124584.03546  22564677.9924                   22564681.5864
        43.2504         37.0004
   -624854.30546   -448865.60943  24640964.9454                   24640966.4384
        38.5004         20.0004
 05 12 22 18 57 30.0000000  0  9G18G10G24G23G28G27G32G08G02
    480628.02746    362969.48443  22737686.9774                   22737688.8874
        38.2504         18.5004
    -18821.81247    -14090.97346  21026357.9304                   21026360.1914
        45.5004         38.2504
    130828.25845     97404.73443  23264545.1564                   23264549.1174
        35.5004         22.7504
    383657.89547    291714.09444  21963830.6094                   21963831.2234
        42.5004         25.2504
    -95250.90215                  25030680.773
        33.000
    258822.79747    193181.62545  21711026.6884                   21711029.4614
        42.0004         32.0004
   -339261.08247   -252068.33646  20747992.2504                   20747994.0984
        46.7504         38.2504
   -191831.61346   -144298.52045  22559862.7814                   22559866.5904
        39.5004         30.5004
   -719274.934 5                  24622996.891
        32.000
 05 12 22 18 58  0.0000000  0  9G18G10G24G23G28G27G32G08G02
    559086.80947    424106.07044  22752617.1954                   22752619.6254
        43.0004         28.5004
    -20648.13748    -15514.10948  21026010.8204                   21026013.0124
        51.2504         50.2504
                                  23268966.4224                   23268971.9844
        36.0004         29.2504
    435480.39547    332095.21545  21973692.4454                   21973692.6134
        44.7504         31.0004
   -198461.64555   -133975.69953  25011041.5784                   25011050.9574
        35.0004         21.7504
    294988.26647    221362.43047  21717910.0474                   21717912.0784
        47.2504         44.7504
   -381751.12948   -285177.46948  20739907.1024                   20739909.0354
        51.0004         51.2504
   -216566.82847   -163572.71946  22555156.1484                   22555160.0514
        43.5004         37.5004
   -813661.56646   -570978.91853  24605035.5554                   24605035.7464
        37.5004         20.7504
 05 12 22 18 58 30.0000000  0  9G18G10G24G23G28G27G32G08G02
    637853.57047    485482.64144  22767606.6254                   22767608.5984
        43.0004         29.2504
    -22302.48448    -16803.21548  21025696.4614                   21025697.9844
        50.0004         50.2504
    177911.66046    134093.03945  23273504.4304                   23273509.2114
        37.5004         31.2504
    487415.94947    372564.41045  21983574.5314                   21983575.4344
        44.5004         32.7504
   -301778.95346   -214482.39843  24991380.5864                   24991389.7504
        38.7504         20.2504
    331682.48447    249955.25047  21724892.2814                   21724894.8954
        47.0004         45.0004
   -423753.25848   -317906.37948  20731914.7274                   20731916.1524
        51.0004         51.0004
   -240742.94147   -182411.26246  22550555.7584                   22550559.5124
        43.2504         37.2504
   -908019.12146   -644504.14143  24587079.4454                   24587081.0514
        37.0004         20.5004
 05 12 22 18 59  0.0000000  0  9G18G10G24G23G28G27G32G08G02
    716927.04747    547098.18444  22782653.4534                   22782656.4844
        42.5004         28.7504
    -23785.39148    -17958.73848  21025413.9304                   21025415.4924
        51.0004         50.2504
    202364.70746    153147.35545  23278158.4614                   23278162.4614
        37.0004         31.2504
    539464.10547    413121.35945  21993479.7274                   21993479.8984
        44.5004         32.5004
   -405200.07046   -295070.00843  24971700.5084                   24971710.1094
        37.5004         20.5004
    368903.27347    278958.38347  21731975.1484                   21731978.1564
        47.0004         44.7504
   -465267.36748   -350255.03148  20724014.3834                   20724016.3054
        51.2504         51.0004
   -264360.03147   -200814.20346  22546061.1804                   22546065.0744
        43.0004         37.5004
  -1002346.18046   -718005.65643  24569130.5864                   24569131.0664
        38.0004         20.5004
 05 12 22 18 59 30.0000000  0  9G18G10G24G23G28G27G32G08G02
    796300.95347    608947.84044  22797757.9774                   22797760.3554
        43.0004         29.2504
    -25102.37948    -18984.96548  21025163.4064                   21025165.3834
        49.2504         50.0004
    227419.34046    172670.39145  23282926.6724                   23282930.9804
        38.0004         31.5004
    591619.36747    453761.77045  22003404.3984                   22003405.0474
        43.5004         31.5004
   -508727.58646   -375740.53943  24951999.2274                   24952008.9024
        38.2504         18.2504
    406643.41047    308366.20747  21739156.9224                   21739160.0594
        47.2504         44.0004
   -506298.35248   -382227.21548  20716206.4924                   20716208.3164
        51.0004         51.2504
   -287422.96947   -218785.34846  22541672.3054                   22541676.2704
        43.0004         37.7504
  -1096646.76246   -791486.51643  24551184.8914                   24551186.6294
        37.7504         21.0004
 05 12 22 19  0  0.0000000  0  9G18G10G24G23G28G27G32G08G02
    875973.19547    671029.97344  22812918.9614                   22812921.5274
        43.0004         29.2504
    -26254.86348    -19883.02348  21024943.9534                   21024945.8524
        50.7504         50.0004
    253073.79346    192660.83845  23287808.0554                   23287812.5164
        38.2504         31.2504
    643880.42247    494484.62545  22013349.3834                   22013349.8954
        43.5004         32.0004
   -612360.01646   -456492.87943  24932278.6414                   24932288.3524
        38.0004         19.2504
    444899.82447    338176.31647  21746436.6174                   21746439.3554
        47.5004         44.2504
   -546846.94148   -413823.50048  20708490.4614                   20708492.8524
        51.0004         51.2504
   -309932.53547   -236325.28546  22537389.0944                   22537393.0824
        43.0004         37.0004
  -1190920.23046   -864946.27743  24533245.1414                   24533246.5704
        38.7504         21.2504
 05 12 22 19  0 30.0000000  0  9G18G10G24G23G28G27G32G08G02
    955940.05947    733341.65244  22828135.9844                   22828138.9344
        42.2504         28.7504
    -27245.97748    -20655.32448  21024755.2114                   21024757.2814
        50.5004         50.0004
    279324.72746    213116.07845  23292803.5084                   23292807.6844
        37.0004         31.7504
    696244.19547    535287.51245  22023313.9224                   22023314.8364
        43.5004         32.5004
   -716097.53146   -537327.03542  24912537.7424                   24912547.5514
        37.5004         17.2504
    483667.71147    368384.98447  21753813.9924                   21753816.9964
        47.0004         44.0004
   -586915.66048   -445045.86348  20700865.6804                   20700867.2384
        51.0004         51.5004
   -331891.27347   -253436.00046  22533211.2664                   22533214.4024
        43.0004         37.2504
  -1285167.82446   -938385.82043  24515310.7584                   24515311.6884
        37.5004         21.5004
 05 12 22 19  1  0.0000000  0  9G18G10G24G23G28G27G32G08G02
   1036195.14847    795877.93044  22843408.4694                   22843411.2034
        42.2504         29.0004
    -28081.22348    -21306.17648  21024596.6484                   21024598.4614
        51.0004         50.0004
    306166.14846    234031.44545  23297912.3284                   23297915.8444
        37.7504         32.0004
    748705.25447    576166.21145  22033296.6174                   22033297.4454
        43.7504         32.5004
   -819942.77346   -618245.15642  24892776.2344                   24892786.4614
        37.0004         16.2504
    522939.83247    398986.55947  21761287.7504                   21761290.5204
        46.7504         44.0004
   -626509.40248   -475898.12548  20693330.9844                   20693333.1844
        50.7504         51.5004
   -353304.12147   -270121.35546  22529136.2034                   22529140.0394
        43.5004         37.7504
  -1379393.29746  -1011808.18743  24497379.3674                   24497380.9064
        38.0004         21.0004
 05 12 22 19  1 30.0000000  0  9G18G10G24G23G28G27G32G08G02
   1116734.66446    858635.84044  22858735.3754                   22858737.5944
        41.7504         28.5004
    -28763.78548    -21838.04748  21024467.0004                   21024468.1174
        50.0004         50.0004
    333594.61746    255404.23845  23303130.8834                   23303135.2384
        38.5004         32.0004
    801260.48447    617118.27345  22043298.1334                   22043298.9654
        44.5004         31.7504
   -923896.02345   -699247.36342  24872994.1174                   24873004.3054
        35.7504         17.2504
    562711.28147    429977.22347  21768855.7034                   21768858.6764
        47.5004         43.7504
   -665630.77048   -506382.29348  20685886.5394                   20685888.4304
        50.7504         51.5004
   -374173.76647   -286383.43046  22525164.7424                   22525168.6094
        43.2504         37.0004
  -1473597.77346  -1085214.17643  24479453.6334                   24479454.1454
        37.7504         22.0004
 05 12 22 19  2  0.0000000  0  9G18G10G24G23G28G27G32G08G02
   1197557.31647    921614.37544  22874115.0474                   22874117.9384
        42.0004         27.0004
    -29294.13348    -22251.32048  21024365.6954                   21024367.2854
        49.7504         50.0004
    361609.22746    277233.79745  23308461.5944                   23308466.1954
        38.2504         31.0004
    853909.53547    658143.44945  22053316.9694                   22053317.5514
        43.7504         32.0004
  -1027954.77346   -780331.76642  24853192.6954                   24853202.5274
        36.2504         17.7504
    602979.82047    461355.23847  21776518.9304                   21776522.0004
        47.0004         44.0004
   -704279.68448   -536498.30948  20678531.8364                   20678533.9534
        51.5004         51.5004
   -394500.16047   -302222.19146  22521296.5084                   22521300.6484
        43.5004         37.5004
  -1567779.80546  -1158602.63343  24461530.8914                   24461532.0084
        37.2504         20.7504
 05 12 22 19  2 30.0000000  0  9G18G10G24G23G28G27G32G08G02
   1278658.21946    984809.71544  22889548.2664                   22889551.2664
        41.0004         28.5004
    -29676.34848    -22549.15648  21024292.8674                   21024294.4774
        50.5004         50.0004
    390205.34846    299516.45745  23313903.6484                   23313908.0984
        38.7504         31.5004
    906648.27747    699238.51645  22063352.5944                   22063353.5944
        43.5004         31.5004
  -1132120.36746   -861499.43043  24833369.7664                   24833379.7974
        38.2504         18.5004
    643739.49247    493115.94547  21784275.0004                   21784277.9734
        47.2504         44.0004
   -742459.73048   -566248.98848  20671266.4224                   20671268.3484
        51.2504         51.5004
   -414287.00847   -317640.53146  22517531.4614                   22517535.4694
        43.7504         38.0004
  -1661941.62946  -1231975.37943  24443612.3054                   24443613.4304
        37.2504         20.7504
 05 12 22 19  3  0.0000000  0  9G18G10G24G23G28G27G32G08G02
   1360039.59446   1048223.60944  22905034.5084                   22905037.1884
        40.7504         27.7504
    -29907.48048    -22729.27048  21024248.9924                   21024250.7114
        50.0004         49.7504
    419385.49646    322254.20745  23319456.3984                   23319460.3674
        39.0004         31.7504
    959479.75447    740405.84045  22073406.5554                   22073406.8794
        43.7504         32.0004
  -1236386.79346   -942745.68043  24813529.4694                   24813538.0394
        40.5004         21.5004
    684991.45747    525260.25847  21792125.0234                   21792128.1294
        46.5004         44.0004
   -780167.46948   -595631.62948  20664090.9304                   20664092.8244
        51.0004         51.5004
   -433530.85247   -332635.74646  22513868.9064                   22513873.2384
        43.2504         38.0004
  -1756078.64546  -1305328.76643  24425699.0634                   24425699.4734
        38.2504         22.0004
 05 12 22 19  3 30.0000000  0  9G18G10G24G23G28G27G32G08G02
   1441703.00046   1111857.27344  22920574.6804                   22920577.5124
        40.2504         27.5004
    -29985.07048    -22789.73448  21024234.0474                   21024235.9494
        51.0004         49.7504
    449151.61746    345448.56345  23325120.8444                   23325125.0314
        39.7504         32.5004
   1012406.56347    781647.43845  22083476.8674                   22083478.9774
        43.5004         31.2504
  -1340748.78546  -1024066.38743  24793668.8984                   24793677.7774
        40.2504         21.5004
    726736.33247    557788.65647  21800068.7274                   21800071.9654
        47.0004         44.0004
   -817399.95748   -624643.94148  20657005.8364                   20657007.9304
        50.5004         51.5004
   -452228.93747   -347205.69946  22510310.3914                   22510315.3094
        43.5004         37.7504
  -1850186.42646  -1378659.38343  24407790.0554                   24407791.3364
        37.7504         21.5004
 05 12 22 19  4  0.0000000  0  9G18G10G24G23G28G27G32G08G02
   1523637.96946   1175702.54744  22936166.4924                   22936169.4264
        40.5004         28.0004
    -29918.83248    -22738.13748  21024246.5394                   21024248.5514
        51.0004         49.7504
    479493.48846    369091.55545  23330894.7814                   23330898.7854
        40.0004         32.7504
   1065419.00047    822955.77745  22093565.7114                   22093566.4454
        43.7504         30.7504
  -1445213.04346  -1105466.79743  24773789.8134                   24773798.7304
        39.5004         21.0004
    768962.54347    590692.12547  21808105.0164                   21808107.4774
        46.5004         44.0004
   -854166.44948   -653293.13748  20650009.4454                   20650011.5354
        50.5004         51.5004
   -470390.51247   -361357.57846  22506854.9224                   22506858.9224
        43.7504         37.2504
  -1944272.69146  -1451973.24243  24389886.6174                   24389887.3284
        38.0004         22.5004
 05 12 22 19  4 30.0000000  0  9G18G10G24G23G28G27G32G08G02
   1605843.60246   1239758.70744  22951809.5944                   22951812.7504
        40.5004         27.5004
    -29708.79348    -22574.48848  21024286.7344                   21024288.5514
        51.2504         49.7504
    510410.48446    393182.69945  23336778.1174                   23336781.8484
        38.2504         32.5004
   1118517.15647    864330.90645  22103670.4064                   22103670.5554
        44.2504         31.0004
  -1549776.79346  -1186944.76243  24753891.9144                   24753899.9144
        40.5004         21.0004
    811668.16847    623969.15647  21816231.0704                   21816233.9184
        46.5004         44.2504
   -890466.52048   -681578.89148  20643101.6954                   20643103.3204
        50.5004         51.5004
   -488015.28147   -375091.19946  22503501.4304                   22503505.1914
        43.5004         37.5004
  -2038335.63346  -1525268.92643  24371986.4454                   24371987.3484
        38.2504         22.0004
 05 12 22 19  5  0.0000000  0  9G18G10G24G23G28G27G32G08G02
   1688313.32446   1304020.69144  22967503.7274                   22967506.5434
        41.2504         27.5004
    -29360.76248    -22303.30948  21024352.8444                   21024354.4414
        51.0004         49.7504
    541896.20346    417717.00445  23342769.2034                   23342773.8054
        39.5004         31.7504
   1171695.26247    905768.34445  22113789.5634                   22113790.1804
        43.5004         30.5004
  -1654442.84446  -1268502.46143  24733974.5164                   24733982.3134
        39.0004         19.0004
    854845.49647    657613.75847  21824447.3754                   21824450.2384
        47.0004         44.2504
   -926305.62148   -709505.45348  20636281.6414                   20636283.0704
        50.7504         51.5004
   -505108.80547   -388410.87946  22500248.9224                   22500252.4844
        44.0004         37.7504
  -2132379.08646  -1598549.39543  24354090.9534                   24354091.0744
        37.5004         22.0004
 05 12 22 19  5 30.0000000  0  9G18G10G24G23G28G27G32G08G02
   1771043.87547   1368485.89844  22983246.5394                   22983249.5044
        42.0004         27.7504
    -28877.00048    -21926.36348  21024445.0704                   21024446.7384
        51.0004         49.7504
    573947.67246    442692.16045  23348868.3834                   23348872.8014
        39.0004         32.5004
   1224951.07047    947266.30945  22123923.8674                   22123924.6914
        42.5004         31.0004
  -1759210.60246  -1350139.41442  24714038.1254                   24714046.0234
        38.5004         17.2504
    898490.25847    691622.58247  21832752.9064                   21832755.9384
        47.2504         44.2504
   -961685.59048   -737074.23848  20629549.1564                   20629550.8484
        50.7504         51.5004
   -521672.85947   -401317.91046  22497096.1024                   22497100.1454
        43.2504         38.0004
  -2226403.69146  -1671815.20743  24336197.8134                   24336198.8594
        37.2504         22.5004
 05 12 22 19  6  0.0000000  0  9G18G10G24G23G28G27G32G08G02
   1854029.68847   1433150.00844  22999038.5164                   22999041.5124
        42.0004         27.2504
    -28262.20748    -21447.31648  21024562.1254                   21024563.7774
        50.5004         49.7504
    606559.53546    468103.99245  23355074.4224                   23355078.6054
        39.0004         32.5004
   1278280.01247    988821.27345  22134071.9774                   22134073.2114
        42.7504         30.7504
  -1864081.79746  -1431856.93442  24694080.8204                   24694090.3364
        37.7504         15.5004
    942595.83647    725990.48847  21841145.9064                   21841148.8554
        47.2504         44.2504
   -996610.83248   -764288.69548  20622902.9224                   20622904.6564
        51.0004         51.5004
   -537712.14147   -413816.06246  22494044.4774                   22494048.1994
        43.7504         37.5004
  -2320412.08246  -1745068.34443  24318308.4454                   24318309.5044
        37.7504         21.7504
 05 12 22 19  6 30.0000000  0  9G18G10G24G23G28G27G32G08G02
   1937271.50447   1498013.59844  23014879.6174                   23014881.8524
        42.0004         27.5004
    -27514.77348    -20864.90248  21024703.9694                   21024705.7504
        50.5004         50.0004
    639732.73846    493953.22345  23361387.0784                   23361391.2814
        39.2504         32.5004
   1331683.75047   1030434.50845  22144234.3054                   22144235.1254
        42.5004         31.0004
  -1969051.93746  -1513651.53942  24674105.7664                   24674115.1374
        36.2504         16.2504
    987161.84447    760717.17647  21849626.4614                   21849629.5514
        47.5004         44.2504
  -1031079.35548   -791147.27048  20616344.0004                   20616345.8754
        50.5004         51.5004
   -553224.69947   -425903.78946  22491092.4064                   22491096.2074
        44.5004         38.5004
  -2414400.73046  -1818306.12543  24300423.3594                   24300424.2664
        38.0004         20.5004
 05 12 22 19  7  0.0000000  0  9G18G10G24G23G28G27G32G08G02
   2020763.55547   1563072.19544  23030767.3834                   23030770.2154
        42.0004         27.5004
    -26639.55148    -20182.92648  21024870.9304                   21024872.5634
        50.2504         49.7504
    673461.66046    520235.50045  23367805.6024                   23367809.8874
        38.5004         33.0004
   1385157.46147   1072102.27745  22154410.4144                   22154410.9734
        43.0004         30.2504
  -2074122.87946  -1595524.68442  24654110.9614                   24654120.3714
        36.5004         16.7504
   1032181.42647    795797.28147  21858193.8364                   21858196.8674
        46.5004         44.2504
  -1065095.73048   -817653.52048  20609870.7424                   20609872.5434
        50.2504         51.5004
   -568215.21147   -437584.73446  22488239.7814                   22488243.6214
        44.2504         38.2504
  -2508372.71546  -1891530.90643  24282541.3284                   24282541.4614
        37.7504         22.0004
 05 12 22 19  7 30.0000000  0  9G18G10G24G23G28G27G32G08G02
   2104503.88747   1628324.23444  23046703.1884                   23046705.3984
        43.0004         27.0004
    -25637.55148    -19402.15248  21025061.5864                   21025063.7664
        50.2504         49.7504
    707744.56646    546949.42245  23374329.5474                   23374333.4064
        38.2504         32.0004
   1438700.24247   1113823.86745  22164599.1094                   22164599.7854
        44.2504         30.2504
  -2179292.69946  -1677474.83642  24634097.4614                   24634106.6094
        36.0004         16.7504
   1077651.56647    831228.48447  21866846.5554                   21866849.9534
        46.7504         44.2504
  -1098660.61748   -843807.96148  20603483.4534                   20603485.0784
        50.5004         51.5004
   -582684.51647   -448859.53546  22485486.5784                   22485490.3794
        44.5004         38.2504
  -2602326.99246  -1964741.88343  24264661.4694                   24264662.8054
        38.0004         22.2504
 05 12 22 19  8  0.0000000  0  9G18G10G24G23G28G27G32G08G02
   2188489.10547   1693767.09844  23062684.6254                   23062687.7544
        42.0004         27.2504
    -24511.18048    -18524.46948  21025276.0004                   21025277.8284
        50.2504         49.7504
    742578.14146    574092.45745  23380957.7424                   23380962.3554
        39.5004         32.0004
   1492309.65647   1155597.37945  22174800.8134                   22174801.4224
        43.7504         30.2504
  -2284560.97346  -1759501.71542  24614065.0164                   24614073.5744
        36.5004         17.7504
   1123567.67647    867007.19947  21875584.0164                   21875586.7624
        46.7504         44.0004
  -1131776.32848   -869612.39548  20597181.7664                   20597183.5234
        51.0004         51.5004
   -596634.96547   -459730.03946  22482831.5554                   22482835.5314
        43.7504         38.0004
  -2696264.32046  -2037939.64843  24246786.1174                   24246786.8484
        38.5004         22.2504
 05 12 22 19  8 30.0000000  0  9G18G10G24G23G28G27G32G08G02
   2272716.63347   1759398.78144  23078712.6414                   23078715.5744
        42.0004         27.0004
    -23262.09448    -17551.16848  21025513.5164                   21025515.6524
        50.5004         49.7504
    777960.00046    601662.71145  23387691.1334                   23387695.2664
        38.7504         33.5004
   1545984.25847   1197421.68445  22185014.9224                   22185015.3164
        43.2504         30.0004
  -2389926.34046  -1841604.18743  24594014.6254                   24594022.5474
        36.5004         19.5004
   1169926.16447    903130.61747  21884405.7424                   21884408.5634
        46.2504         44.0004
  -1164444.11748   -895067.79748  20590965.1334                   20590967.2814
        50.0004         51.7504
   -610068.00447   -470197.37546  22480276.0554                   22480279.5274
        44.0004         38.5004
  -2790184.12946  -2111123.81243  24228913.1414                   24228914.0904
        39.5004         21.7504
 05 12 22 19  9  0.0000000  0  9G18G10G24G23G28G27G32G08G02
   2357181.34047   1825215.27044  23094785.7114                   23094788.8324
        42.0004         27.5004
    -21894.37548    -16485.41848  21025773.9304                   21025775.3834
        50.0004         50.0004
    813885.10546    629656.28145  23394528.4224                   23394531.7424
        39.5004         32.5004
   1599719.87947   1239293.52744  22195240.3204                   22195241.3794
        43.5004         29.5004
  -2495390.05145  -1923783.32843  24573944.4924                   24573953.2854
        35.0004         18.2504
   1216720.69547    939593.80947  21893310.6724                   21893313.5044
        46.5004         44.0004
  -1196667.99648   -920177.29348  20584833.5234                   20584834.8094
        50.2504         51.7504
   -622987.73047   -480264.71146  22477817.1174                   22477820.7774
        43.5004         39.0004
  -2884089.07046  -2184296.36743  24211044.3054                   24211044.6214
        39.0004         22.0004
 05 12 22 19  9 30.0000000  0  9G18G10G24G23G28G27G32G08G02
   2441880.84046   1891214.70344  23110903.5704                   23110906.7774
        41.7504         27.0004
    -20409.47348    -15328.35948  21026056.6254                   21026058.4654
        49.0004         50.0004
    850351.16846    658071.37145  23401466.7274                   23401470.4104
        40.0004         32.7504
   1653515.23047   1281211.92645  22205477.2504                   22205478.6174
        43.5004         30.5004
  -2600950.59845  -2006037.91043  24553857.5944                   24553865.3914
        34.5004         18.5004
   1263947.78947    976394.05947  21902297.9224                   21902300.9024
        46.5004         44.0004
  -1228449.16048   -944941.82048  20578785.6884                   20578787.8014
        50.5004         51.7504
   -635395.51647   -489933.12946  22475456.1174                   22475459.9414
        44.0004         38.5004
  -2977978.26546  -2257456.66143  24193177.4694                   24193177.8834
        38.2504         22.2504
 05 12 22 19 10  0.0000000  0  9G18G10G24G23G28G27G32G08G02
   2526811.33646   1957394.14144  23127065.7274                   23127068.6094
        41.5004         26.2504
    -18810.18748    -14082.18048  21026360.4534                   21026362.4924
        49.0004         49.7504
    887354.49646    686905.11745  23408508.6564                   23408512.6134
        39.2504         32.5004
   1707367.54747   1323174.69145  22215725.1724                   22215725.5944
        44.0004         31.2504
  -2706607.71946  -2088367.74243  24533750.9844                   24533758.7074
        37.0004         18.5004
   1311602.54747   1013527.55547  21911365.9614                   21911369.1644
        46.7504         43.7504
  -1259790.22348   -969363.40248  20572821.4304                   20572822.9574
        50.0004         51.7504
   -647294.07047   -499204.75846  22473191.3984                   22473195.3364
        43.7504         37.7504
  -3071852.64846  -2330605.39843  24175313.8054                   24175314.3984
        38.5004         22.5004
 05 12 22 19 10 30.0000000  0  9G18G10G24G23G28G27G32G08G02
   2611971.97346   2023752.89544  23143271.4144                   23143274.1684
        41.2504         25.2504
    -17096.30948    -12746.69548  21026687.0004                   21026689.0744
        48.5004         49.7504
    924894.25046    716156.83645  23415651.4534                   23415655.8134
        39.0004         32.5004
   1761277.09047   1365182.07045  22225983.7974                   22225984.5744
        44.5004         30.0004
  -2812358.45746  -2170770.52743  24513627.1094                   24513634.8954
        38.2504         20.0004
   1359682.89547   1050992.67647  21920515.3834                   21920518.8014
        46.7504         44.0004
  -1290690.89848   -993441.83648  20566941.4304                   20566942.7974
        49.7504         51.7504
   -658683.35547   -508079.54346  22471024.7664                   22471028.3134
        44.0004         38.0004
  -3165710.19946  -2403741.01243  24157452.7274                   24157453.5664
        38.0004         22.5004
 05 12 22 19 11  0.0000000  0  9G18G10G24G23G28G27G32G08G02
   2697363.27046   2090291.38344  23159520.8984                   23159523.9774
        41.0004         26.2504
    -15266.20748    -11320.65248  21027035.1804                   21027037.0164
        48.7504         49.7504
    962971.11346    745827.10545  23422896.9064                   23422901.7974
        39.5004         32.7504
   1815245.42647   1407235.24644  22236253.5164                   22236254.6914
        44.7504         29.0004
  -2918198.13346  -2253242.65243  24493486.7114                   24493494.2074
        39.5004         21.0004
   1408188.30947   1088789.00847  21929745.9454                   21929748.8444
        46.7504         44.0004
  -1321149.43448  -1017175.74648  20561145.1254                   20561146.7974
        49.5004         52.0004
   -669561.67647   -516556.19146  22468954.2274                   22468958.1644
        43.7504         38.5004
  -3259547.45746  -2476860.82043  24139596.2344                   24139596.8204
        37.5004         21.5004
 05 12 22 19 11 30.0000000  0  9G18G10G24G23G28G27G32G08G02
   2782982.29346   2157007.31644  23175813.4304                   23175817.3524
        40.7504         25.5004
    -13321.89548     -9805.61748  21027405.1174                   21027406.7304
        48.0004         49.5004
   1001582.05146    775913.51645  23430245.1334                   23430249.2504
        40.2504         33.2504
   1869270.75447   1449332.82445  22246534.4454                   22246535.1414
        44.5004         31.0004
  -3024125.89146  -2335783.37943  24473329.0784                   24473335.9224
        39.2504         21.5004
   1457114.55947   1126913.27347  21939056.5314                   21939060.0124
        46.2504         43.5004
  -1351167.74248  -1040566.61348  20555432.7424                   20555434.6174
        49.5004         52.0004
   -679931.18047   -524636.35246  22466981.0164                   22466985.5704
        43.2504         38.2504
  -3353364.46546  -2549964.87143  24121742.8914                   24121743.8134
        37.5004         22.0004
 05 12 22 19 12  0.0000000  0  9G18G10G24G23G28G27G32G08G02
   2868825.12546   2223897.62144  23192149.3284                   23192152.6804
        39.7504         24.7504
    -11266.09048     -8203.69948  21027796.1954                   21027798.2854
        49.2504         49.7504
   1040723.29346    806413.15645  23437693.5084                   23437697.8634
        39.7504         33.2504
   1923350.31347   1491472.67645  22256825.7504                   22256826.1054
        44.0004         30.0004
  -3130141.51246  -2418392.60543  24453154.4144                   24453162.0274
        39.2504         22.0004
   1506456.69547   1165361.60947  21948445.8284                   21948449.3954
        46.5004         43.2504
  -1380748.48848  -1063616.53148  20549804.0084                   20549805.5984
        51.2504         52.0004
   -689794.67647   -532322.22346  22465103.8674                   22465107.9064
        43.5004         38.5004
  -3447162.13746  -2623053.84043  24103894.2034                   24103895.0474
        38.7504         22.2504
 05 12 22 19 12 30.0000000  0  9G18G10G24G23G28G27G32G08G02
   2954886.09046   2290957.90644  23208526.2814                   23208529.4694
        41.0004         25.7504
     -9103.41448     -6518.50848  21028207.7034                   21028209.8014
        49.0004         49.7504
   1080389.12546    837321.55945  23445241.9694                   23445246.1764
        39.5004         33.2504
   1977479.63747   1533651.30945  22267125.5704                   22267126.7274
        43.2504         30.2504
  -3236246.66846  -2501071.58243  24432962.9384                   24432970.0434
        38.7504         20.5004
   1556207.78147   1204128.60547  21957912.7034                   21957916.4304
        46.0004         43.5004
  -1409896.28148  -1086329.08248  20544257.5084                   20544259.0004
        51.2504         52.0004
   -699156.93447   -539617.52346  22463322.4534                   22463326.8014
        43.0004         38.7504
  -3540943.19146  -2696129.84443  24086048.2504                   24086048.8444
        39.5004         22.7504
 05 12 22 19 13  0.0000000  0  9G18G10G24G23G28G27G32G08G02
   3041164.95746   2358188.00844  23224944.7504                   23224947.9184
        40.7504         26.0004
     -6832.99248     -4749.35548  21028639.7114                   21028641.6174
        50.0004         49.5004
   1120579.34446    868638.57845  23452889.0944                   23452893.6914
        39.0004         33.0004
   2031659.59847   1575869.38345  22277435.8834                   22277437.1024
        44.0004         30.2504
  -3342437.49246  -2583817.29743  24412755.3134                   24412762.3794
        39.2504         21.5004
   1606366.51647   1243213.25047  21967458.2504                   21967461.4734
        46.0004         43.2504
  -1438610.16448  -1108703.52348  20538793.0394                   20538794.7774
        51.7504         52.0004
   -708017.24647   -546521.69146  22461636.7584                   22461639.9884
        43.5004         38.5004
  -3634704.63346  -2769190.61343  24068206.3364                   24068206.4734
        40.2504         22.7504
 05 12 22 19 13 30.0000000  0  9G18G10G24G23G28G27G32G08G02
   3127661.30946   2425587.57044  23241404.5084                   23241407.9454
        41.0004         26.2504
     -4454.08648     -2895.66448  21029092.5944                   21029094.3794
        50.7504         49.7504
   1161293.53146    900363.89145  23460637.3914                   23460642.0004
        38.7504         32.7504
   2085890.95747   1618127.51645  22287755.9694                   22287756.6214
        43.0004         30.2504
  -3448710.41446  -2666627.01243  24392531.8984                   24392538.5204
        39.7504         21.2504
   1656931.24647   1282614.25847  21977080.2734                   21977083.5784
        45.2504         43.0004
  -1466889.50048  -1130739.35948  20533411.7344                   20533413.4344
        51.5004         52.0004
   -716375.06246   -553034.31646  22460046.0554                   22460050.5514
        41.5004         38.0004
  -3728443.96546  -2842234.15643  24050368.2114                   24050367.7464
        40.0004         22.7504
 05 12 22 19 14  0.0000000  0  9G18G10G24G23G28G27G32G08G02
   3214369.53146   2493152.22744  23257904.0944                   23257907.9534
        41.2504         26.2504
     -1971.19948      -960.94948  21029565.0234                   21029566.4694
        51.0004         49.7504
   1202525.97746    932493.03945  23468483.6334                   23468487.6844
        38.2504         31.5004
   2140169.26247   1660422.23044  22298084.5234                   22298085.5904
        43.7504         29.5004
  -3555066.97346  -2749501.93443  24372292.9774                   24372299.3204
        40.7504         21.7504
   1707895.16047   1322326.30947  21986778.9844                   21986781.5944
        45.7504         42.7504
  -1494738.76648  -1152440.07448  20528112.2814                   20528113.8244
        52.0004         52.0004
   -724235.13747   -559159.08646  22458550.5234                   22458554.4574
        43.2504         38.0004
  -3822163.85946  -2915262.53543  24032533.7424                   24032533.8874
        40.5004         22.7504
 05 12 22 19 14 30.0000000  0  9G18G10G24G23G28G27G32G08G02
   3301283.40246   2560877.10244  23274444.0084                   23274447.2854
        41.0004         26.2504
       610.55548      1050.80148  21030056.1884                   21030058.3794
        50.2504         50.0004
   1244270.38346    965021.12545  23476427.0554                   23476431.6954
        38.5004         31.2504
   2194489.47347   1702749.60544  22308421.9694                   22308422.6134
        44.0004         29.5004
  -3661509.28546  -2832443.68743  24352037.4064                   24352043.8244
        41.0004         22.2504
   1759250.85947   1362343.64847  21996551.6414                   21996554.8014
        45.2504         43.0004
  -1522163.11748  -1173809.68748  20522893.3054                   20522895.2384
        52.7504         52.0004
   -731602.78147   -564900.15246  22457148.4224                   22457152.6414
        42.0004         38.5004
  -3915867.38346  -2988278.17243  24014701.9924                   24014702.0274
        40.0004         22.5004
 05 12 22 19 15  0.0000000  0  9G18G10G24G23G28G27G32G08G02
   3388407.98046   2628766.16444  23291023.1174                   23291026.7704
        40.7504         26.0004
      3297.54348      3144.55148  21030567.7424                   21030569.6214
        49.7504         50.0004
   1286531.90246    997952.12945  23484469.5554                   23484473.4614
        39.0004         32.0004
   2248857.97747   1745114.60245  22318767.7114                   22318768.6414
        44.0004         30.0004
  -3768028.12946  -2915445.04743  24331766.7034                   24331773.6884
        41.0004         21.7504
   1811002.23047   1402669.30547  22006399.5394                   22006402.6604
        45.7504         42.7504
  -1549156.36348  -1194843.37948  20517756.9774                   20517758.7504
        51.7504         52.0004
   -738471.99647   -570252.82446  22455841.5164                   22455845.8164
        43.5004         38.2504
  -4009546.43446  -3061274.72743  23996875.3444                   23996875.5634
        39.0004         22.5004
 05 12 22 19 15 30.0000000  0  9G18G10G24G23G28G27G32G08G02
   3475737.21546   2696814.71144  23307641.8984                   23307645.5704
        40.5004         27.2504
      6084.76248      5316.40648  21031098.0864                   21031099.6914
        50.5004         50.0004
   1329304.21546   1031281.16845  23492608.6954                   23492612.8674
        38.5004         31.7504
   2303269.81347   1787513.35944  22329122.2034                   22329123.3284
        43.7504         29.5004
  -3874625.53946  -2998507.71543  24311482.1174                   24311488.6414
        40.2504         21.2504
   1863141.99247   1443297.59447  22016321.1254                   22016324.4534
        45.0004         42.5004
  -1575723.53148  -1215545.05548  20512701.1334                   20512703.2424
        52.0004         52.0004
   -744848.09847   -575221.26646  22454628.0634                   22454632.1564
        43.0004         38.7504
  -4103203.91046  -3134254.49643  23979053.3834                   23979053.4574
        39.2504         22.5004
 05 12 22 19 16  0.0000000  0  9G18G10G24G23G28G27G32G08G02
   3563271.17646   2765022.79744  23324299.3364                   23324302.9774
        41.0004         25.2504
      8973.52048      7567.37548  21031647.8914                   21031649.5164
        50.0004         50.0004
   1372587.36346   1065008.25845  23500845.1094                   23500849.2304
        38.7504         31.7504
   2357726.35547   1829946.96944  22339484.2274                   22339486.1294
        43.7504         29.5004
  -3981297.23046  -3081628.22343  24291183.3054                   24291189.1134
        40.5004         22.0004
   1915668.98047   1484227.62147  22026316.9844                   22026320.3984
        45.5004         42.5004
  -1601863.46548  -1235913.82048  20507727.0394                   20507729.2464
        51.5004         52.0004
   -750730.06647   -579804.66046  22453508.9304                   22453512.7034
        42.0004         38.5004
  -4196836.61746  -3207214.94543  23961234.9924                   23961235.2384
        39.7504         22.2504
 05 12 22 19 16 30.0000000  0  9G18G10G24G23G28G27G32G08G02
   3651000.43046   2833383.03944  23340993.6564                   23340996.9184
        40.7504         26.5004
     11955.65248      9891.10948  21032215.4924                   21032217.1024
        50.0004         50.0004
   1416371.90646   1099126.05945  23509177.1954                   23509181.3714
        39.0004         31.2504
   2412219.45347   1872409.05544  22349854.1254                   22349855.6484
        43.5004         29.2504
  -4088048.37946  -3164810.62143  24270868.8444                   24270875.2034
        40.2504         21.2504
   1968572.64147   1525451.16047  22036384.1174                   22036387.6884
        44.5004         42.5004
  -1627584.45348  -1255956.14548  20502832.2274                   20502834.0904
        51.5004         52.0004
   -756126.46147   -584009.68446  22452481.9064                   22452485.7814
        42.7504         38.2504
  -4290450.73046  -3280160.90243  23943421.0864                   23943421.0944
        38.7504         22.7504
 05 12 22 19 17  0.0000000  0  9G18G10G24G23G28G27G32G08G02
   3738927.19546   2901897.18844  23357725.2114                   23357728.9384
        41.0004         26.0004
     15034.58648     12290.27048  21032801.1484                   21032803.3054
        50.0004         50.0004
   1460659.85946   1133636.11345  23517604.7814                   23517609.1454
        39.5004         31.7504
   2466752.59047   1914902.34044  22360231.9534                   22360233.0784
        43.5004         29.5004
  -4194872.74246  -3248050.12143  24250540.4844                   24250546.2774
        40.2504         19.5004
   2021853.96147   1566968.97747  22046523.2734                   22046526.8984
        45.5004         42.7504
  -1652883.28148  -1275669.50048  20498017.9224                   20498019.7854
        51.7504         52.0004
   -761034.28547   -587834.00046  22451548.3594                   22451552.0434
        42.2504         38.0004
  -4384040.94946  -3353088.26643  23925611.2814                   23925611.2034
        39.0004         22.5004
 05 12 22 19 17 30.0000000  0  9G18G10G24G23G28G27G32G08G02
   3827050.60946   2970564.58244  23374495.4534                   23374498.7774
        41.7504         26.0004
     18210.71948     14765.16448  21033406.0084                   21033407.5394
        49.5004         50.0004
   1505450.24646   1168537.68845  23526128.6564                   23526132.1954
        38.5004         31.2504
   2521326.15647   1957427.12544  22370616.6414                   22370618.2974
        43.7504         29.2504
  -4301766.90246  -3331344.02043  24230198.9614                   24230204.8404
        39.7504         19.5004
   2075510.81347   1608779.41847  22056734.0004                   22056737.4804
        44.5004         43.2504
  -1677759.80148  -1295053.78948  20493284.3674                   20493286.0314
        51.0004         52.0004
   -765453.61747   -591277.68446  22450707.3524                   22450711.3244
        43.5004         38.0004
  -4477605.16846  -3425995.35943  23907806.3834                   23907806.5084
        39.2504         22.5004
 05 12 22 19 18  0.0000000  0  9G18G10G24G23G28G27G32G08G02
   3915365.43846   3039381.10544  23391301.0554                   23391304.8324
        41.0004         26.5004
     21480.02748     17312.66848  21034027.7974                   21034029.7664
        49.0004         50.0004
   1550737.64146   1203826.53945  23534746.2344                   23534750.3054
        39.2504         31.2504
   2575936.23047   1999980.36744  22381008.5314                   22381010.0274
        43.2504         29.0004
  -4408731.88346  -3414693.08243  24209844.1564                   24209849.8014
        38.2504         18.2504
   2129536.75047   1650877.45747  22067014.6254                   22067018.1604
        45.0004         42.7504
  -1702218.16448  -1314112.24648  20488630.1024                   20488631.8094
        50.5004         52.0004
   -769388.85247   -594344.13346  22449958.5004                   22449962.4454
        43.2504         38.2504
  -4571145.55146  -3498883.86344  23890006.2274                   23890006.5234
        39.7504         24.5004
 05 12 22 19 18 30.0000000  0  9G18G10G24G23G28G27G32G08G02
   4003874.19146   3108348.74244  23408143.9064                   23408147.6024
        41.0004         24.7504
     24846.37148     19935.77748  21034668.2344                   21034670.2194
        49.2504         49.7504
   1596524.55946   1239504.62145  23543459.9224                   23543463.0904
        39.2504         31.0004
   2630586.65647   2042565.05145  22391408.3444                   22391410.0784
        43.5004         30.0004
  -4515761.00446  -3498092.21142  24189476.2974                   24189482.5824
        37.5004         17.7504
   2183933.11747   1693264.14147  22077366.1564                   22077369.7734
        44.7504         42.7504
  -1726254.82448  -1332842.09848  20484056.0314                   20484057.9804
        51.5004         52.5004
   -772836.68446   -597030.79346  22449302.3914                   22449306.3324
        41.7504         38.0004
  -4664655.91046  -3571749.00444  23872212.1254                   23872211.6094
        39.2504         24.5004
 05 12 22 19 19  0.0000000  0  9G18G10G24G23G28G27G32G08G02
   4092572.80946   3177464.32844  23425022.8524                   23425026.6414
        41.0004         24.7504
     28306.90248     22632.27348  21035326.8444                   21035328.6914
        49.2504         49.7504
   1642806.50446   1275568.44545  23552266.2894                   23552270.5474
        38.7504         30.5004
   2685274.64847   2085178.99645  22401815.3524                   22401816.8484
        43.2504         30.7504
  -4622854.11746  -3581541.09843  24169097.6644                   24169103.5124
        37.7504         18.2504
   2238694.50047   1735935.25447  22087786.7194                   22087790.5554
        45.0004         43.0004
  -1749872.89148  -1351245.77748  20479561.7584                   20479563.5314
        51.2504         52.0004
   -775800.50047   -599340.30146  22448737.9614                   22448742.4844
        43.2504         38.2504
  -4758137.73046  -3644591.91844  23854422.7114                   23854422.9104
        39.5004         24.2504
 05 12 22 19 19 30.0000000  0  9G18G10G24G23G28G27G32G08G02
   4181462.78546   3246729.02344  23441938.1024                   23441941.9144
        40.7504         25.5004
     31864.43048     25404.35548  21036003.7504                   21036006.0004
        49.2504         49.5004
   1689584.93446   1312019.14145  23561167.8524                   23561172.5314
        38.2504         31.0004
   2740003.00847   2127824.40644  22412229.8594                   22412231.2544
        43.5004         29.2504
  -4730005.41846  -3665035.39142  24148707.2974                   24148712.8284
        38.0004         17.2504
   2293821.21547   1778891.03547  22098277.3674                   22098280.9494
        45.5004         43.0004
  -1773069.84848  -1369321.31248  20475147.1564                   20475148.8404
        51.5004         52.2504
   -778277.99647   -601270.85946  22448266.9144                   22448270.7344
        42.5004         38.0004
  -4851586.01646  -3717408.68744  23836639.9614                   23836640.2114
        39.7504         25.0004
 05 12 22 19 20  0.0000000  0  9G18G10G24G23G28G27G32G08G02
   4270533.70347   3316134.69544  23458887.7584                   23458891.7034
        42.5004         25.5004
     35509.95748     28245.00848  21036697.8054                   21036699.8754
        48.7504         49.7504
   1736849.25846   1348848.44144  23570162.1334                   23570166.4494
        38.0004         29.5004
   2794762.78947   2170494.28944  22422650.1884                   22422651.6724
        43.7504         29.2504
  -4837221.10546  -3748579.85242  24128303.9064                   24128310.2624
        38.0004         17.7504
   2349301.65247   1822122.44547  22108834.8364                   22108838.7464
        45.2504         43.0004
  -1795855.00448  -1387075.96148  20470811.7504                   20470813.1484
        50.0004         52.0004
   -780278.84447   -602829.99246  22447886.3444                   22447890.1564
        43.5004         38.2504
  -4945007.69946  -3790204.73843  23818862.5864                   23818862.4964
        40.0004         22.0004
 05 12 22 19 20 30.0000000  0  9G18G10G24G23G28G27G32G08G02
   4359787.44146   3385682.85544  23475872.4384                   23475876.3094
        41.0004         24.5004
     39246.58248     31156.64848  21037408.7114                   21037410.3714
        50.5004         49.7504
   1784601.02746   1386057.57044  23579249.0944                   23579253.7154
        37.0004         29.0004
   2849557.06647   2213191.07844  22433077.5704                   22433078.7734
        44.0004         29.7504
  -4944494.98046  -3832169.66443  24107890.4454                   24107896.1024
        38.5004         18.2504
   2405136.35247   1865629.90247  22119460.2974                   22119463.9104
        45.0004         42.5004
  -1818225.63348  -1404507.60948  20466554.3984                   20466556.1374
        51.5004         52.2504
   -781800.51247   -604015.74646  22447596.8134                   22447600.7504
        44.0004         38.2504
  -5038397.55946  -3862975.98843  23801091.0164                   23801090.7774
        39.7504         23.2504
 05 12 22 19 21  0.0000000  0  9G18G10G24G23G28G27G32G08G02
   4449223.72346   3455373.21543  23492892.3914                   23492895.6684
        41.2504         23.2504
     43075.46148     34140.16848  21038137.3834                   21038139.3244
        50.5004         49.7504
   1832839.81346   1423646.19544  23588428.4614                   23588432.7274
        37.0004         28.5004
   2904387.09847   2255915.71144  22443511.3524                   22443512.4574
        44.0004         29.0004
  -5051823.07046  -3915801.75043  24087466.9304                   24087471.3094
        37.7504         19.0004
   2461323.86347   1909412.27747  22130152.0784                   22130155.7304
        44.7504         42.7504
  -1840180.89548  -1421615.59448  20462376.7814                   20462378.0044
        52.0004         52.2504
   -782842.50447   -604827.72346  22447398.6954                   22447402.6294
        43.5004         38.0004
  -5131752.86346  -3935720.31244  23783326.4384                   23783325.9534
        39.7504         24.5004
 05 12 22 19 21 30.0000000  0  9G18G10G24G23G28G27G32G08G02
   4538835.72746   3525200.52044  23509945.1484                   23509948.1954
        40.7504         24.0004
     46991.16048     37191.34448  21038882.4064                   21038884.2194
        50.0004         49.5004
   1881558.55146   1461608.80544  23597699.3834                   23597703.7774
        36.7504         28.2504
   2959247.41447   2298663.94944  22453951.3914                   22453952.0554
        44.0004         29.5004
  -5159207.79346  -3999477.94143  24067031.6884                   24067037.2034
        38.5004         21.2504
   2517856.16047   1953463.30947  22140910.3914                   22140913.9224
        43.5004         43.0004
  -1861726.73848  -1438404.55548  20458276.4144                   20458277.9654
        52.2504         52.2504
   -783410.94147   -605270.69946  22447290.3594                   22447294.5204
        42.7504         38.0004
  -5225077.25846  -4008440.49243  23765566.6954                   23765566.9844
        40.0004         23.5004
 05 12 22 19 22  0.0000000  0  9G18G10G24G23G28G27G32G08G02
   4628623.43046   3595164.73444  23527031.2664                   23527034.5864
        41.0004         24.5004
     50994.94548     40311.15248  21039644.3914                   21039645.8364
        50.2504         49.7504
   1930756.93046   1499945.16044  23607061.5084                   23607066.2274
        36.7504         29.0004
   3014139.32447   2341436.80944  22464397.1884                   22464397.9804
        43.7504         28.7504
  -5266644.88746  -4083194.94943  24046586.9534                   24046592.3984
        38.5004         21.5004
   2574731.78547   1997781.87147  22151733.3984                   22151737.1094
        45.2504         42.7504
