     2.11           OBSERVATION DATA    G (GPS)             RINEX VERSION / TYPE
teqc  2019Feb25                         20250821 08:15:46UTCPGM / RUN BY / DATE
Linux 2.6.32-573.12.1.x86_64|x86_64|gcc -static|Linux 64|=+ COMMENT
BIT 2 OF LLI FLAGS DATA COLLECTED UNDER A/S CONDITION       COMMENT
04223570                                                    MARKER NAME
0422                                                        MARKER NUMBER
-Unknown-           -Unknown-                               OBSERVER / AGENCY
0220340422          TRIMBLE 5700        2.32                REC # / TYPE / VERS
-Unknown-           TRM41249.00     NONE                    ANT # / TYPE
 -2421504.4981 -4592703.6641  3693449.8656                  APPROX POSITION XYZ
        0.0000        0.0000        0.0000                  ANTENNA: DELTA H/E/N
     1     1                                                WAVELENGTH FACT L1/2
     7    L1    L2    C1    P1    P2    S1    S2            # / TYPES OF OBSERV
    18                                                      LEAP SECONDS
 SNR is mapped to RINEX snr flag value [0-9]                COMMENT
  L1 & L2: min(max(int(snr_dBHz/6), 0), 9)                  COMMENT
  2005    12    23     0     0   30.0000000     GPS         TIME OF FIRST OBS
                                                            END OF HEADER
 05 12 23  0  0 30.0000000  0 10G03G09G16G04G28G26G06G31G01G02
 -37570382.38758 -29252034.57858  19845421.5234                   19845422.7194
        50.0004         50.7504
  -9476304.66856  -7358273.77755  23637678.6804                   23637683.7424
        39.7504         34.0004
 -20046720.52357 -15115317.76654  22194666.6024                   22194667.3094
        44.2504         27.2504
 -30526699.63357 -22407072.41855  21089092.7584                   21089092.9494
        47.0004         34.0004
 -17970176.78556 -13982033.63353  24327304.4774                   24327305.4694
        39.5004         22.5004
 -28340206.15657 -22058243.87957  21408657.8674                   21408660.3164
        46.5004         42.7504
  -3470184.05956  -2680063.45354  24911792.5234                   24911797.7274
        38.7504         26.5004
 -32740502.34457 -25480075.39157  21573006.5314                   21573006.0084
        45.2504         42.0004
 -25696277.66857 -19977897.86754  22730217.2734                   22730219.5634
        42.5004         27.2504
 -14375211.25856 -11138452.86753  24722514.6024                   24722523.3094
        37.2504         19.2504
 05 12 23  0  1  0.0000000  0 10G03G09G16G04G28G26G06G31G01G02
 -37606539.53148 -29280208.96548  19838540.8914                   19838541.8834
        49.5004         50.7504
  -9584254.57846  -7442390.43745  23617136.5084                   23617141.2234
        40.5004         34.7504
 -20166254.71547 -15208461.16444  22171920.0554                   22171920.3634
        43.7504         29.5004
 -30599193.50847 -22463561.10245  21075297.5864                   21075297.9224
        47.0004         35.0004
 -17901658.87146 -13928643.12143  24340342.2344                   24340343.6524
        40.5004         21.5004
 -28378786.35247 -22088306.33247  21401316.1884                   21401319.0784
        46.2504         42.7504
  -3553437.78946  -2744936.44844  24895949.2034                   24895954.6914
        39.0004         27.5004
 -32688220.20747 -25439336.08647  21582955.7734                   21582954.8244
        45.0004         42.0004
 -25641091.95746 -19934896.14144  22740718.2974                   22740721.8364
        41.2504         27.7504
 -14319216.24246 -11094820.78143  24733170.4224                   24733180.1414
        36.2504         19.5004
 05 12 23  0  1 30.0000000  0 10G03G09G16G04G28G26G06G31G01G02
 -37642122.98448 -29307936.32448  19831769.3674                   19831770.8324
        48.2504         50.7504
  -9692159.83646  -7526472.30545  23596602.8444                   23596607.6524
        40.0004         34.5004
 -20285447.22347 -15301338.31244  22149238.0084                   22149238.9654
        43.2504         28.0004
 -30671519.13347 -22519918.69145  21061534.2194                   21061534.7194
        47.0004         35.0004
 -17833094.87146 -13875216.68743  24353390.2034                   24353390.9694
        40.5004         21.0004
 -28416730.79347 -22117873.40647  21394095.6724                   21394098.0634
        44.2504         42.5004
  -3636198.38746  -2809425.21144  24880200.8834                   24880205.2734
        38.5004         25.2504
 -32635647.40647 -25398370.28947  21592960.0234                   21592959.0744
        45.5004         42.0004
 -25585665.83646 -19891707.10244  22751266.0394                   22751268.9064
        41.5004         27.0004
 -14263291.74646 -11051243.64843  24743813.9924                   24743822.2034
        38.0004         19.2504
 05 12 23  0  2  0.0000000  0 10G03G09G16G04G28G26G06G31G01G02
 -37677133.69148 -29335217.38748  19825107.0164                   19825108.6334
        50.0004         50.7504
  -9800022.12546  -7610520.69545  23576077.4774                   23576082.0984
        40.0004         34.2504
 -20404297.16047 -15393948.52744  22126621.5234                   22126622.0594
        43.0004         28.5004
 -30743678.02347 -22576146.36345  21047802.8674                   21047803.6604
        47.0004         34.0004
 -17764488.38346 -13821757.14543  24366445.1024                   24366446.8954
        40.2504         21.7504
 -28454040.71547 -22146946.04347  21386995.5394                   21386998.3364
        46.2504         42.5004
  -3718466.07046  -2873529.85243  24864545.4454                   24864550.4804
        38.0004         22.2504
 -32582788.03147 -25357181.19146  21603018.9304                   21603018.0944
        45.0004         41.7504
 -25530004.30946 -19848334.60944  22761857.9144                   22761861.0784
        41.0004         27.2504
 -14207442.34846 -11007725.03143  24754440.1724                   24754449.9184
        37.7504         20.5004
 05 12 23  0  2 30.0000000  0 10G03G09G16G04G28G26G06G31G01G02
 -37711565.51248 -29362047.36748  19818555.1334                   19818556.4844
        49.0004         50.7504
  -9907836.14846  -7694531.47345  23555560.5314                   23555565.0784
        39.5004         33.5004
 -20522795.54347 -15486284.81644  22104071.8914                   22104072.7544
        43.7504         28.0004
 -30815664.75447 -22632239.86745  21034104.2504                   21034105.0474
        47.0004         34.7504
 -17695836.07446 -13768261.88743  24379509.3444                   24379511.0354
        40.2504         22.0004
 -28490710.42647 -22175519.80547  21380017.7664                   21380020.5274
        45.2504         43.0004
  -3800234.22746  -2937245.29343  24848986.0554                   24848989.9184
        38.5004         22.5004
 -32529640.12147 -25315767.25447  21613132.8594                   21613131.5124
        45.2504         42.0004
 -25474105.37146 -19804777.15244  22772495.4924                   22772499.0084
        40.0004         26.7504
 -14151665.28946 -10964262.73843  24765054.6804                   24765064.6724
        37.5004         20.5004
 05 12 23  0  3  0.0000000  0 10G03G09G16G04G28G26G06G31G01G02
 -37745413.32048 -29388422.27748  19812114.0164                   19812115.3634
        48.7504         50.7504
 -10015597.47746  -7778501.19145  23535054.5634                   23535058.7854
        40.5004         33.5004
 -20640934.84047 -15578341.29344  22081590.9454                   22081591.1724
        43.5004         29.2504
 -30887474.70747 -22688195.64145  21020439.2194                   21020439.8554
        47.0004         35.0004
 -17627135.38746 -13714728.95743  24392582.7194                   24392584.0474
        39.5004         21.2504
 -28526735.08247 -22203590.94147  21373162.3204                   21373165.0984
        45.7504         42.7504
  -3881497.21946  -3000567.08244  24833521.6724                   24833526.6374
        37.7504         24.7504
 -32476201.69947 -25274126.94947  21623302.1024                   21623300.8014
        46.0004         42.0004
 -25417967.94546 -19761033.87544  22783178.0084                   22783181.1844
        41.2504         27.7504
 -14095958.88746 -10920855.54343  24775656.0634                   24775665.2194
        37.7504         19.2504
 05 12 23  0  3 30.0000000  0 10G03G09G16G04G28G26G06G31G01G02
 -37778672.99248 -29414338.89148  19805785.0634                   19805786.0554
        48.5004         50.5004
 -10123302.61346  -7862427.12945  23514558.3754                   23514563.2234
        39.0004         33.5004
 -20758708.33247 -15670112.73044  22059179.2894                   22059179.3284
        44.0004         27.5004
 -30959104.35947 -22744010.91045  21006808.9534                   21006809.1564
        47.0004         35.2504
 -17558384.91046 -13661157.23843  24405665.7034                   24405667.4574
        38.5004         20.2504
 -28562110.93747 -22231156.51247  21366430.4774                   21366433.0664
        45.5004         42.7504
  -3962250.36346  -3063491.58243  24818155.0474                   24818159.5204
        37.7504         21.7504
 -32422471.94947 -25232259.63347  21633526.1254                   21633525.2774
        46.0004         42.2504
 -25361591.91046 -19717104.66044  22793906.5864                   22793909.9304
        40.5004         28.0004
 -14040322.36746 -10877502.80943  24786243.6884                   24786253.4924
        36.5004         19.5004
 05 12 23  0  4  0.0000000  0 10G03G09G16G04G28G26G06G31G01G02
 -37811349.16848 -29439800.84048  19799566.5474                   19799567.9924
        48.0004         50.5004
 -10230956.86346  -7946313.41445  23494072.9694                   23494077.3244
        39.5004         32.7504
 -20876118.17647 -15761600.80944  22036836.9924                   22036836.9104
        43.5004         27.0004
 -31030558.82447 -22799689.68045  20993211.5634                   20993211.8244
        47.2504         34.7504
 -17489591.83246 -13607552.34043  24418756.3364                   24418758.4264
        38.2504         19.5004
 -28596843.07847 -22258220.47747  21359821.2974                   21359823.7974
        44.2504         42.5004
  -4042497.78546  -3126022.06044  24802884.7344                   24802889.3484
        38.0004         24.0004
 -32368459.34047 -25190171.91047  21643804.6564                   21643803.1684
        45.2504         42.5004
 -25304986.02047 -19672996.32844  22804678.0784                   22804681.5004
        42.0004         28.0004
 -13984763.59446 -10834210.62143  24796817.5474                   24796826.1214
        37.5004         19.7504
 05 12 23  0  4 30.0000000  0 10G03G09G16G04G28G26G06G31G01G02
 -37843436.78147 -29464804.16848  19793460.5164                   19793461.7464
        47.7504         50.5004
 -10338555.80946  -8030156.59445  23473596.5554                   23473601.4064
        39.0004         31.7504
 -20993156.79747 -15852799.63344  22014565.0084                   22014565.2664
        43.5004         26.7504
 -31101833.62947 -22855228.44145  20979648.2734                   20979648.6914
        47.5004         35.0004
 -17420753.68446 -13553912.27043  24431855.8984                   24431857.3984
        38.7504         20.5004
 -28630926.71547 -22284779.13747  21353335.2894                   21353337.9184
        44.2504         42.5004
  -4122233.64546  -3188153.86344  24787711.2504                   24787716.0704
        37.5004         24.5004
 -32314161.74647 -25147862.12147  21654137.2274                   21654135.8444
        46.5004         42.0004
 -25248149.10246 -19628707.98444  22815494.3204                   22815497.3134
        41.5004         28.5004
 -13929280.68745 -10790977.56643  24807374.1884                   24807384.2814
        35.7504         19.5004
 05 12 23  0  5  0.0000000  0 10G03G09G16G04G28G26G06G31G01G02
 -37874930.00848 -29489344.33648  19787467.5944                   19787468.9304
        50.2504         50.5004
 -10446094.31646  -8113952.68045  23453132.8594                   23453137.4144
        39.2504         32.5004
 -21109815.74247 -15943702.58244  21992365.0394                   21992365.3554
        43.5004         28.5004
 -31172923.39547 -22910623.02745  20966120.3674                   20966120.9264
        47.5004         35.5004
 -17351867.22346 -13500234.57043  24444964.5704                   24444966.1844
        39.0004         21.0004
 -28664356.45747 -22310828.26247  21346973.7894                   21346976.0944
        45.5004         42.7504
  -4201451.78146  -3249882.26244  24772636.6954                   24772641.2704
        36.2504         25.0004
 -32259577.23047 -25105328.75447  21664524.3594                   21664522.7154
        45.7504         42.5004
 -25191079.39847 -19584238.25844  22826354.3914                   22826357.3594
        42.0004         29.0004
 -13873871.55146 -10747801.98843  24817919.3914                   24817929.5474
        36.7504         19.2504
 05 12 23  0  5 30.0000000  0 10G03G09G16G04G28G26G06G31G01G02
 -36330412.67248 -28285824.33248  20081379.6724                   20081380.9804
        49.7504         50.5004
  -8978154.25846  -6970103.14145  23732472.7034                   23732477.0274
        38.7504         32.2504
 -19650673.37547 -14806708.41044  22270030.4454                   22270030.9384
        43.2504         28.2504
 -29668411.05547 -21738275.71145  21252419.6484                   21252419.6024
        47.5004         35.0004
 -15707522.03146 -12218926.68743  24757872.8674                   24757874.8444
        38.5004         19.5004
 -27121716.42647 -21108771.07047  21640527.8594                   21640530.8794
        46.0004         43.0004
  -2704733.80945  -2083608.48044  25057451.5234                   25057457.0554
        35.5004         25.2504
 -30629295.79347 -23834979.59847  21974756.3834                   21974755.3404
        46.5004         42.2504
 -23558367.61746 -18311995.47344  23137049.0784                   23137052.5554
        41.2504         27.7504
 -12243125.90646  -9477091.44943  25128240.7734                   25128250.0234
        36.7504         18.5004
 05 12 23  0  6  0.0000000  0 10G03G09G16G04G28G26G06G31G01G02
 -36360727.39848 -28309446.18748  20075610.6724                   20075612.2464
        50.0004         50.5004
  -9085583.77346  -7053814.32845  23712029.5704                   23712033.6804
        39.7504         32.2504
 -19766575.38747 -14897021.54744  22247975.1254                   22247975.0274
        43.2504         28.5004
 -29739142.34447 -21793390.96945  21238959.4694                   21238959.9454
        47.7504         34.7504
 -15638556.61346 -12165187.48443  24770996.7274                   24770998.6604
        38.0004         20.2504
 -27153849.80147 -21133810.02747  21634413.7114                   21634416.5354
        45.5004         43.0004
  -2782924.82046  -2144536.51244  25042572.3364                   25042577.9734
        36.0004         24.0004
 -30574157.54347 -23792014.75047  21985249.0084                   21985248.1094
        45.7504         42.5004
 -23500854.35946 -18267180.12544  23147993.6884                   23147997.3204
        41.5004         27.7504
 -12187883.92246  -9441794.12552  25138753.0784                   25138763.4414
        37.0004         17.7504
 05 12 23  0  6 30.0000000  0 10G03G09G16G04G28G26G06G31G01G02
 -36390450.28948 -28332606.88348  20069954.9614                   20069956.1764
        48.0004         50.5004
  -9192957.11346  -7137481.73845  23691596.9384                   23691601.3244
        40.0004         33.0004
 -19882092.84047 -14987035.02744  22225993.0164                   22225993.1604
        44.2504         28.2504
 -29809692.39547 -21848365.00445  21225534.3054                   21225535.2074
        47.5004         34.5004
 -15569552.75846 -12111418.30943  24784128.4454                   24784130.2424
        37.5004         19.2504
 -27185332.97747 -21158342.35547  21628422.6024                   21628425.3984
        44.5004         42.7504
  -2860598.85945  -2205061.72743  25027791.9384                   25027797.6414
        35.0004         23.5004
 -30518744.81247 -23748836.03547  21995793.6484                   21995792.7304
        45.5004         42.5004
 -23443122.68446 -18222194.56644  23158979.7894                   23158982.5904
        40.5004         25.7504
 -12132727.77045  -9398815.71142  25149248.6724                   25149260.3874
        34.0004         16.2504
 05 12 23  0  7  0.0000000  0 10G03G09G16G04G28G26G06G31G01G02
 -36419582.81648 -28355307.54748  20064411.2734                   20064412.4414
        50.0004         50.7504
  -9300276.16446  -7221106.84445  23671174.6094                   23671178.9964
        40.7504         34.5004
 -19997224.26647 -15076747.71544  22204084.2114                   22204084.3954
        44.2504         28.0004
 -29880063.11747 -21903199.30145  21212143.3834                   21212144.0864
        47.0004         35.0004
 -15500514.52046 -12057622.37143  24797266.9064                   24797267.4454
        38.0004         20.2504
 -27216167.91047 -21182369.54747  21622554.9304                   21622557.2624
        46.7504         43.0004
  -2937756.92245  -2265184.86743  25013108.6564                   25013114.6994
        35.5004         22.7504
 -30463062.19947 -23705447.00047  22006389.3444                   22006388.6564
        47.0004         42.2504
 -23385177.92246 -18177042.97744  23170006.3054                   23170009.4024
        40.5004         25.2504
 -12077661.91845  -9355907.60942  25159727.6804                   25159738.7704
        34.0004         16.2504
 05 12 23  0  7 30.0000000  0 10G03G09G16G04G28G26G06G31G01G02
 -36448120.32048 -28377544.56248  20058980.4224                   20058981.9144
        49.5004         50.7504
  -9407536.83246  -7304686.46545  23650763.4774                   23650767.9614
        40.7504         35.2504
 -20111962.17247 -15166153.76244  22182249.9304                   22182250.2774
        44.0004         28.5004
 -29950250.14847 -21957890.46145  21198787.1024                   21198787.4884
        47.2504         35.0004
 -15431439.49246 -12003797.74243  24810409.6174                   24810411.7624
        38.0004         19.5004
 -27246350.37547 -21205888.33247  21616811.2194                   21616813.9104
        46.7504         43.0004
  -3014393.61745  -2324901.73044  24998524.9454                   24998531.2424
        35.2504         24.5004
 -30407108.43047 -23661846.68047  22017036.9774                   22017036.4144
        47.0004         42.5004
 -23327019.30146 -18131724.76244  23181074.3444                   23181077.0824
        41.0004         25.7504
 -12022685.12555  -9321635.89852  25170190.2274                   25170200.3674
        35.2504         16.7504
 05 12 23  0  8  0.0000000  0 10G03G09G16G04G28G26G06G31G01G02
 -36476068.61348 -28399322.45348  20053662.1884                   20053663.5784
        48.7504         50.7504
  -9514745.35946  -7388225.46945  23630362.5234                   23630366.5394
        41.7504         34.5004
 -20226309.82847 -15255255.70744  22160490.7114                   22160490.4454
        43.7504         29.2504
 -30020259.65647 -22012443.29345  21185464.5634                   21185464.8204
        47.0004         34.7504
 -15362335.93446 -11949950.88743  24823560.4774                   24823562.2114
        37.5004         20.0004
 -27275886.52747 -21228903.48447  21611190.8204                   21611193.4614
        44.5004         43.0004
  -3090514.19945  -2384216.43044  24984040.0164                   24984045.9454
        35.2504         24.7504
 -30350892.91447 -23618042.41447  22027735.0004                   22027733.9224
        46.5004         42.0004
 -23268656.49646 -18086247.43044  23192180.0474                   23192183.2664
        41.5004         26.0004
 -11967806.19946  -9278873.47742  25180633.3444                   25180644.0314
        37.0004         16.2504
 05 12 23  0  8 30.0000000  0 10G03G09G16G04G28G26G06G31G01G02
 -36503421.64548 -28420636.50448  20048457.1174                   20048458.3714
        49.7504         50.7504
  -9621896.09446  -7471719.44145  23609972.2584                   23609976.0594
        41.5004         34.7504
 -20340258.69547 -15344046.92244  22138806.5234                   22138806.6994
        43.5004         29.0004
 -30090085.81247 -22066853.25045  21172177.1334                   21172177.9384
        47.0004         35.5004
 -15293200.05146 -11896078.84443  24836716.1094                   24836718.0744
        37.2504         19.2504
 -27304770.78947 -21251410.68047  21605694.4774                   21605696.6804
        46.5004         43.0004
  -3166112.11745  -2443123.86744  24969654.7424                   24969660.3134
        33.7504         25.7504
 -30294412.48847 -23574031.71547  22038482.5634                   22038481.7624
        46.5004         42.2504
 -23210087.24247 -18040609.22744  23203325.2034                   23203328.9104
        42.7504         26.2504
 -11913021.99645  -9236184.89542  25191058.1094                   25191068.9884
        34.2504         16.2504
 05 12 23  0  9  0.0000000  0 10G03G09G16G04G28G26G06G31G01G02
 -36530177.18448 -28441484.96948  20043365.7584                   20043366.9694
        48.2504         50.7504
  -9728987.21547  -7555166.96545  23589593.2734                   23589597.7544
        42.2504         35.2504
 -20453803.78547 -15432523.49244  22117199.2274                   22117199.8524
        43.5004         29.2504
 -30159726.73447 -22121118.87946  21158924.9694                   21158925.5314
        47.0004         36.2504
 -15224031.91846 -11842181.69143  24849878.4844                   24849880.5554
        36.5004         20.0004
 -27333001.36747 -21273408.51247  21600322.1724                   21600324.6174
        45.0004         43.0004
  -3241184.48445  -2501621.79344  24955367.9384                   24955373.8324
        34.2504         26.5004
 -30237668.31247 -23529815.50446  22049280.6484                   22049279.8244
        46.5004         41.5004
 -23151313.21546 -17994811.46944  23214510.0084                   23214513.6334
        41.7504         25.0004
 -11858333.63345  -9193570.93442  25201465.6414                   25201476.7304
        33.5004         17.2504
 05 12 23  0  9 30.0000000  0 11G03G09G16G04G28G26G06G31G07G01G02
 -36556332.93448 -28461866.07048  20038388.4144                   20038390.1054
        48.0004         50.7504
  -9836016.77346  -7638566.51245  23569226.0314                   23569230.0044
        41.5004         35.2504
 -20566940.14147 -15520681.58644  22095670.4694                   22095670.5204
        43.0004         29.7504
 -30229180.31247 -22175238.51645  21145707.7504                   21145708.8524
        47.0004         35.2504
 -15154831.53945 -11788259.38743  24863047.2974                   24863049.3134
        35.7504         18.2504
 -27360576.45347 -21294895.57047  21595074.6804                   21595077.3524
        44.5004         43.2504
  -3315728.43045  -2559707.94544  24941184.2504                   24941189.2704
        35.0004         26.7504
 -30180661.06247 -23485394.30546  22060129.0004                   22060128.4264
        46.2504         41.5004
   1415975.55955   1127555.33654  25345902.5474                   25345914.0354
        35.5004         26.0004
 -23092335.81247 -17948855.23044  23225733.2814                   23225736.6134
        42.0004         27.0004
 -11803741.69945  -9151032.13342  25211852.3444                   25211866.1804
        33.0004         14.7504
 05 12 23  0 10  0.0000000  0 11G03G09G16G04G28G26G06G31G07G01G02
 -36581912.98048 -28481798.57048  20033520.8284                   20033521.9224
        50.5004         50.5004
  -9943009.25847  -7721937.16445  23548865.8364                   23548869.9964
        42.2504         35.5004
 -20679688.89147 -15608537.64145  22074214.4924                   22074215.1484
        43.5004         30.0004
 -30298470.79747 -22229231.06245  21132522.9144                   21132523.1564
        46.5004         35.7504
 -15085625.16846 -11734332.43443  24876216.1024                   24876218.9184
        36.0004         18.5004
 -27387520.52747 -21315890.93047  21589947.5234                   21589950.1604
        47.0004         42.7504
  -3389767.44545  -2617400.66844  24927093.9614                   24927099.6914
        35.7504         27.2504
 -30123418.03147 -23440789.37546  22071022.0474                   22071020.8404
        46.0004         41.2504
   1299845.96945   1037065.23044  25323804.1094                   25323814.5354
        35.0004         26.7504
 -23033182.90647 -17902762.23444  23236989.2584                   23236993.3134
        42.0004         25.7504
 -11749273.30545  -9108589.65642  25222220.4144                   25222231.5044
        34.5004         15.5004
 05 12 23  0 10 30.0000000  0 11G03G09G16G04G28G26G06G31G07G01G02
 -36606931.10548 -28501293.20748  20028759.9304                   20028761.2464
        49.5004         50.7504
 -10049978.75046  -7805289.89546  23528510.3134                   23528514.7814
        41.5004         36.0004
 -20792061.14847 -15696100.32045  22052830.8444                   22052831.4694
        43.7504         30.5004
 -30367612.23847 -22283107.48445  21119365.7114                   21119365.8984
        46.5004         35.2504
 -15016428.82845 -11680413.25042  24889384.2504                   24889386.2154
        35.5004         17.2504
 -27413847.82847 -21336405.68047  21584937.6484                   21584939.8914
        46.5004         43.0004
  -3463314.78945  -2674710.24244  24913098.6724                   24913104.1764
        35.5004         27.5004
 -30065956.16047 -23396013.91846  22081956.3834                   22081955.6524
        45.7504         41.7504
   1183851.89146    946680.72344  25301730.7584                   25301741.5044
        36.0004         26.5004
 -22973872.10347 -17856546.22044  23248276.5554                   23248279.6564
        42.7504         27.5004
 -11694945.20745  -9066256.44542  25232556.8984                   25232569.7894
        33.5004         17.2504
 05 12 23  0 11  0.0000000  0 11G03G09G16G04G28G26G06G31G07G01G02
 -36631379.03948 -28520343.53948  20024107.2504                   20024108.7464
        50.0004         50.7504
 -10156917.22746  -7888618.44946  23508160.1954                   23508164.6334
        41.2504         36.0004
 -20904046.14147 -15783361.22745  22031521.0554                   22031521.1214
        43.5004         30.5004
 -30436596.47347 -22336861.39546  21106238.4774                   21106238.3054
        47.0004         36.0004
 -14947236.37945 -11626497.13342  24902551.2114                   24902553.3914
        35.0004         17.7504
 -27439550.64547 -21356433.83647  21580046.3364                   21580048.9184
        46.0004         43.0004
  -3536361.53545  -2731629.75044  24899198.1724                   24899203.6804
        35.7504         26.0004
 -30008270.17247 -23351063.82446  22092933.8984                   22092932.4344
        45.7504         40.7504
   1068002.03945    856408.59844  25279684.2194                   25279695.3094
        35.2504         25.0004
 -22914398.68746 -17810203.46544  23259593.9924                   23259597.7464
        41.5004         26.5004
 -11640752.34445  -9024028.60943  25242870.6804                   25242882.5124
        34.7504         18.5004
 05 12 23  0 11 30.0000000  0 11G03G09G16G04G28G26G06G31G07G01G02
 -36655246.68748 -28538941.70748  20019565.6414                   20019566.8984
        50.0004         50.7504
 -10263814.87546  -7971915.17646  23487818.4924                   23487822.6454
        41.0004         36.0004
 -21015630.91447 -15870310.28945  22010287.5084                   22010286.9344
        43.5004         30.2504
 -30505413.46147 -22390484.98445  21093143.1884                   21093143.3284
        47.5004         35.7504
 -14878039.82846 -11572577.80942  24915719.6724                   24915721.3324
        36.5004         16.7504
 -27464619.23847 -21375967.78147  21575276.0864                   21575278.9224
        46.7504         43.0004
  -3608896.85246  -2788150.75044  24885395.9534                   24885400.8554
        37.5004         29.0004
 -29950352.97347 -23305933.57846  22103955.5554                   22103954.6454
        46.5004         40.7504
    952306.88345    766257.02743  25257667.5944                   25257678.5434
        32.2504         22.2504
 -22854756.37546 -17763729.16444  23270943.0474                   23270947.2234
        40.0004         25.0004
 -11586686.75846  -8981899.93743  25253159.2894                   25253170.1414
        36.5004         19.2504
 05 12 23  0 12  0.0000000  0 10G03G09G16G04G28G26G06G31G07G01
 -36678522.76648 -28557078.90248  20015136.5234                   20015137.8524
        49.5004         50.5004
 -10370660.71946  -8055171.53546  23467486.3444                   23467490.3954
        41.0004         36.2504
 -21126801.30947 -15956936.45345  21989131.2974                   21989131.7774
        43.5004         30.7504
 -30574052.09447 -22443969.59046  21080081.3204                   21080081.5124
        47.0004         36.0004
 -14808830.04346 -11518648.11743  24928889.1884                   24928891.4384
        37.0004         18.2504
 -27489042.87547 -21394999.16847  21570628.1334                   21570630.9454
        46.2504         43.2504
  -3680909.17646  -2844264.22344  24871692.5704                   24871697.4264
        37.2504         29.0004
 -29892196.60547 -23260616.96546  22115021.7274                   22115021.1954
        45.5004         41.2504
    836777.69945    676234.77743  25235683.7974                   25235693.3874
        31.2504         22.0004
 -22794937.54746 -17717117.30143  23282326.5164                   23282330.1844
        40.7504         23.5004
 05 12 23  0 12 30.0000000  0 10G03G09G16G04G28G26G06G31G07G01
 -36701202.60948 -28574751.50448  20010820.5554                   20010822.0904
        49.5004         50.5004
 -10477450.16046  -8138383.91846  23447164.8444                   23447169.0704
        41.2504         36.2504
 -21237550.11747 -16043234.10945  21968056.5314                   21968056.7734
        44.0004         30.2504
 -30642507.72747 -22497311.59846  21067054.9844                   21067055.3324
        47.0004         36.0004
 -14739604.48446 -11464706.18043  24942062.3984                   24942064.6374
        37.5004         18.5004
 -27512817.31247 -21413524.68747  21566104.2584                   21566106.9264
        46.2504         43.0004
  -3752393.00846  -2899965.88744  24858088.9774                   24858094.8914
        36.5004         27.7504
 -29833798.82447 -23215112.23046  22126134.7114                   22126133.6764
        45.5004         41.0004
    721420.17245    586346.30943  25213730.8134                   25213740.8714
        30.0004         20.5004
 -22734941.21546 -17670367.12543  23293744.1254                   23293747.4144
        40.7504         23.0004
 05 12 23  0 13  0.0000000  0 10G03G09G16G04G28G26G06G31G07G01
 -36723265.99648 -28591943.75448  20006622.0164                   20006623.6024
        49.7504         50.5004
 -10584163.24646  -8221536.80945  23426857.9064                   23426862.1174
        40.5004         35.5004
 -21347853.96547 -16129185.04344  21947066.5944                   21947066.7894
        43.5004         29.7504
 -30710760.21947 -22550495.31245  21054066.7664                   21054066.7074
        46.7504         35.5004
 -14670344.88746 -11410737.68443  24955242.6024                   24955243.9304
        39.0004         19.0004
 -27535922.91047 -21431529.02747  21561707.1954                   21561709.8714
        45.5004         43.0004
  -3823327.61345  -2955239.57844  24844591.4774                   24844595.8094
        35.5004         28.5004
 -29775142.86747 -23169406.32046  22137296.6254                   22137295.6884
        44.5004         40.5004
    606254.54345    496607.35243  25191814.9694                   25191825.0514
        33.0004         21.5004
 -22674750.70346 -17623465.61743  23305197.2664                   23305201.9804
        39.7504         23.5004
 05 12 23  0 13 30.0000000  0 10G03G09G16G04G28G26G06G31G07G01
 -36744694.58248 -28608641.34848  20002544.1954                   20002545.7584
        48.0004         50.5004
 -10690781.77746  -8304616.02045  23406568.9534                   23406572.9774
        40.0004         34.7504
 -21457691.99247 -16214773.00444  21926165.1644                   21926165.0274
        44.0004         29.7504
 -30778791.20347 -22603506.42645  21041120.4304                   21041121.0744
        46.5004         35.7504
 -14601035.01246 -11356730.04343  24968431.6254                   24968433.2304
        38.5004         18.5004
 -27558341.70747 -21448998.21147  21557441.1884                   21557443.5204
        44.5004         43.0004
  -3893694.02346  -3010070.53544  24831200.9384                   24831205.6214
        38.2504         29.7504
 -29716213.11347 -23123487.07846  22148510.8364                   22148510.0084
        45.5004         40.5004
    491299.46145    407032.48843  25169940.3754                   25169949.5634
        35.5004         23.0004
 -22614351.30946 -17576401.35244  23316691.3524                   23316695.4144
        41.5004         25.2504
 05 12 23  0 14  0.0000000  0 10G03G09G16G04G28G26G06G31G07G01
 -36765495.33648 -28624849.73048  19998585.8524                   19998587.6764
        50.0004         50.5004
 -10797312.86346  -8387627.08645  23386296.3444                   23386300.6914
        40.0004         35.0004
 -21567068.29747 -16300001.19144  21905351.3364                   21905351.3404
        43.7504         29.5004
 -30846607.62147 -22656350.34045  21028215.3754                   21028215.8484
        47.0004         35.2504
 -14531683.64146 -11302690.02043  24981628.5394                   24981630.5434
        39.7504         18.5004
 -27580081.27347 -21465938.10947  21553303.9694                   21553306.8404
        46.0004         43.0004
  -3963498.60546  -3064463.69544  24817917.4064                   24817922.3954
        38.0004         28.5004
 -29657019.66447 -23077362.34846  22159774.2894                   22159773.9734
        45.0004         40.5004
    376548.33246    317616.52043  25148103.3054                   25148112.5904
        36.0004         22.5004
 -22553753.59046 -17529182.55144  23328223.0314                   23328227.3984
        41.0004         26.0004
 05 12 23  0 14 30.0000000  0 10G03G09G16G04G28G26G06G31G07G01
 -36785673.61348 -28640573.06248  19994746.2114                   19994747.6294
        49.5004         50.5004
 -10903761.90246  -8470574.20345  23366039.8674                   23366043.3244
        38.2504         34.7504
 -21675985.26247 -16384871.43745  21884625.0084                   21884624.9384
        43.5004         30.7504
 -30914214.77347 -22709031.19545  21015350.6174                   21015350.6254
        47.2504         35.5004
 -14462298.17246 -11248623.46143  24994831.6724                   24994834.5044
        39.0004         19.2504
 -27601147.37147 -21482353.23447  21549295.2504                   21549298.0124
        46.2504         43.0004
  -4032746.05146  -3118422.73444  24804739.8754                   24804745.1254
        38.2504         29.5004
 -29597570.64147 -23031038.46546  22171087.6334                   22171086.6054
        46.2504         40.7504
    261996.68446    228355.97743  25126304.6564                   25126313.8284
        37.0004         22.7504
 -22492966.42647 -17481816.12144  23339791.3204                   23339795.0864
        42.0004         25.0004
 05 12 23  0 15  0.0000000  0 10G03G09G16G04G28G26G06G31G07G01
 -36805230.91848 -28655812.52348  19991024.5164                   19991026.1914
        48.0004         50.5004
 -11010130.49246  -8553458.65245  23345798.3754                   23345802.0824
        38.7504         34.7504
 -21784441.77347 -16469382.90645  21863986.6254                   21863986.1414
        44.5004         30.0004
 -30981614.12147 -22761550.12145  21002524.9304                   21002525.0704
        46.7504         35.5004
 -14392881.99646 -11194532.95343  25008041.5704                   25008043.4774
        38.7504         18.5004
 -27621542.12147 -21498245.23447  21545414.2664                   21545417.1094
        44.5004         43.0004
  -4101437.31246  -3171948.38345  24791668.5234                   24791673.1174
        37.5004         30.2504
 -29537870.40247 -22984518.83646  22182448.4144                   22182447.5904
        46.0004         41.5004
    147643.03146    139249.68044  25104543.4144                   25104552.5554
        36.5004         24.5004
 -22431994.86347 -17434306.02344  23351393.2894                   23351397.8444
        42.0004         26.7504
 05 12 23  0 15 30.0000000  0 10G03G09G16G04G28G26G06G31G07G01
 -36824175.06648 -28670574.19548  19987419.5474                   19987420.8794
        49.0004         50.5004
 -11116426.47746  -8636286.52745  23325571.1564                   23325574.7704
        39.0004         34.0004
 -21892442.61747 -16553539.30145  21843434.3914                   21843434.2274
        44.0004         30.5004
 -31048813.36747 -22813913.11745  20989737.1334                   20989737.2384
        47.0004         34.7504
 -14323444.80146 -11140426.06242  25021255.3204                   25021256.6294
        38.7504         17.7504
 -27641273.80547 -21513620.56247  21541659.4844                   21541662.0204
        44.5004         43.2504
  -4169579.61346  -3225046.26644  24778701.5474                   24778705.5784
        38.7504         29.5004
 -29477929.64147 -22937811.78547  22193854.6954                   22193853.6564
        46.5004         42.0004
     33480.26646     50292.14844  25082818.7504                   25082827.3204
        37.5004         25.7504
 -22370850.21146 -17386661.06244  23363028.6804                   23363032.8834
        41.0004         25.0004
 05 12 23  0 16  0.0000000  0 10G03G09G16G04G28G26G06G31G07G01
 -36842502.21948 -28684855.09048  19983931.7664                   19983933.2584
        50.0004         50.7504
 -11222646.05146  -8719054.86345  23305358.0314                   23305361.2974
        39.2504         34.0004
 -21999980.95747 -16637335.31644  21822970.1564                   21822970.3404
        44.2504         29.7504
 -31115808.52047 -22866117.09045  20976988.2584                   20976988.4024
        46.5004         35.0004
 -14253984.68046 -11086301.30543  25034473.4694                   25034474.8524
        38.0004         18.2504
 -27660339.09447 -21528476.61347  21538031.7584                   21538034.3324
        45.7504         43.2504
  -4237168.45746  -3277712.89145  24765839.1174                   24765844.3554
        40.0004         31.7504
 -29417747.25447 -22890916.45346  22205307.4144                   22205306.0314
        45.7504         41.0004
    -80487.37546    -38513.33243  25061130.8364                   25061140.5314
        36.7504         23.7504
 -22309532.13746 -17338880.98844  23374697.8284                   23374701.8834
        41.5004         25.7504
 05 12 23  0 16 30.0000000  0 10G03G09G16G04G28G26G06G31G07G01
 -36860208.10548 -28698651.88748  19980562.7814                   19980564.2344
        49.7504         50.7504
 -11328784.94146  -8801760.34845  23285160.0704                   23285163.7584
        39.0004         34.0004
 -22107049.73447 -16720765.43045  21802596.0704                   21802595.7384
        44.5004         31.5004
 -31182595.15647 -22918158.57445  20964279.0394                   20964279.0274
        47.0004         35.2504
 -14184498.96546 -11032156.60542  25047695.7344                   25047697.3054
        38.0004         17.2504
 -27678734.32047 -21542810.54347  21534531.1644                   21534533.1914
        46.5004         43.2504
  -4304198.98446  -3329944.45345  24753084.3134                   24753089.2034
        39.5004         30.5004
 -29357321.75447 -22843831.68446  22216805.1484                   22216805.0394
        45.7504         41.5004
   -194254.83246   -127162.91044  25039481.0634                   25039490.0314
        39.0004         25.5004
 -22248039.81646 -17290965.11344  23386399.1804                   23386403.7814
        40.7504         25.0004
 05 12 23  0 17  0.0000000  0 10G03G09G16G04G28G26G06G31G07G01
 -36877301.95348 -28711971.76648  19977310.2424                   19977311.7704
        50.7504         50.7504
 -11434852.21946  -8884410.01245  23264975.7894                   23264979.4344
        40.0004         34.5004
 -22213655.46947 -16803834.73045  21782309.3984                   21782309.2234
        45.2504         31.0004
 -31249182.27047 -22970044.60245  20951608.1254                   20951608.4224
        46.2504         35.7504
 -14114998.86246 -10978000.72042  25060921.6804                   25060923.2664
        38.5004         17.7504
 -27696469.09047 -21556629.82447  21531156.3444                   21531159.1094
        46.7504         43.2504
  -4370679.71946  -3381747.60945  24740433.4454                   24740438.0274
        39.2504         31.2504
 -29296664.91847 -22796566.65646  22228348.3204                   22228347.9064
        46.0004         41.0004
   -307831.07446   -215663.45743  25017868.0864                   25017876.6724
        38.7504         23.7504
 -22186385.78946 -17242923.27044  23398131.6484                   23398136.6454
        39.2504         24.5004
 05 12 23  0 17 30.0000000  0 10G03G09G16G04G28G26G06G31G07G01
 -36893787.43048 -28724817.59048  19974172.9384                   19974174.3484
        50.2504         50.7504
 -11540851.54746  -8967006.71945  23244805.0234                   23244808.4144
        41.0004         34.7504
 -22319798.49647 -16886543.48445  21762111.3134                   21762110.5944
        45.5004         31.7504
 -31315573.35947 -23021777.87545  20938974.2504                   20938974.8324
        47.0004         35.5004
 -14045489.61346 -10923837.72343  25074148.1334                   25074150.9224
        37.7504         20.2504
 -27713547.78547 -21569937.88347  21527906.4384                   21527908.8674
        46.2504         43.0004
  -4436613.89146  -3433124.86745  24727887.1804                   24727891.1564
        39.7504         30.5004
 -29235783.32447 -22749126.48446  22239933.5864                   22239932.7344
        45.7504         40.5004
   -421219.51646   -304017.68444  24996290.4774                   24996299.5394
        39.7504         24.5004
 -22124577.31246 -17194761.06244  23409893.9534                   23409898.5984
        39.7504         24.7504
 05 12 23  0 18  0.0000000  0 10G03G09G16G04G28G26G06G31G07G01
 -36909657.89548 -28737184.18448  19971152.9064                   19971153.9804
        50.0004         50.7504
 -11646776.17646  -9049545.25045  23224648.6094                   23224651.4024
        40.5004         34.7504
 -22425469.41447 -16968884.36745  21742002.8754                   21742002.5664
        45.7504         31.2504
 -31381761.48447 -23073352.99645  20926378.8914                   20926379.3014
        46.7504         35.5004
 -13975966.45746 -10869663.88743  25087378.6094                   25087380.6804
        38.0004         18.5004
 -27729964.19547 -21582729.87147  21524782.3834                   21524784.7774
        46.2504         43.0004
  -4501994.02046  -3484070.40245  24715445.0554                   24715450.0084
        38.7504         30.7504
 -29174673.10547 -22701508.17246  22251562.4224                   22251561.8204
        45.2504         40.5004
   -534412.61346   -392219.66444  24974750.9774                   24974759.2424
        40.2504         26.2504
 -22062611.01246 -17146475.88344  23421685.6484                   23421690.5274
        41.5004         24.2504
 05 12 23  0 18 30.0000000  0 10G03G09G16G04G28G26G06G31G07G01
 -36924922.20748 -28749078.45348  19968248.1334                   19968249.4534
        49.2504         50.5004
 -11752634.76246  -9132032.30545  23204503.5004                   23204507.1024
        40.0004         34.5004
 -22530674.41847 -17050862.19945  21721982.9144                   21721982.3874
        45.5004         31.0004
 -31447755.22747 -23124776.65646  20913820.2894                   20913821.0434
        46.5004         36.0004
 -13906439.79746 -10815487.30543  25100608.7584                   25100611.2854
        36.7504         19.2504
 -27745727.75447 -21595013.14547  21521782.6804                   21521785.1024
        45.2504         43.2504
  -4566828.44546  -3534590.70744  24703107.3204                   24703112.0434
        38.0004         29.0004
 -29113345.43047 -22653720.41046  22263232.8674                   22263232.2194
        45.5004         40.7504
   -647418.41046   -480275.67644  24953246.1334                   24953254.2344
        39.0004         25.7504
 -22000499.07047 -17098077.19944  23433506.4224                   23433510.2664
        42.2504         24.5004
 05 12 23  0 19  0.0000000  0 10G03G09G16G04G28G26G06G31G07G01
 -36939581.84848 -28760501.53948  19965458.3594                   19965459.9304
        49.0004         50.5004
 -11858428.69146  -9214468.96945  23184372.2504                   23184375.3874
        40.7504         34.7504
 -22635411.75447 -17132475.61345  21702052.1024                   21702051.8594
        45.7504         32.2504
 -31513555.79347 -23176049.79745  20901298.9774                   20901299.7504
        47.0004         35.7504
 -13836912.79345 -10761310.44543  25113839.1254                   25113841.5634
        35.5004         19.2504
 -27760840.50047 -21606789.29747  21518906.7974                   21518909.0084
        44.5004         43.2504
  -4631117.98046  -3584686.43744  24690873.2894                   24690878.8444
        38.0004         29.5004
 -29051804.63747 -22605766.58246  22274943.8674                   22274943.0634
        45.5004         40.7504
   -760237.96146   -568186.59844  24931776.0554                   24931784.8914
        38.7504         25.7504
 -21938246.36747 -17049568.82443  23445352.1564                   23445356.4654
        42.0004         23.7504
 05 12 23  0 19 30.0000000  0 10G03G09G16G04G28G26G06G31G07G01
 -36953631.08648 -28771448.99648  19962785.0704                   19962786.4804
        49.5004         50.5004
 -11964152.02746  -9296850.65245  23164252.7974                   23164256.1214
        39.5004         34.7504
 -22739672.76247 -17213717.87145  21682211.3914                   21682211.1414
        45.0004         32.5004
 -31579157.05947 -23227167.63745  20888815.9304                   20888815.8794
        46.2504         35.5004
 -13767381.32845 -10707130.12543  25127070.6564                   25127073.6484
        34.5004         19.0004
 -27775297.23847 -21618054.27347  21516155.5474                   21516158.4694
        45.2504         43.2504
  -4694856.39846  -3634352.71144  24678744.3674                   24678749.2304
        38.5004         29.0004
 -28990047.08647 -22557643.85246  22286695.9144                   22286694.9614
        45.2504         39.7504
   -872865.30546   -655947.78144  24910343.8284                   24910352.6484
        38.0004         25.2504
 -21875850.42247 -17000948.83243  23457226.0554                   23457229.9574
        43.0004         23.5004
 05 12 23  0 20  0.0000000  0 10G03G09G16G04G28G26G06G31G07G01
 -36967068.77348 -28781919.92248  19960227.9384                   19960229.6604
        49.7504         50.5004
 -12069803.33246  -9379176.18745  23144147.8834                   23144152.1724
        40.0004         35.5004
 -22843453.30147 -17294585.72745  21662463.2274                   21662462.2774
        46.2504         32.0004
 -31644557.55547 -23278129.02346  20876370.4224                   20876370.5634
        46.7504         36.0004
 -13697845.78145 -10652946.63742  25140302.1414                   25140305.3364
        32.7504         17.2504
 -27789097.43047 -21628807.65247  21513529.2584                   21513531.4734
        46.2504         43.0004
  -4758041.80546  -3683588.07044  24666720.5634                   24666725.4734
        37.5004         28.7504
 -28928074.76647 -22509353.77746  22298488.9384                   22298488.1174
        44.7504         39.7504
   -985298.35946   -743557.59844  24888948.1644                   24888957.3014
        37.5004         27.7504
 -21813313.42647 -16952218.91843  23469126.6484                   23469130.7584
        42.5004         22.0004
 05 12 23  0 20 30.0000000  0 10G03G09G16G04G28G26G06G31G07G01
 -36979899.51248 -28791917.89848  19957786.3674                   19957787.7384
        50.2504         50.5004
 -12175387.02346  -9461449.04345  23124056.2344                   23124059.2114
        39.0004         35.0004
 -22946755.08647 -17375080.52745  21642804.6094                   21642804.8834
        45.5004         31.7504
 -31709761.41847 -23328937.21145  20863962.7664                   20863962.6454
        47.2504         35.5004
 -13628312.32844 -10598764.84042  25153535.1954                   25153538.3404
        29.7504         16.7504
 -27802246.19947 -21639053.42647  21511027.7424                   21511030.2974
        47.5004         43.2504
  -4820678.13346  -3732395.57444  24654800.8984                   24654806.3054
        38.0004         29.0004
 -28865894.66447 -22460901.79346  22310321.4384                   22310320.6454
        44.5004         39.7504
  -1097541.34046   -831019.27044  24867589.2194                   24867597.0514
        38.0004         28.2504
 -21750643.18446 -16903385.17243  23481052.6254                   23481056.5354
        41.5004         22.7504
 05 12 23  0 21  0.0000000  0 10G03G09G16G04G28G26G06G31G07G01
 -36992119.89148 -28801440.27748  19955460.9924                   19955462.1994
        50.0004         50.5004
 -12280899.28946  -9543666.25845  23103977.6484                   23103981.2504
        40.0004         34.5004
 -23049571.77347 -17455197.33645  21623239.4844                   21623239.3834
        45.0004         32.0004
 -31774764.82847 -23379589.18746  20851592.8834                   20851592.8914
        47.2504         36.2504
                                  25166766.6094                   25166770.1054
        30.2504         16.2504
 -27814740.71147 -21648789.39847  21508650.3134                   21508652.7424
        47.2504         43.0004
  -4882761.43446  -3780772.14144  24642986.9774                   24642991.8754
        38.0004         28.0004
 -28803505.71947 -22412287.07446  22322193.6484                   22322192.7934
        44.5004         39.2504
  -1209589.80146   -918329.39844  24846266.3524                   24846274.5864
        38.7504         28.7504
 -21687839.42246 -16854447.41443  23493003.3524                   23493007.3674
        41.7504         22.7504
 05 12 23  0 21 30.0000000  0 10G03G09G16G04G28G26G06G31G07G01
 -37003730.95348 -28810487.85948  19953251.4454                   19953252.7034
        50.2504         50.5004
 -12386340.98846  -9625828.48045  23083912.1484                   23083915.8954
        41.5004         35.7504
 -23151901.10247 -17534934.38745  21603766.8054                   21603766.1414
        45.2504         32.5004
 -31839568.38747 -23430085.44146  20839260.7424                   20839261.1054
        47.7504         36.5004
 -13489248.53144 -10490403.60942  25179998.1024                   25180001.5984
        29.2504         15.5004
 -27826582.58647 -21658016.81647  21506396.2584                   21506398.7384
        47.5004         43.0004
  -4944292.07046  -3828718.06244  24631277.5554                   24631282.8364
        39.0004         29.0004
 -28740911.50047 -22363512.41046  22334104.8524                   22334104.0314
        43.5004         39.2504
  -1321444.43446  -1005488.45344  24824981.2664                   24824989.1334
        38.7504         29.2504
 -21624906.41846 -16805408.92643  23504979.4224                   23504984.3984
        40.7504         22.2504
 05 12 23  0 22  0.0000000  0 10G03G09G16G04G28G26G06G31G07G01
 -37014731.76248 -28819059.92248  19951157.8754                   19951159.1844
        50.2504         50.5004
 -12491710.76246  -9707934.68046  23063861.7194                   23063864.7934
        41.2504         36.2504
 -23253739.22747 -17614288.68445  21584387.7504                   21584387.5164
        45.7504         32.5004
 -31904170.68047 -23480424.86746  20826967.5704                   20826967.7034
        47.0004         36.2504
 -13419721.23445 -10436226.61742  25193228.1564                   25193231.5664
        31.5004         16.7504
 -27837771.48047 -21666735.42247  21504266.9534                   21504269.3914
        47.2504         43.0004
  -5005268.49246  -3876232.14144  24619675.3984                   24619678.9184
        39.0004         29.2504
 -28678113.60247 -22314579.02746  22346054.4304                   22346054.2664
        44.0004         39.5004
  -1433103.39846  -1092495.03544  24803732.8524                   24803740.7464
        38.0004         26.0004
 -21561846.50846 -16756271.59043  23516979.1724                   23516984.1374
        38.7504         22.5004
 05 12 23  0 22 30.0000000  0 10G03G09G16G04G28G26G06G31G07G01
 -37025124.79748 -28827158.39548  19949180.2194                   19949181.7114
        50.2504         50.5004
 -12597010.72747  -9789986.47746  23043823.3364                   23043827.2774
        42.0004         36.0004
 -23355085.65247 -17693259.83645  21565101.4694                   21565101.3134
        44.7504         32.5004
 -31968573.59847 -23530608.93446  20814712.0394                   20814712.3674
        47.0004         36.0004
 -13350201.09455 -10382055.12153  25206457.9144                   25206460.7424
        33.5004         18.5004
 -27848310.42647 -21674947.57447  21502261.8594                   21502264.5084
        47.2504         43.2504
  -5065692.55146  -3923315.79344  24608175.5234                   24608181.1804
        37.5004         28.2504
 -28615116.75847 -22265490.61746  22358042.5864                   22358041.9614
        44.5004         38.0004
  -1544568.60246  -1179350.64544  24782521.6644                   24782529.0004
        37.2504         26.0004
 -21498665.09446 -16707039.59043  23529001.8914                   23529008.0354
        37.7504         22.5004
 05 12 23  0 23  0.0000000  0 10G03G09G16G04G28G26G06G31G07G01
 -37034907.64848 -28834781.40248  19947318.6174                   19947319.8054
        50.0004         50.5004
 -12702238.05547  -9871981.67246  23023799.3984                   23023802.3834
        42.2504         36.5004
 -23455934.99647 -17771843.65645  21545910.6644                   21545910.5044
        45.5004         32.2504
 -32032774.28148 -23580635.41046  20802495.3364                   20802495.4574
        48.0004         36.0004
 -13280687.07445 -10327888.40243  25219686.3984                   25219688.5824
        35.2504         18.5004
 -27858197.64547 -21682651.89147  21500380.2894                   21500382.5084
        46.5004         43.2504
  -5125561.17246  -3969966.63344  24596784.3914                   24596788.3834
        38.2504         29.0004
 -28551920.50047 -22216246.83246  22370068.5864                   22370068.2424
        44.7504         38.5004
  -1655836.92645  -1266052.83644  24761347.0704                   24761355.3984
        35.5004         24.5004
 -21435363.09446 -16657713.63343  23541049.2114                   23541054.2274
        36.7504         23.0004
 05 12 23  0 23 30.0000000  0 10G03G09G16G04G28G26G06G31G07G01
 -37044079.63348 -28841928.40248  19945573.2114                   19945574.6414
        50.0004         50.5004
 -12807391.59447  -9953919.39846  23003789.0084                   23003792.7344
        42.5004         37.0004
 -23556283.35547 -17850037.09845  21526815.0164                   21526814.8094
        44.5004         32.7504
 -32096771.38347 -23630503.24646  20790316.7974                   20790316.8094
        47.2504         36.0004
 -13211179.74246 -10273726.91043  25232912.7974                   25232914.9264
        37.5004         20.0004
 -27867433.02047 -21689848.28147  21498622.5784                   21498625.2194
        47.0004         42.7504
  -5184873.07846  -4016183.68444  24585497.1564                   24585502.2814
        37.5004         28.7504
 -28488527.20747 -22166849.50046  22382132.2664                   22382131.3594
        44.5004         38.5004
  -1766906.88345  -1352600.47344  24740211.0944                   24740218.4264
        35.0004         24.0004
 -21371942.74646 -16608295.45343  23553116.8364                   23553123.5004
        37.5004         22.7504
 05 12 23  0 24  0.0000000  0 10G03G09G16G04G28G26G06G31G07G01
 -37052639.57048 -28848598.48848  19943944.6884                   19943945.7854
        49.7504         50.5004
 -12912469.69547 -10035798.33246  22983793.3204                   22983796.5864
        43.0004         37.5004
 -23656126.78547 -17927837.09445  21507815.5234                   21507815.2504
        45.5004         31.5004
 -32160563.12147 -23680211.07846  20778177.5314                   20778178.0944
        47.2504         36.0004
 -13141679.25046 -10219570.73043  25246138.2034                   25246140.9384
        38.7504         20.0004
 -27876015.90247 -21696536.23047  21496989.5394                   21496991.9414
        46.0004         43.0004
  -5243626.40646  -4061965.47344  24574317.3444                   24574321.3674
        37.5004         28.2504
 -28424937.80547 -22117299.35946  22394233.0784                   22394232.0274
        45.0004         38.2504
  -1877776.71945  -1438992.18044  24719112.4304                   24719120.7974
        35.5004         24.5004
 -21308405.96146 -16558786.59844  23565208.2734                   23565214.2194
        39.5004         25.2504
 05 12 23  0 24 30.0000000  0 10G03G09G16G04G28G26G06G31G07G01
 -37060592.22748 -28854795.37148  19942430.9224                   19942432.3444
        50.0004         50.5004
 -13017476.67247 -10117621.85946  22963810.8134                   22963814.7384
        42.7504         36.7504
 -23755466.39147 -18005244.49245  21488911.2974                   21488911.3404
        45.5004         32.0004
 -32224153.67647 -23729762.11745  20766076.8674                   20766076.8794
        46.5004         35.5004
 -13072191.72346 -10165424.63343  25259361.0004                   25259363.6884
        40.0004         19.7504
 -27883951.75447 -21702720.01247  21495478.8134                   21495481.6254
        46.2504         43.0004
  -5301825.27046  -4107315.20744  24563241.3364                   24563246.4184
        37.2504         28.0004
 -28361159.12947 -22067601.73446  22406369.2814                   22406368.6994
        44.5004         38.2504
  -1988450.09446  -1525230.83644  24698052.7974                   24698060.5394
        37.5004         26.0004
 -21244760.64846 -16509193.10944  23577319.8834                   23577325.8954
        40.5004         26.7504
 05 12 23  0 25  0.0000000  0 10G03G09G16G04G28G26G06G31G07G01
