     2.11           OBSERVATION DATA    G (GPS)             RINEX VERSION / TYPE
teqc  2019Feb25     K Rivera            20250820 04:59:04UTCPGM / RUN BY / DATE
Linux 2.6.32-573.12.1.x86_64|x86_64|gcc -static|Linux 64|=+ COMMENT
teqc  2019Feb25                         20250820 04:58:19UTCCOMMENT
BIT 2 OF LLI FLAGS DATA COLLECTED UNDER A/S CONDITION       COMMENT
0634                                                        MARKER NAME
                                                            MARKER NUMBER
K Baraggiotta       University of California, Riverside     OBSERVER / AGENCY
0220413532          TRIMBLE R7          2.32                REC # / TYPE / VERS
12118428            TRM41249.00                             ANT # / TYPE
 -2414917.4485 -4545227.4077  3756112.1787                  APPROX POSITION XYZ
        1.2371        0.0000        0.0000                  ANTENNA: DELTA H/E/N
     1     1                                                WAVELENGTH FACT L1/2
     7    L1    L2    C1    P1    P2    S1    S2            # / TYPES OF OBSERV
    18                                                      LEAP SECONDS
 SNR is mapped to RINEX snr flag value [0-9]                COMMENT
  L1 & L2: min(max(int(snr_dBHz/6), 0), 9)                  COMMENT
  2025     8     6     0     0   30.0000000     GPS         TIME OF FIRST OBS
                                                            END OF HEADER
 25  8  6  0  0 30.0000000  0 10G26G02G03G06G09G16G04G31G01G28
 -85743007.99657 -67836131.76256  21459414.2114                   21459417.5904
        47.2504         41.5004
-119323700.16056 -92882266.64153  24508560.1094                   24508565.9884
        40.7504         19.5004
-113185772.62158 -88123557.81258  19857230.2114                   19857231.7734
        49.2504         49.5004
  -2122077.18056  -5556708.84055  25010228.5704                   25010233.8164
        39.2504         30.5004
 -11887520.30556  -9084032.93054  23834889.8364                   23834895.8984
        37.0004         29.7504
 -47707217.64157 -32235748.20754  22530031.3674                   22530034.0354
        42.5004         24.5004
 -85402855.96157 -66308510.76655  21179099.1954                   21179100.0984
        45.7504         34.5004
-146578447.70357-114216965.43757  21285703.1334                   21285701.8164
        46.7504         43.0004
-133896999.59057-104127819.30954  22503701.5004                   22503705.0394
        44.0004         28.7504
-123445366.23056 -96101153.93053  23969133.7894                   23969134.9844
        40.2504         23.7504
 25  8  6  0  1  0.0000000  0 10G26G02G03G06G09G16G04G31G01G28
 -84447282.23847 -66826475.26646  21705982.3914                   21705985.5394
        46.7504         41.5004
-117919801.99646 -91788320.28943  24775712.9844                   24775719.2074
        39.7504         21.5004
-111882732.75848 -87108202.07048  20105190.5784                   20105192.1564
        49.5004         49.5004
   -866163.41446  -4578074.73444  25249221.5864                   25249226.1844
        39.7504         28.0004
 -10650582.10246  -8120184.81244  24070271.5004                   24070277.0744
        38.0004         29.2504
 -46486327.23047 -31284404.84844  22762359.2814                   22762360.7774
        42.7504         26.0004
 -84131959.76247 -65318201.97745  21420942.2504                   21420943.2624
        45.7504         34.0004
-145185477.15247-113131533.85247  21550776.8914                   21550775.8164
        47.2504         43.0004
-132498417.90647-103038015.53144  22769843.2344                   22769846.2544
        43.7504         29.7504
-122031319.96546 -94999299.73844  24238217.9694                   24238218.7154
        40.0004         24.5004
 25  8  6  0  1 30.0000000  0 10G26G02G03G06G09G16G04G31G01G28
 -84726393.11347 -67043964.20746  21652869.5084                   21652872.5784
        46.7504         41.7504
-118091390.64546 -91922026.03143  24743061.1644                   24743067.7974
        40.0004         20.5004
-112154590.78148 -87320039.48448  20053457.6884                   20053459.0824
        49.7504         49.5004
  -1185236.34446  -4826703.01244  25188503.6334                   25188507.9224
        39.5004         28.0004
 -10989056.06646  -8383930.59845  24005862.3134                   24005867.5514
        39.0004         30.7504
 -46840617.28147 -31560474.85244  22694940.4614                   22694941.6724
        43.0004         27.2504
 -84436349.56647 -65555388.77345  21363019.3834                   21363020.1294
        46.2504         34.5004
-145367617.98847-113273461.79347  21516116.7034                   21516115.6724
        47.0004         43.5004
-132675003.52347-103175614.85244  22736239.3834                   22736243.0744
        43.5004         28.7504
-122192642.79346 -95125005.89543  24207518.9694                   24207520.0274
        40.0004         22.7504
 25  8  6  0  2  0.0000000  0 10G26G02G03G06G09G16G04G31G01G28
 -85004914.12147 -67260993.50046  21599868.6724                   21599871.5004
        47.0004         41.7504
-118263046.63746 -92055784.27043  24710396.2664                   24710402.7854
        39.2504         21.2504
-112425920.38748 -87531465.14548  20001825.4844                   20001826.6254
        49.0004         49.5004
  -1503867.50446  -5074987.05544  25127870.1884                   25127874.8014
        39.5004         26.7504
 -11327514.78946  -8647664.53145  23941455.0704                   23941460.5634
        39.0004         30.0004
 -47194656.06647 -31836349.05144  22627568.7344                   22627570.1724
        43.2504         27.0004
 -84740598.93447 -65792466.14145  21305121.9694                   21305123.1644
        45.7504         34.2504
-145549450.77747-113415149.69947  21481514.9064                   21481514.0004
        46.7504         42.7504
-132851337.61747-103313018.17244  22702684.8914                   22702688.0124
        43.7504         29.0004
-122353915.37546 -95250672.91443  24176829.6334                   24176831.2034
        40.0004         22.5004
 25  8  6  0  2 30.0000000  0 10G26G02G03G06G09G16G04G31G01G28
 -85282844.22347 -67477562.35546  21546980.1644                   21546983.1294
        47.2504         41.7504
-118434772.82846 -92189597.20343  24677718.6884                   24677725.1914
        36.7504         21.0004
-112696720.42248 -87742478.15248  19950293.8364                   19950295.0664
        49.5004         49.7504
  -1822055.21546  -5322925.54344  25067321.5314                   25067325.8404
        38.0004         25.2504
 -11665958.13746  -8911386.48045  23877051.9064                   23877056.6954
        39.7504         30.5004
 -47548440.65247 -32112025.18444  22560245.3134                   22560246.6054
        42.7504         25.5004
 -85044707.73447 -66029433.97745  21247252.6024                   21247253.2034
        45.7504         34.5004
-145730977.89147-113556599.41847  21446971.4454                   21446970.3594
        45.7504         43.0004
-133027423.40247-103450228.00044  22669176.7114                   22669180.1954
        44.0004         28.5004
-122515139.56646 -95376302.22743  24146149.1094                   24146150.9264
        38.5004         22.5004
 25  8  6  0  3  0.0000000  0 10G26G02G03G06G09G16G04G31G01G28
 -85560178.80147 -67693667.16847  21494205.5634                   21494208.2624
        47.0004         42.2504
-118606568.38746 -92323464.16443  24645027.1724                   24645033.3094
        36.0004         20.2504
-112966986.25448 -87953074.89548  19898863.7584                   19898865.1724
        49.0004         49.5004
  -2139794.13346  -5570514.32844  25006857.5944                   25006861.8874
        39.0004         24.5004
 -12004382.50046  -9175093.63745  23812651.4144                   23812656.3914
        39.0004         31.0004
 -47901963.94547 -32387497.70344  22492972.2734                   22492973.3984
        42.5004         27.2504
 -85348672.15247 -66266289.30545  21189409.7504                   21189410.3984
        46.2504         34.5004
-145912198.46147-113697810.27747  21412486.3914                   21412485.4224
        46.2504         42.7504
-133203260.43447-103587244.00844  22635716.6334                   22635719.9414
        43.0004         28.7504
-122676313.86346 -95501892.63343  24115479.5004                   24115480.8524
        38.5004         21.0004
 25  8  6  0  3 30.0000000  0 10G26G02G03G06G09G16G04G31G01G28
 -85836917.18447 -67909307.40247  21441543.4534                   21441546.2344
        47.0004         42.0004
-118778436.08245 -92457387.38343  24612321.1644                   24612328.5984
        34.2504         18.2504
-113236717.05948 -88163254.73048  19847535.8524                   19847537.2624
        50.2504         49.7504
  -2457083.08646  -5817752.48444  24946479.8284                   24946483.5044
        39.0004         24.0004
 -12342788.07446  -9438786.15245  23748255.5394                   23748259.9454
        39.2504         30.7504
 -48255222.75447 -32662764.14144  22425749.1954                   22425750.2274
        42.7504         27.0004
 -85652492.32447 -66503032.23045  21131594.7274                   21131595.7544
        45.0004         34.5004
-146093115.51247-113838784.63347  21378058.9694                   21378057.8364
        45.7504         42.2504
-133378852.22747-103724068.89844  22602302.7504                   22602305.9614
        43.5004         28.7504
-122837440.60946 -95627446.01643  24084818.5634                   24084819.6764
        38.7504         20.5004
 25  8  6  0  4  0.0000000  0 10G26G02G03G06G09G16G04G31G01G28
 -84537624.60247 -66896871.58647  21688790.6954                   21688793.4024
        46.5004         42.0004
-117374948.43445 -91363760.98043  24879396.7114                   24879403.5164
        32.5004         18.5004
-111930478.22348 -87145406.27748  20096104.7814                   20096106.2974
        49.7504         49.5004
  -1198485.18446  -4837026.83644  25185982.7424                   25185987.1214
        38.2504         25.7504
 -11105738.90246  -8474851.57445  23983657.3364                   23983662.3984
        37.7504         31.5004
 -47032777.15647 -31710208.94144  22658372.4844                   22658373.9064
        43.2504         25.7504
 -84380733.27747 -65512051.09845  21373602.4774                   21373603.2624
        45.5004         34.7504
-144698301.14847-112751916.31647  21643483.5234                   21643482.4264
        46.0004         42.0004
-131978771.44947-102633097.00044  22868729.8364                   22868732.4414
        43.5004         28.2504
-121423091.62946 -94525355.98443  24353959.7424                   24353960.8914
        37.5004         19.5004
 25  8  6  0  4 30.0000000  0 10G26G02G03G06G09G16G04G31G01G28
 -84813159.39847 -67111573.96946  21636358.1254                   21636361.0044
        47.0004         41.7504
-117546960.14845 -91497796.39142  24846664.5704                   24846670.9064
        33.5004         16.7504
-112199127.49648 -87354743.36348  20044982.5474                   20044983.9574
        49.5004         49.7504
  -1514860.68446  -5083553.21543  25125778.0704                   25125782.6484
        37.7504         22.5004
 -11444098.23846  -8738508.03145  23919269.8204                   23919275.0784
        37.7504         30.2504
 -47385488.42247 -31985048.73444  22591253.3134                   22591255.0664
        43.2504         26.7504
 -84684255.94947 -65748562.20745  21315844.0004                   21315844.7424
        46.2504         34.7504
-144878610.93747-112892417.47747  21609171.7274                   21609170.6844
        46.0004         42.5004
-132153873.89147-102769540.57044  22835408.5314                   22835411.6804
        43.0004         28.7504
-121584120.62546 -94650833.16043  24323316.8364                   24323318.4024
        39.0004         19.2504
 25  8  6  0  5  0.0000000  0 10G26G02G03G06G09G16G04G31G01G28
 -85088090.40647 -67325805.87147  21584040.3444                   21584043.1644
        47.2504         42.0004
-117719046.85545 -91631890.27743  24813917.2814                   24813924.0824
        34.7504         18.2504
-112467233.87148 -87563657.41848  19993963.4224                   19993965.0704
        49.2504         49.7504
  -1830776.43446  -5329721.32844  25065661.4924                   25065666.5704
        37.5004         24.5004
 -11782433.73846  -9002145.90245  23854885.7664                   23854891.3404
        37.5004         30.5004
 -47737920.24647 -32259670.77344  22524188.1564                   22524189.4884
        43.0004         27.2504
 -84987628.99247 -65984956.71945  21258113.8284                   21258114.4844
        47.2504         34.5004
-145058620.77347-113032684.90247  21574916.7504                   21574915.9144
        46.7504         42.2504
-132328735.90247-102905796.80544  22802133.6484                   22802136.8204
        43.0004         27.5004
-121745103.15646 -94776274.16843  24292682.6564                   24292684.0204
        39.2504         18.5004
 25  8  6  0  5 30.0000000  0 10G26G02G03G06G09G16G04G31G01G28
 -85362416.00847 -67539566.03147  21531838.2584                   21531841.1134
        47.5004         42.0004
-117891210.74245 -91766044.26642  24781155.1644                   24781163.0434
        34.7504         17.7504
-112734795.55948 -87772147.03548  19943048.3914                   19943049.7584
        49.7504         49.5004
  -2146230.15246  -5575529.39144  25005632.9614                   25005636.9534
        38.0004         26.7504
 -12120744.52746  -9265764.52345  23790507.8284                   23790512.9694
        38.5004         31.2504
 -48090068.51647 -32534071.85544  22457175.9144                   22457177.4734
        43.5004         26.2504
 -85290851.43047 -66221233.89545  21200412.5864                   21200412.8984
        46.5004         35.0004
-145238332.55547-113172720.07447  21540718.8364                   21540717.8244
        47.0004         42.5004
-132503359.77047-103041867.48444  22768903.8284                   22768907.0744
        43.2504         28.0004
-121906040.35546 -94901679.85543  24262057.9924                   24262059.0434
        39.0004         19.2504
 25  8  6  0  6  0.0000000  0 10G26G02G03G06G09G16G04G31G01G28
 -85636134.75847 -67752853.30947  21479750.6484                   21479753.6524
        47.0004         42.0004
-118063453.84446 -91900259.96943  24748378.5234                   24748386.7274
        36.0004         19.0004
-113001811.01648 -87980211.01248  19892237.2194                   19892238.4534
        49.2504         49.5004
  -2461219.66446  -5820975.76244  24945692.1094                   24945696.7894
        38.2504         27.0004
 -12459029.82446  -9529363.28145  23726134.7664                   23726138.7974
        39.5004         32.2504
 -48441929.36747 -32808248.98044  22390219.3674                   22390220.6454
        43.0004         26.7504
 -85593922.43047 -66457393.06245  21142739.8914                   21142740.5864
        47.2504         34.7504
-145417748.38347-113312524.63347  21506577.0784                   21506576.3204
        47.2504         42.2504
-132677748.30547-103177754.78944  22735718.9384                   22735722.0554
        42.2504         27.7504
-122066933.54346 -95027051.21143  24231440.6954                   24231441.8594
        39.5004         19.0004
 25  8  6  0  6 30.0000000  0 10G26G02G03G06G09G16G04G31G01G28
 -85909247.96547 -67965668.74647  21427779.3284                   21427781.9064
        47.0004         42.2504
-118235780.93746 -92034541.08643  24715586.7664                   24715594.0744
        36.0004         19.0004
-113268281.35248 -88187850.22748  19841529.1174                   19841530.8634
        49.5004         49.7504
  -2775745.35946  -6066060.69544  24885839.6024                   24885844.7544
        38.2504         25.5004
 -12797291.71946  -9792943.79345  23661764.4224                   23661769.7584
        40.0004         31.5004
 -48793501.35247 -33082200.99644  22323317.4064                   22323318.8714
        42.5004         28.0004
 -85896843.89147 -66693435.70345  21085095.7504                   21085096.7464
        46.7504         35.0004
-145596872.71547-113452102.05147  21472491.1804                   21472490.1454
        46.7504         42.0004
-132851906.71547-103313462.76244  22702577.7344                   22702580.8284
        42.7504         27.7504
-122227786.85246 -95152391.50043  24200831.7344                   24200833.2194
        39.2504         19.5004
 25  8  6  0  7  0.0000000  0 10G26G02G03G06G09G16G04G31G01G28
 -86181753.10947 -68178010.37547  21375923.2504                   21375925.9184
        47.2504         42.0004
-118408192.71545 -92168888.24243  24682778.3054                   24682785.3404
        35.2504         20.2504
-113534203.96148 -88395062.64148  19790926.1724                   19790927.3014
        49.2504         49.5004
  -3089804.20346  -6310781.84444  24826076.4454                   24826081.3674
        38.5004         28.0004
 -13135528.30146 -10056504.61345  23597400.5314                   23597405.6954
        39.2504         32.2504
 -49144779.22347 -33355923.84844  22256470.8984                   22256472.3244
        43.0004         26.5004
 -86199613.87947 -66929360.31645  21027480.8444                   21027480.8594
        47.7504         34.7504
-145775706.95747-113591453.41447  21438460.1644                   21438458.8444
        46.5004         42.5004
-133025836.52747-103448992.60944  22669479.5394                   22669482.9064
        42.2504         27.5004
-122388600.44146 -95277700.84843  24170230.0474                   24170231.5554
        40.0004         20.0004
 25  8  6  0  7 30.0000000  0 10G26G02G03G06G09G16G04G31G01G28
 -84878220.05147 -67162270.28547  21623977.3914                   21623980.2424
        47.0004         42.5004
-117005265.83646 -91075698.77343  24949746.4774                   24949753.8014
        37.0004         19.7504
-112224148.77048 -87374240.39848  20040220.9694                   20040222.7584
        48.7504         49.5004
  -1827963.86746  -5327529.61344  25066196.9924                   25066201.6994
        38.0004         28.5004
 -11898307.96946  -9092436.65245  23832835.0004                   23832840.3594
        40.0004         32.5004
 -47920328.02047 -32401805.86744  22489476.2274                   22489477.4144
        42.5004         27.5004
 -84926801.78947 -65937558.64545  21269688.6884                   21269689.2854
        47.2504         34.5004
-144378827.32847-112502975.80147  21704277.1094                   21704276.2194
        46.5004         42.5004
-131624114.81247-102356742.05544  22936219.0634                   22936222.4064
        43.0004         27.5004
-120973950.58246 -94175376.33643  24439428.7274                   24439430.4774
        40.5004         20.2504
 25  8  6  0  8  0.0000000  0 10G26G02G03G06G09G16G04G31G01G28
 -85149505.85547 -67373661.78147  21572353.2664                   21572356.1454
        46.5004         42.5004
-117177853.87546 -91210183.27743  24916904.0704                   24916912.1954
        36.5004         21.5004
-112488972.18748 -87580596.29748  19989826.9534                   19989828.0354
        48.7504         49.5004
  -2141083.28146  -5571518.73844  25006612.6094                   25006616.8164
        39.5004         28.7504
 -12236492.76646  -9355957.10545  23768481.2034                   23768486.1174
        40.2504         32.5004
 -48271007.34847 -32675062.30944  22422744.1644                   22422745.2854
        42.5004         26.7504
 -85229267.18047 -66173245.91445  21212131.4454                   21212131.9064
        47.0004         35.2504
-144557088.07447-112641880.28547  21670355.4924                   21670354.4884
        46.5004         42.0004
-131797596.03147-102491922.34044  22903206.5234                   22903210.2774
        42.0004         26.2504
-121134689.50846 -94300627.48843  24408841.5704                   24408842.5904
        40.7504         21.5004
 25  8  6  0  8 30.0000000  0 10G26G02G03G06G09G16G04G31G01G28
 -85420181.28547 -67584577.65647  21520845.6884                   21520848.2384
        46.5004         42.7504
-117350534.28546 -91344739.74643  24884044.6724                   24884051.5904
        37.2504         21.5004
-112753245.04348 -87786523.18748  19939537.3524                   19939538.8284
        49.5004         49.7504
  -2453731.18446  -5815140.46145  24947117.3054                   24947121.9924
        40.0004         30.0004
 -12574651.79346  -9619457.47745  23704130.8984                   23704136.3754
        39.5004         32.7504
 -48621382.30147 -32948081.60244  22356069.8594                   22356071.3484
        42.2504         28.0004
 -85531580.28147 -66408814.50445  21154603.1334                   21154603.8914
        45.7504         34.7504
-144735066.46547-112780564.75446  21636487.4924                   21636486.2584
        46.5004         41.7504
-131970858.14147-102626931.91044  22870236.1024                   22870239.0314
        42.5004         27.0004
-121295394.38746 -94425852.11343  24378260.3054                   24378262.1604
        41.2504         22.0004
 25  8  6  0  9  0.0000000  0 10G26G02G03G06G09G16G04G31G01G28
 -85690243.55147 -67795015.74247  21469454.1724                   21469457.2464
        45.7504         42.5004
-117523307.65646 -91479368.68743  24851167.6724                   24851174.6804
        37.7504         21.5004
-113016964.39848 -87992018.77748  19889353.5164                   19889354.7424
        48.0004         49.5004
  -2765903.92646  -6058391.93445  24887712.7424                   24887717.3244
        40.0004         30.2504
 -12912782.83246  -9882936.02745  23639786.8524                   23639791.5984
        40.2504         32.7504
 -48971447.86747 -33220859.79344  22289454.1094                   22289455.4264
        42.0004         27.7504
 -85833738.71147 -66644262.58245  21097103.9384                   21097104.3364
        46.2504         35.2504
-144912763.53947-112919030.01647  21602672.6954                   21602671.6764
        46.7504         42.0004
-132143902.28147-102761771.62544  22837306.6254                   22837310.6764
        42.5004         27.5004
-121456064.87146 -94551049.94143  24347685.2894                   24347687.2774
        41.5004         22.7504
 25  8  6  0  9 30.0000000  0 10G26G02G03G06G09G16G04G31G01G28
 -85959690.83247 -68004974.61747  21418180.3284                   21418182.8484
        45.7504         42.5004
-117696175.16246 -91614070.94243  24818272.1724                   24818279.3204
        38.5004         20.7504
-113280128.17648 -88197081.44548  19839275.0554                   19839276.0664
        48.7504         49.5004
  -3077598.89846  -6301271.10545  24828399.6334                   24828403.4844
        41.0004         31.5004
 -13250884.55546 -10146391.72745  23575448.0864                   23575453.2384
        40.7504         33.5004
 -49321199.18747 -33493393.13344  22222899.2034                   22222900.0314
        43.0004         28.0004
 -86135741.06647 -66879589.03945  21039635.4844                   21039635.7304
        47.0004         34.5004
-145090180.43747-113057276.95347  21568911.7814                   21568910.5204
        46.2504         42.2504
-132316730.49247-102896443.09444  22804418.7664                   22804422.0904
        43.0004         25.7504
-121616701.76646 -94676221.60243  24317117.6094                   24317119.1644
        41.5004         22.5004
 25  8  6  0 10  0.0000000  0 10G26G02G03G06G09G16G04G31G01G28
 -86228525.86747 -68214456.42247  21367023.0004                   21367025.7304
        46.0004         42.7504
-117869142.95346 -91748851.30943  24785357.0864                   24785365.1174
        38.0004         22.0004
-113542739.00048 -88401713.24248  19789301.5634                   19789302.7304
        49.0004         49.5004
  -3388818.05146  -6543779.52045  24769176.0004                   24769180.5274
        41.0004         30.7504
 -13588960.24246 -10409827.15245  23511114.4924                   23511119.3164
        40.5004         34.0004
 -49670636.49247 -33765681.77744  22156402.9384                   22156404.0124
        42.0004         27.7504
 -86437590.52047 -67114796.35545  20982195.0084                   20982195.6294
        47.2504         34.7504
-145267323.16047-113195310.25447  21535202.3364                   21535201.4304
        46.5004         42.2504
-132489349.34046-103030951.41844  22771570.6564                   22771574.5044
        41.0004         27.0004
-121777310.29347 -94801371.13743  24286554.5944                   24286556.6564
        42.0004         22.0004
 25  8  6  0 10 30.0000000  0 10G26G02G03G06G09G16G04G31G01G28
 -84921317.11747 -67195852.16047  21615776.2974                   21615778.7464
        46.2504         42.5004
-116466785.59846 -90656105.60243  25052216.3204                   25052224.7774
        38.2504         21.2504
-112229365.32048 -87378305.16448  20039228.3284                   20039229.4384
        50.0004         49.5004
  -2124127.71546  -5558306.52044  25009839.0314                   25009842.9384
        41.2504         29.7504
 -12351576.40646  -9445631.77045  23746580.6804                   23746585.1914
        41.0004         35.5004
 -48444322.46547 -32810112.24644  22389762.6644                   22389763.8634
        42.5004         27.5004
 -85163854.64547 -66122274.82445  21224578.5314                   21224579.0904
        47.0004         35.0004
-143868766.33647-112105525.72747  21801338.7974                   21801337.9964
        47.2504         42.2504
-131086334.28547-101937693.07044  23038555.4694                   23038559.2344
        42.2504         27.2504
-120362464.94546 -93698894.29743  24555791.1024                   24555792.6294
        41.2504         22.5004
 25  8  6  0 11  0.0000000  0 10G26G02G03G06G09G16G04G31G01G28
 -85188922.35247 -67404375.67647  21564852.0554                   21564855.4184
        46.0004         42.5004
-116639957.88346 -90791045.30143  25019263.5314                   25019271.8364
        39.7504         23.0004
-112490864.30148 -87582070.59448  19989466.8284                   19989468.3444
        48.2504         49.5004
  -2434387.52046  -5800067.38745  24950798.4694                   24950802.6804
        40.7504         30.0004
 -12689596.00446  -9709023.47345  23682257.2664                   23682262.5474
        41.0004         35.5004
 -48793117.94547 -33081900.77044  22323388.6804                   22323389.8874
        42.5004         28.2504
 -85465393.80947 -66357240.34445  21167197.7274                   21167198.2974
        47.5004         34.7504
-144045365.17247-112243135.22747  21767733.2734                   21767732.2464
        46.7504         42.0004
-131258540.57046-102071879.92644  23005785.7034                   23005789.9344
        41.7504         26.7504
-120523018.75846 -93824001.20343  24525239.0394                   24525240.1024
        41.5004         22.2504
 25  8  6  0 11 30.0000000  0 10G26G02G03G06G09G16G04G31G01G28
 -85455908.12147 -67612416.48447  21514046.7034                   21514049.7344
        46.0004         42.7504
-116813232.50446 -90926064.74643  24986290.6954                   24986298.9534
        39.0004         22.2504
-112751802.40248 -87785398.97348  19939811.7974                   19939812.9614
        48.5004         49.5004
  -2744161.73846  -6041449.88344  24891850.3444                   24891854.1884
        40.7504         29.0004
 -13027583.50446  -9972390.17245  23617940.8134                   23617945.5514
        41.5004         35.5004
 -49141583.70347 -33353432.37144  22257078.3674                   22257078.8714
        42.5004         28.5004
 -85766773.66047 -66592081.72745  21109847.2664                   21109847.4024
        47.5004         35.2504
-144221692.47347-112380533.13346  21734179.2504                   21734178.2854
        47.2504         41.7504
-131430541.61346-102205906.84444  22973055.1024                   22973058.9064
        41.7504         26.7504
-120683544.16046 -93949086.01643  24494691.4694                   24494693.1954
        40.2504         22.7504
 25  8  6  0 12  0.0000000  0 10G26G02G03G06G09G16G04G31G01G28
 -85722265.02047 -67819967.27347  21463360.5864                   21463363.4694
        46.2504         43.0004
-116986602.80546 -91061158.76243  24953299.8674                   24953307.3404
        39.7504         21.2504
-113012170.01248 -87988282.81248  19890265.4454                   19890267.0434
        48.5004         49.5004
  -3053440.21946  -6282446.09044  24832996.7344                   24833000.8714
        40.5004         29.5004
 -13365529.89146 -10235724.83645  23553631.2424                   23553636.2274
        41.0004         35.7504
 -49489707.35247 -33624697.39844  22190832.1414                   22190833.2424
        42.7504         27.5004
 -86067985.04347 -66826791.82845  21052528.0394                   21052528.7034
        47.5004         34.7504
-144397741.80147-112517714.44146  21700678.0474                   21700677.1024
        47.5004         41.7504
-131602331.73046-102339769.41444  22940364.5394                   22940368.5124
        41.2504         26.5004
-120844034.18046 -94074143.23043  24464151.6564                   24464153.0204
        40.0004         22.7504
 25  8  6  0 12 30.0000000  0 10G26G02G03G06G09G16G04G31G01G28
 -85987996.44547 -68027030.67647  21412793.5704                   21412796.4024
        46.2504         42.5004
-117160075.64846 -91196332.65643  24920289.1414                   24920296.9844
        40.0004         20.7504
-113271970.41048 -88190724.66448  19840827.3444                   19840828.4264
        49.0004         49.5004
  -3362225.51646  -6523058.00844  24774236.2894                   24774241.3094
        40.5004         28.2504
 -13703438.97746 -10499030.43745  23489329.6484                   23489333.7154
        41.0004         34.0004
 -49837489.75847 -33895696.52344  22124651.0474                   22124652.2154
        43.2504         28.2504
 -86369031.62947 -67061373.52745  20995240.9844                   20995241.3054
        47.5004         35.5004
-144573520.19547-112654684.63746  21667228.6564                   21667227.5664
        47.2504         41.5004
-131773918.13346-102473473.24644  22907713.3444                   22907717.2234
        40.7504         26.0004
-121004494.53546 -94199177.34843  24433616.8674                   24433618.0984
        39.5004         22.7504
 25  8  6  0 13  0.0000000  0 10G26G02G03G06G09G16G04G31G01G28
 -86253101.84047 -68233606.26247  21362345.8054                   21362348.4694
        47.5004         42.5004
-117333653.22746 -91331588.16643  24887258.5704                   24887266.5864
        39.5004         19.7504
-113531202.70748 -88392723.84848  19791496.8284                   19791498.1604
        48.2504         49.5004
  -3670516.09446  -6763284.41844  24715570.7034                   24715574.6054
        39.5004         27.0004
 -14041310.39847 -10762306.69945  23425033.9924                   23425038.8284
        42.0004         34.7504
 -50184927.68747 -34166427.21944  22058536.3364                   22058537.0204
        42.7504         28.5004
 -86669912.94147 -67295826.44145  20937985.2734                   20937985.6564
        47.7504         34.7504
-144749029.76647-112791445.35946  21633830.3834                   21633829.1174
        45.7504         41.5004
-131945303.81246-102607020.66444  22875099.8524                   22875103.3204
        41.2504         25.7504
-121164926.87146 -94324189.63743  24403087.4454                   24403088.9804
        38.2504         21.5004
 25  8  6  0 13 30.0000000  0 10G26G02G03G06G09G16G04G31G01G28
 -84942155.91447 -67212089.91047  21611810.8054                   21611813.7504
        46.2504         42.7504
-115931916.26646 -90239325.82043  25154000.4534                   25154009.3984
        41.2504         19.0004
-112214441.51648 -87366676.15648  20042068.2734                   20042069.8364
        48.0004         49.7504
  -2402884.41446  -5775519.46944  24956792.7894                   24956796.8874
        38.7504         27.2504
 -12803716.63346  -9797947.76645  23660540.3054                   23660544.8914
        41.2504         34.2504
 -48956589.65647 -33209280.56644  22292280.5474                   22292281.7664
        43.5004         28.5004
 -85395202.62147 -66302545.61745  21180554.2974                   21180555.1254
        47.5004         35.2504
-143348851.16847-111700397.11746  21900275.3524                   21900274.2304
        46.5004         41.5004
-130541070.30946-101512812.88744  23142316.7424                   23142320.3674
        41.2504         26.0004
-119749911.52746 -93221580.34843  24672356.2974                   24672358.2774
        37.2504         20.2504
 25  8  6  0 14  0.0000000  0 10G26G02G03G06G09G16G04G31G01G28
 -85206016.22747 -67417695.30147  21561599.1564                   21561601.7624
        47.0004         42.5004
-116105719.23046 -90374756.93443  25120927.2424                   25120935.6134
        41.2504         19.5004
-112472543.89148 -87567794.88348  19992953.1644                   19992954.4804
        49.7504         49.5004
  -2710190.03546  -6014978.38344  24898314.2894                   24898319.3984
        37.0004         25.2504
 -13141520.48046 -10061171.39545  23596258.3444                   23596262.2344
        40.7504         33.7504
 -49303336.05147 -33479472.41044  22226296.7274                   22226298.0044
        44.0004         29.2504
 -85695760.77747 -66536746.72745  21123360.3444                   21123360.6724
        47.7504         35.5004
-143523839.01647-111836751.30546  21866976.4064                   21866975.2704
        46.0004         41.5004
-130712072.56646-101646061.52744  23109776.6024                   23109779.5234
        41.0004         26.2504
-119910301.48446 -93346559.60243  24641835.1174                   24641836.8834
        37.0004         20.5004
 25  8  6  0 14 30.0000000  0 10G26G02G03G06G09G16G04G31G01G28
 -85469254.87947 -67622816.28147  21511506.4924                   21511509.6024
        45.2504         42.7504
-116279640.02746 -90510279.78942  25087831.0704                   25087839.7774
        40.0004         17.2504
-112730081.76248 -87768473.73448  19943945.3284                   19943946.5314
        50.0004         49.5004
  -3017002.77046  -6254053.20744  24839929.5634                   24839934.1024
        36.5004         26.0004
 -13479291.64546 -10324369.55545  23531982.0164                   23531986.8054
        41.5004         34.2504
 -49649733.30547 -33749392.20344  22160379.8674                   22160380.7934
        44.0004         29.2504
 -85996158.34047 -66770822.69545  21066196.6024                   21066196.5664
        47.5004         35.0004
-143698571.80547-111972906.73446  21833725.9774                   21833724.7464
        46.0004         41.0004
-130882889.39846-101779165.68044  23077271.1174                   23077274.8364
        41.7504         27.5004
-120070674.37946 -93471525.58643  24611316.6174                   24611318.4144
        36.2504         20.2504
 25  8  6  0 15  0.0000000  0 10G26G02G03G06G09G16G04G31G01G28
 -85731870.53547 -67827451.81247  21461532.4144                   21461535.2624
        45.7504         42.5004
-116453680.09846 -90645895.61742  25054712.4064                   25054721.5084
        39.0004         15.5004
-112987053.56648 -87968711.50048  19895045.1564                   19895046.3244
        48.2504         49.7504
  -3323320.27745  -6492742.16444  24781639.8674                   24781644.1644
        35.2504         24.2504
 -13817028.98046 -10587541.35545  23467713.2894                   23467717.3874
        41.5004         34.7504
 -49995776.91047 -34019036.42244  22094529.4614                   22094530.2734
        44.2504         28.2504
 -86296394.00447 -67004772.52045  21009063.2034                   21009063.8834
        47.2504         35.5004
-143873051.18747-112108864.72346  21800523.4924                   21800522.9884
        46.5004         41.5004
-131053523.02746-101912127.09044  23044800.5004                   23044804.1134
        41.2504         27.0004
-120231030.95745 -93596478.87943  24580802.2584                   24580804.3054
        35.7504         19.0004
 25  8  6  0 15 30.0000000  0 10G26G02G03G06G09G16G04G31G01G28
 -85993863.68447 -68031602.27747  21411677.0704                   21411679.4064
        46.0004         42.7504
-116627842.859 6                  25021570.586
        38.500
-113243459.46948 -88168508.30148  19846252.3364                   19846253.8754
        48.7504         49.5004
  -3629142.16045  -6731044.89543  24723443.3754                   24723447.8634
        34.0004         22.5004
 -14154733.07446 -10850687.26245  23403450.4064                   23403454.2774
        41.7504         34.5004
 -50341464.08247 -34288402.91044  22028747.0554                   22028747.9844
        44.5004         28.0004
 -86596468.24647 -67238596.55945  20951961.2194                   20951961.6604
        47.5004         35.2504
-144047280.53547-112244627.87546  21767368.5864                   21767367.7894
        46.5004         41.0004
-131223977.45747-102044948.86344  23012363.9304                   23012367.8714
        42.0004         28.0004
-120391373.86345 -93721421.45743  24550290.3524                   24550292.3794
        35.0004         19.0004
 25  8  6  0 16  0.0000000  0 10G26G02G03G06G09G16G04G31G01G28
 -86255234.60947 -68235267.88347  21361939.5234                   21361941.7774
        45.5004         42.5004
-116802131.301 6                  24988404.828
        37.500
-113499299.55948 -88367864.21148  19797567.6484                   19797569.1564
        49.5004         49.5004
  -3934467.91045  -6968961.02744  24665341.5944                   24665346.5474
        33.7504         24.5004
 -14492404.37946 -11113807.60545  23339193.4774                   23339197.9414
        40.7504         34.2504
 -50686792.87547 -34557490.14544  21963033.1564                   21963034.0204
        44.5004         29.0004
 -86896381.34047 -67472295.02745  20894889.4384                   20894889.5354
        47.5004         35.0004
-144221263.14147-112380198.74646  21734261.0944                   21734259.9804
        45.5004         40.7504
-131394256.52746-102177633.98444  22979961.2274                   22979965.3164
        41.7504         27.5004
-120551705.30946 -93846355.16043  24519779.9304                   24519782.3524
        36.2504         18.5004
 25  8  6  0 16 30.0000000  0 10G26G02G03G06G09G16G04G31G01G28
 -84940553.70747 -67210841.15647  21612114.8364                   21612117.6954
        46.2504         42.7504
-115401121.434 6                  25255008.672
        37.000
-112179144.09848 -87339171.64148  20048784.9304                   20048786.3284
        49.5004         49.5004
  -2663865.39545  -5978881.09044  24907129.0084                   24907134.1954
        32.5004         24.5004
 -13254610.66046 -10149292.86345  23574737.1094                   23574741.5704
        40.7504         35.5004
 -49456327.60547 -33598685.89844  22197182.7974                   22197183.5314
        45.0004         28.7504
 -85620702.30947 -66478259.37945  21137643.3054                   21137643.5044
        47.7504         35.0004
-142819574.80147-111287974.09046  22000993.0944                   22000992.1334
        45.2504         40.5004
-129988937.13346-101082580.05144  23247384.9534                   23247388.4844
        41.2504         26.7504
-119136601.18446 -92743676.70743  24789065.1724                   24789067.4184
        37.5004         19.0004
 25  8  6  0 17  0.0000000  0 10G26G02G03G06G09G16G04G31G01G28
 -85200676.08247 -67413533.86747  21562615.3364                   21562618.1994
        46.0004         43.0004
-115575665.160 6                  25221794.148
        36.000
-112433847.46148 -87537641.78148  20000316.9534                   20000318.0984
        50.2504         49.5004
  -2968191.71945  -6216018.41844  24849216.9924                   24849223.0434
        33.2504         24.5004
 -13592212.14146 -10412358.78145  23510493.7664                   23510498.0744
        40.7504         35.0004
 -49800925.68047 -33867203.73044  22131608.3834                   22131608.5514
        44.7504         29.2504
 -85920288.62948 -66711703.22745  21080633.9224                   21080634.1764
        48.0004         35.5004
-142993067.71547-111423163.39846  21967978.8054                   21967978.1024
        45.7504         40.5004
-130158871.68446-101214996.73844  23215047.1564                   23215051.6024
        41.7504         25.5004
-119296911.69946 -92868594.03543  24758559.8984                   24758561.0904
        38.5004         19.7504
 25  8  6  0 17 30.0000000  0 10G26G02G03G06G09G16G04G31G01G28
 -85460172.39547 -67615738.73847  21513235.1254                   21513237.8284
        47.0004         43.0004
-115750338.922 5                  25188555.367
        31.750
-112687980.30948 -87735667.36748  19951956.6954                   19951958.3984
        50.7504         49.5004
  -3272015.24645  -6452763.98844  24791402.4304                   24791407.4654
        34.2504         26.5004
 -13929777.02046 -10675396.18445  23446257.5234                   23446261.3164
        40.5004         34.2504
 -50145151.92647 -34135431.84444  22066104.3754                   22066104.2424
        45.2504         29.2504
 -86219709.71147 -66945018.31245  21023655.7274                   21023655.9734
        47.7504         35.0004
-143166318.47747-111558164.01646  21935010.1644                   21935009.3134
        46.0004         40.7504
-130328637.40246-101347281.85544  23182741.9614                   23182746.1334
        41.7504         26.7504
-119457212.90246 -92993504.11743  24728055.3984                   24728057.1724
        38.0004         18.5004
 25  8  6  0 18  0.0000000  0 10G26G02G03G06G09G16G04G31G01G28
 -85719047.72347 -67817459.72747  21463972.1094                   21463975.1954
        46.2504         42.7504
-115925150.195 5                  25155290.570
        30.250
-112941547.30948 -87933252.03948  19903704.7734                   19903706.0784
        50.2504         49.5004
  -3575339.93445  -6689120.82844  24733681.8444                   24733686.5594
        35.0004         27.5004
 -14267310.22346 -10938408.88745  23382026.4924                   23382030.7194
        40.5004         34.0004
 -50489008.42647 -34403371.84444  22000669.9144                   22000670.6914
        45.7504         28.7504
 -86518970.30947 -67178208.35546  20966708.7194                   20966708.7074
        47.2504         36.0004
-143339334.82847-111692981.97746  21902086.5634                   21902085.1524
        46.0004         41.0004
-130498242.73446-101479441.99644  23150466.9534                   23150471.0634
        41.5004         25.0004
-119617511.73846 -93118412.36343  24697551.1174                   24697553.0784
        38.0004         19.7504
 25  8  6  0 18 30.0000000  0  9G26G03G06G09G16G04G31G01G28
 -85977296.78547 -68018692.72347  21414829.0474                   21414832.2814
        45.7504         42.7504
-113194542.93748 -88130391.48848  19855561.1334                   19855562.6024
        50.5004         49.5004
  -3878159.53546  -6925084.13344  24676057.6414                   24676062.4304
        36.5004         28.7504
 -14604806.39146 -11201392.73845  23317803.5704                   23317807.2234
        40.5004         33.2504
 -50832486.45747 -34671016.92644  21935308.3834                   21935308.9344
        44.5004         28.5004
 -86818064.97747 -67411269.09845  20909792.7504                   20909792.6764
        47.5004         35.5004
-143512114.11347-111827615.19946  21869207.9694                   21869207.0044
        46.7504         41.0004
-130667685.71147-101611475.63344  23118223.5314                   23118227.7194
        42.0004         25.2504
-119777804.75846 -93243316.05543  24667049.0634                   24667050.2384
        39.0004         18.2504
 25  8  6  0 19  0.0000000  0  9G26G03G06G09G16G04G31G01G28
 -86234920.38347 -68219438.32847  21365805.1094                   21365807.9264
        47.0004         42.7504
-113446967.70348 -88327086.10248  19807526.3594                   19807527.7114
        49.2504         49.5004
  -4180474.01246  -7160653.83244  24618528.2034                   24618533.2384
        36.5004         29.0004
 -14942266.27346 -11464348.31245  23253586.0234                   23253590.6994
        40.0004         33.5004
 -51175584.14147 -34938365.64544  21870019.0474                   21870019.2344
        44.0004         29.5004
 -87116994.34048 -67644201.02045  20852907.8914                   20852908.2274
        48.0004         35.5004
-143684660.27347-111962066.77746  21836373.1564                   21836372.4304
        45.7504         41.0004
-130836970.50846-101743386.02744  23086009.7194                   23086013.6374
        41.5004         26.5004
-119938094.59446 -93368217.25042  24636546.6254                   24636548.1604
        39.2504         17.7504
 25  8  6  0 19 30.0000000  0  9G26G03G06G09G16G04G31G01G28
 -84916490.33647 -67192090.19947  21616693.7894                   21616696.6644
        47.0004         42.7504
-112123393.16048 -87295729.31648  20059394.0234                   20059395.4064
        50.0004         49.5004
  -2906852.57445  -6168221.49645  24860890.3834                   24860895.2504
        35.5004         31.0004
 -13704258.77346 -10499666.95745  23489171.9064                   23489175.2704
        39.7504         33.2504
 -49942867.27747 -33977806.91444  22104596.9534                   22104597.0864
        44.2504         29.0004
 -85840328.40647 -66649396.34845  21095849.0944                   21095849.3364
        47.7504         35.5004
-142281550.28147-110868734.34046  22103376.0004                   22103375.2734
        45.5004         40.0004
-129430675.14546-100647571.62544  23353618.9614                   23353623.1294
        40.5004         24.5004
-118522958.00846 -92265513.43743  24905838.7814                   24905840.2074
        39.5004         18.5004
 25  8  6  0 20  0.0000000  0  9G26G03G06G09G16G04G31G01G28
 -85172862.72747 -67391860.85247  21567907.9844                   21567910.3634
        46.7504         42.5004
-112374674.84448 -87491533.21548  20011576.7584                   20011578.0044
        49.7504         49.5004
  -3208153.51245  -6403001.43045  24803554.9454                   24803559.5204
        35.0004         30.2504
 -14041645.15246 -10762565.26645  23424968.7894                   23424972.8594
        39.5004         34.0004
 -50285194.24647 -34244555.07844  22039454.1174                   22039454.4184
        44.2504         29.2504
 -86138925.82847 -66882069.60945  21039027.8444                   21039028.3444
        47.0004         35.5004
-142453637.32847-111002828.16846  22070629.4064                   22070628.1254
        46.0004         41.5004
-129599653.17246-100779242.96544  23321464.1334                   23321468.0204
        40.7504         25.7504
-118683246.43746 -92390413.50442  24875336.0314                   24875338.0744
        40.0004         16.7504
 25  8  6  0 20 30.0000000  0  9G26G03G06G09G16G04G31G01G28
 -85428610.51647 -67591144.80547  21519240.8674                   21519243.1884
        46.0004         42.7504
-112625385.44548 -87686892.11348  19963868.0634                   19963869.6134
        50.0004         49.5004
  -3508946.99246  -6637385.94145  24746315.7034                   24746320.7304
        38.2504         32.7504
 -14378995.46146 -11025435.47345  23360773.2894                   23360776.6954
        39.7504         34.5004
 -50627131.75847 -34510999.75845  21974385.4144                   21974385.9654
        43.7504         30.2504
 -86437357.73847 -67114613.90246  20982238.6484                   20982238.6564
        47.0004         36.0004
-142625499.79747-111136747.00446  22037925.0164                   22037923.8244
        46.5004         41.0004
-129768483.63747-100910799.33244  23289336.6644                   23289340.3594
        42.0004         24.7504
-118843537.71146 -92515315.82042  24844833.7274                   24844835.4344
        40.2504         17.7504
 25  8  6  0 21  0.0000000  0  9G26G03G06G09G16G04G31G01G28
 -85683730.68047 -67789939.69947  21470693.0554                   21470695.8714
        46.7504         42.5004
-112875521.66448 -87881803.44548  19916268.8984                   19916270.2704
        50.2504         49.5004
  -3809229.23046  -6871372.08245  24689173.5474                   24689178.7584
        38.0004         33.5004
 -14716306.48846 -11288275.06245  23296584.3914                   23296588.6564
        40.0004         34.7504
 -50968674.10547 -34777136.52344  21909392.3204                   21909392.4024
        43.7504         29.5004
 -86735620.88347 -67347026.68746  20925480.8754                   20925481.0234
        47.5004         36.0004
-142797137.12947-111270490.41046  22005263.2114                   22005262.5904
        46.7504         40.7504
-129937166.82846-101042240.94944  23257237.1884                   23257241.6994
        41.0004         24.0004
-119003830.55146 -92640219.36343  24814331.6414                   24814333.3094
        40.0004         19.2504
 25  8  6  0 21 30.0000000  0  9G26G03G06G09G16G04G31G01G28
 -85938224.57447 -67988246.59047  21422264.1174                   21422266.9774
        47.2504         42.5004
-113125084.46148 -88076267.94548  19868778.3134                   19868779.7664
        50.2504         49.5004
  -4109000.45346  -7104960.02745  24632128.6804                   24632134.5204
        38.5004         32.7504
 -15053579.25446 -11551084.82445  23232403.0944                   23232407.6414
        40.0004         34.7504
 -51309818.93047 -35042963.53944  21844474.4454                   21844474.7544
        43.7504         29.5004
 -87033716.06247 -67579308.58245  20868755.1254                   20868755.2544
        47.5004         35.5004
-142968553.31647-111404061.49246  21972644.2584                   21972643.4184
        46.5004         40.2504
-130105707.18446-101173571.25444  23225164.9844                   23225169.5514
        41.7504         25.0004
-119164127.82046 -92765126.39143  24783827.6804                   24783830.1644
        39.7504         19.2504
 25  8  6  0 22  0.0000000  0  9G26G03G06G09G16G04G31G01G28
 -86192091.67647 -68186065.08247  21373954.4614                   21373957.2234
        46.7504         42.7504
-113374073.00448 -88270284.98848  19821397.7974                   19821398.8524
        50.5004         49.5004
  -4408259.14846  -7338148.59845  24575182.3204                   24575187.2814
        36.5004         33.7504
 -15390812.93046 -11813864.12545  23168229.8284                   23168234.1644
        39.5004         33.5004
 -51650562.51647 -35308477.90644  21779632.6174                   21779633.1334
        43.2504         29.2504
 -87331642.37547 -67811458.88745  20812061.5634                   20812061.6954
        46.7504         35.2504
-143139750.26647-111537461.73846  21940066.3674                   21940065.1374
        46.5004         41.2504
-130274107.38746-101304792.36343  23193119.6174                   23193124.0434
        41.5004         23.5004
-119324430.65246 -92890037.71943  24753323.5944                   24753324.9924
        39.0004         20.0004
 25  8  6  0 22 30.0000000  0  9G26G03G06G09G16G04G31G01G28
 -84869905.71947 -67155790.27347  21625558.8134                   21625561.1954
        46.5004         42.5004
-112047060.79748 -87236249.49248  20073919.7034                   20073921.1644
        49.5004         49.5004
  -3131576.52746  -6343330.94945  24818127.2664                   24818131.7504
        38.5004         33.7504
 -14152578.09446 -10849005.63345  23403858.4064                   23403862.1374
        40.0004         34.5004
 -50415472.48847 -34346069.96944  22014662.5004                   22014663.0904
        44.2504         29.2504
 -86053971.56247 -66815871.17645  21055194.1254                   21055194.4414
        47.0004         34.7504
-141735306.87947-110443090.29746  22207322.9924                   22207322.4024
        46.5004         41.0004
-128866947.15646-100208304.03944  23460893.5314                   23460897.7584
        41.0004         25.5004
-117909317.42246 -91787352.13743  25022611.2344                   25022612.4224
        38.5004         19.5004
 25  8  6  0 23  0.0000000  0  9G26G03G06G09G16G04G31G01G28
 -85122522.65247 -67352634.60247  21577486.9454                   21577489.6724
        46.2504         43.0004
-112294903.13748 -87429373.38348  20026756.8054                   20026757.9264
        50.0004         49.5004
  -3429810.57846  -6575721.08645  24761374.9844                   24761380.1484
        38.2504         33.0004
 -14489735.81246 -11111725.76245  23339699.2734                   23339702.8954
        41.7504         35.2504
 -50755407.23447 -34610954.04744  21949974.5864                   21949975.5594
        44.0004         29.5004
 -86351562.04347 -67047759.79746  20998564.6414                   20998564.9144
        47.7504         36.0004
-141906076.37547-110576157.46546  22174826.8754                   22174825.7584
        46.5004         41.0004
-129035079.79346-100339316.67244  23428898.7814                   23428903.4774
        41.0004         25.0004
-118069639.33646 -91912278.34843  24992102.1954                   24992104.0234
        37.2504         19.7504
 25  8  6  0 23 30.0000000  0  9G26G03G06G09G16G04G31G01G28
 -85374511.39547 -67548989.42647  21529535.4304                   21529537.4064
        47.0004         42.5004
-112542168.72748 -87622047.85948  19979703.6414                   19979704.8914
        49.0004         49.5004
  -3727527.56246  -6807708.32845  24704721.7734                   24704726.2544
        38.5004         33.2504
 -14826851.90647 -11374413.46945  23275547.9064                   23275551.6644
        42.0004         34.7504
 -51094929.39547 -34875516.64145  21885365.9614                   21885366.2894
        43.5004         30.0004
 -86648980.65247 -67279514.49245  20941967.7114                   20941967.9734
        46.7504         35.2504
-142076632.44147-110709058.32446  22142371.2274                   22142370.2624
        45.0004         40.5004
-129203080.15246-100470226.20743  23396930.1094                   23396934.5514
        39.5004         23.5004
-118229969.97746 -92037211.39543  24961592.3834                   24961594.3524
        36.5004         19.2504
 25  8  6  0 24  0.0000000  0  9G26G03G06G09G16G04G31G01G28
 -85625874.35247 -67744856.62547  21481702.5634                   21481705.0084
        46.5004         42.7504
-112788859.58648 -87814274.49248  19932760.1414                   19932761.3244
        50.0004         49.5004
  -4024728.80946  -7039293.69145  24648165.9224                   24648170.8204
        38.2504         32.7504
 -15163928.18447 -11637070.16046  23211404.0864                   23211407.8204
        42.5004         36.0004
 -51434038.28547 -35139757.21145  21820836.1254                   21820836.3914
        43.0004         30.2504
 -86946229.25447 -67511136.71946  20885403.2274                   20885403.3634
        47.2504         36.0004
-142246980.03547-110841796.73446  22109955.0314                   22109953.9414
        46.0004         41.0004
-129370953.66046-100601036.91443  23364984.5944                   23364988.9104
        41.2504         23.0004
-118390313.01646 -92162154.10542  24931080.3444                   24931082.3054
        36.0004         17.7504
 25  8  6  0 24 30.0000000  0  9G26G03G06G09G16G04G31G01G28
 -85876612.48847 -67940236.95747  21433988.1174                   21433990.8554
        47.2504         42.5004
-113034976.32048 -88006053.76248  19885925.8204                   19885926.8984
        49.5004         49.5004
  -4321414.44146  -7270477.27745  24591708.0394                   24591713.2704
        38.5004         31.7504
 -15500965.23046 -11899696.28145  23147269.0004                   23147271.8324
        41.7504         35.5004
 -51772731.36347 -35403673.78145  21756384.4534                   21756384.4774
        44.0004         31.0004
 -87243308.24647 -67742626.79345  20828870.8134                   20828871.2774
        47.7504         35.5004
-142417122.44947-110974375.27046  22077578.0474                   22077576.6914
        45.2504         39.7504
-129538704.36746-100731751.92644  23333063.0394                   23333067.1764
        40.0004         24.0004
-118550670.95746 -92287108.41443  24900565.5394                   24900566.5634
        36.0004         18.2504
 25  8  6  0 25  0.0000000  0  9G26G03G06G09G16G04G31G01G28
 -86126727.71947 -68135131.90647  21386393.2974                   21386395.7974
        46.7504         42.5004
-113280520.41048 -88197386.81248  19839199.7894                   19839201.4884
        49.7504         49.5004
  -4617585.08646  -7501259.57445  24535349.4064                   24535353.8634
        37.7504         32.5004
 -15837964.31246 -12162292.83245  23083139.4774                   23083142.9454
        41.0004         35.7504
 -52111007.20747 -35667265.23045  21692012.7894                   21692012.6094
        44.7504         30.5004
 -87540218.79747 -67973985.61345  20772370.3284                   20772370.5554
        47.0004         35.2504
-142587063.73847-111106797.07846  22045238.9534                   22045238.2074
        45.7504         40.0004
-129706337.03946-100862374.96944  23301163.6414                   23301168.1334
        41.2504         24.0004
-118711047.05145 -92412076.89842  24870046.0784                   24870048.7194
        35.0004         17.7504
 25  8  6  0 25 30.0000000  0  9G26G03G06G09G16G04G31G01G28
 -84800789.24647 -67101933.05947  21638710.8054                   21638713.3364
        46.7504         42.5004
-111950060.85948 -87160665.08648  20092378.2734                   20092379.2974
        50.2504         49.5004
  -3337807.41846  -6504030.21545  24778882.6174                   24778887.3554
        37.0004         32.0004
 -14599491.24646 -11197248.74245  23318812.7584                   23318816.3284
        41.0004         35.7504
 -50873428.38747 -34702917.96945  21927516.1954                   21927516.1644
        45.0004         30.5004
 -86261527.90647 -66977603.05545  21015697.4924                   21015697.9384
        47.2504         35.5004
-141181378.20347-110011457.72346  22312732.3524                   22312731.5044
        44.7504         39.7504
-128298426.60546 -99765302.09443  23569080.4144                   23569084.4414
        40.0004         23.0004
-117296014.76645 -91309454.43043  25139317.9924                   25139320.6294
        34.0004         19.2504
 25  8  6  0 26  0.0000000  0  9G26G03G06G09G16G04G31G01G28
 -85049653.04747 -67295852.86747  21591353.3364                   21591356.0904
        46.0004         42.2504
-112194452.92648 -87351100.45748  20045871.8914                   20045873.2234
