     2.11           OBSERVATION DATA    G (GPS)             RINEX VERSION / TYPE
teqc  2019Feb25                         20250819 04:32:18UTCPGM / RUN BY / DATE
Linux 2.6.32-573.12.1.x86_64|x86_64|gcc -static|Linux 64|=+ COMMENT
BIT 2 OF LLI FLAGS DATA COLLECTED UNDER A/S CONDITION       COMMENT
36453570                                                    MARKER NAME
3645                                                        MARKER NUMBER
-Unknown-           -Unknown-                               OBSERVER / AGENCY
0220263645          TRIMBLE 5700        2.32                REC # / TYPE / VERS
-Unknown-           TRM39105.00     NONE                    ANT # / TYPE
 -2372561.5641 -4591119.1927  3726563.0173                  APPROX POSITION XYZ
        0.0000        0.0000        0.0000                  ANTENNA: DELTA H/E/N
     1     1                                                WAVELENGTH FACT L1/2
     7    L1    L2    C1    P1    P2    S1    S2            # / TYPES OF OBSERV
    18                                                      LEAP SECONDS
 SNR is mapped to RINEX snr flag value [0-9]                COMMENT
  L1 & L2: min(max(int(snr_dBHz/6), 0), 9)                  COMMENT
  2025     8     8     0     0   30.0000000     GPS         TIME OF FIRST OBS
                                                            END OF HEADER
 25  8  8  0  0 30.0000000  0 10G01G02G03G09G28G31G06G26G04G16
  -6075893.48857  -4715025.03554  22878644.0704                   22878645.2894
        42.2504         28.2504
  10238994.03156   7954353.62553  24870643.2974                   24870650.1484
        39.7504         22.0004
 -30713322.31658 -23996435.63758  19945575.0864                   19945574.0234
        48.2504         52.0004
  -7511380.18456  -5776870.26655  23760541.2894                   23760543.3834
        41.2504         34.0004
   9427471.79356   7354381.03554  24367082.8364                   24367081.6684
        41.0004         25.0004
  -9759035.03957  -7589526.87157  21626627.3054                   21626623.6844
        46.5004         44.0004
  -3567117.10255  -2716344.19554  25003862.9454                   25003865.6684
        34.2504         27.5004
 -25933692.19957 -20186375.71557  21476422.2894                   21476422.2544
        46.2504         44.7504
 -25627016.54757 -19806648.44156  21189158.8204                   21189156.5744
        47.5004         36.5004
 -12133092.72757 -13476978.91454  22295917.4144                   22295915.5274
        44.0004         29.7504
 25  8  8  0  1  0.0000000  0 10G01G02G03G09G28G31G06G26G04G16
  -6020299.31247  -4671705.03944  22889224.1724                   22889224.4654
        42.5004         28.5004
  10294855.97746   7997882.09843  24881274.0864                   24881280.5904
        38.0004         20.7504
 -30748830.30548 -24024104.20748  19938818.1174                   19938816.9734
        49.0004         51.7504
  -7620146.52746  -5861623.12945  23739843.8054                   23739845.5354
        41.5004         34.5004
   9495777.78546   7407606.39844  24380080.7424                   24380079.9964
        39.7504         24.5004
  -9707518.18447  -7549383.89547  21636430.7344                   21636426.9654
        47.2504         44.0004
  -3649409.03545  -2780467.71944  24988203.2114                   24988205.4104
        34.5004         27.0004
 -25973104.79747 -20217086.78947  21468922.1254                   21468922.3754
        46.5004         44.5004
 -25700486.03147 -19863897.35246  21175178.0784                   21175175.7504
        47.0004         36.2504
 -12253426.66047 -13570745.48845  22273018.7034                   22273016.6884
        44.5004         30.0004
 25  8  8  0  1 30.0000000  0 10G01G02G03G09G28G31G06G26G04G16
  -5964498.33647  -4628223.92644  22899843.2274                   22899842.7384
        44.0004         28.5004
  10350614.22746   8041329.66443  24891884.7344                   24891890.9184
        39.5004         22.7504
 -30783789.49248 -24051345.13348  19932165.8914                   19932164.4144
        48.0004         52.0004
  -7728897.79746  -5946364.23045  23719148.8134                   23719151.3914
        40.7504         34.2504
   9564105.12946   7460848.41043  24393083.1954                   24393081.7114
        41.0004         23.2504
  -9655735.21947  -7509033.56247  21646285.0164                   21646281.0474
        47.5004         44.0004
  -3731232.94546  -2844226.59044  24972632.9924                   24972635.7384
        36.2504         28.5004
 -26011909.17247 -20247323.93047  21461538.2424                   21461537.8754
        46.0004         44.7504
 -25773813.74647 -19921035.79746  21161224.2344                   21161221.8754
        47.0004         37.0004
 -12373449.10547 -13664269.35945  22250178.7344                   22250177.0704
        43.7504         30.5004
 25  8  8  0  2  0.0000000  0 10G01G02G03G09G28G31G06G26G04G16
  -5908493.70347  -4584584.09444  22910499.7894                   22910500.6764
        43.5004         29.5004
  10406266.14846   8084694.37144  24902475.3524                   24902482.1914
        40.7504         24.2504
 -30818199.01648 -24078157.75448  19925617.8594                   19925616.2974
        48.5004         52.0004
  -7837633.67647  -6031093.32445  23698457.5314                   23698459.7194
        42.2504         33.7504
   9632452.07846   7514105.71943  24406089.6644                   24406088.2624
        41.2504         21.7504
  -9603688.39147  -7468477.62147  21656189.2424                   21656185.1644
        46.7504         44.0004
  -3812587.38746  -2907619.65244  24957151.4384                   24957154.3914
        37.2504         28.5004
 -26050104.76247 -20277086.69547  21454269.4384                   21454269.3324
        46.5004         44.7504
 -25846999.34047 -19978063.49246  21147297.6094                   21147295.6724
        47.0004         36.5004
 -12493157.41447 -13757548.44545  22227399.4614                   22227397.3554
        44.5004         30.0004
 25  8  8  0  2 30.0000000  0 10G01G02G03G09G28G31G06G26G04G16
  -5852282.07047  -4540782.94944  22921196.3364                   22921197.3134
        42.7504         29.0004
  10461815.92646   8127979.50443  24913046.6414                   24913053.2194
        37.7504         22.2504
 -30852051.35948 -24104536.19948  19919175.8754                   19919174.9304
        48.7504         52.0004
  -7946347.44546  -6115805.22345  23677770.0864                   23677771.2154
        41.5004         32.2504
   9700823.41846   7567382.00443  24419099.8524                   24419098.9264
        41.2504         23.7504
  -9551374.34047  -7427713.45347  21666144.2424                   21666140.2974
        46.7504         43.5004
  -3893464.42646  -2970640.71144  24941761.5784                   24941763.4064
        36.0004         26.0004
 -26087684.44947 -20306369.53147  21447118.4224                   21447118.7624
        46.7504         45.0004
 -25920035.96947 -20034975.10546  21133398.8204                   21133396.8364
        47.2504         37.0004
 -12612541.26247 -13850574.69545  22204680.7504                   22204679.0354
        43.2504         30.2504
 25  8  8  0  3  0.0000000  0 10G01G02G03G09G28G31G06G26G04G16
  -5795876.32447  -4496830.59844  22931931.2424                   22931931.1374
        42.5004         29.5004
  10517251.22345   8171175.43043  24923594.7424                   24923602.5084
        34.5004         19.0004
 -30885355.49247 -24130487.47348  19912838.2034                   19912837.3404
        47.7504         52.0004
  -8055048.82846  -6200507.51245  23657083.8054                   23657086.5354
        39.5004         32.7504
   9769207.52346   7620668.25043  24432113.1484                   24432111.9694
        40.0004         22.7504
  -9498805.11347  -7386750.44947  21676147.3594                   21676143.8284
        47.0004         43.5004
  -3973872.38346  -3033296.24244  24926460.6334                   24926462.5164
        36.0004         28.2504
 -26124657.44947 -20335179.62947  21440082.6414                   21440082.6374
        46.0004         44.7504
 -25992933.03947 -20091777.98846  21119527.4304                   21119524.9574
        47.5004         36.7504
 -12731607.09447 -13943353.12945  22182023.1564                   22182021.5044
        44.2504         30.5004
 25  8  8  0  3 30.0000000  0 10G01G02G03G09G28G31G06G26G04G16
  -5739269.30946  -4452721.40644  22942702.5394                   22942703.5314
        41.5004         29.7504
  10572579.89545   8214288.27342  24934124.4534                   24934132.6884
        31.0004         15.5004
 -30918100.23847 -24156002.85948  19906607.0394                   19906606.3914
        47.0004         52.0004
  -8163727.16046  -6285191.76245  23636403.1254                   23636404.9144
        39.7504         32.2504
   9837613.03146   7673971.17643  24445131.0864                   24445128.9804
        39.0004         22.0004
  -9445972.78947  -7345582.43447  21686201.5864                   21686197.5124
        47.2504         43.5004
  -4053799.47346  -3095577.06245  24911250.2894                   24911252.4344
        38.0004         30.0004
 -26161012.85247 -20363508.48447  21433164.5394                   21433164.1484
        45.5004         45.0004
 -26065679.87548 -20148463.79346  21105683.6804                   21105681.7114
        48.0004         36.7504
 -12850341.12947 -14035873.03145  22159429.0084                   22159426.9414
        43.2504         31.0004
 25  8  8  0  4  0.0000000  0 10G01G02G03G09G28G31G06G26G04G16
  -5682472.76247  -4408464.53544  22953512.5704                   22953511.7624
        43.5004         28.5004
  10627791.11714                  24944631.820
        28.250
 -30950293.25048 -24181088.31648  19900480.9774                   19900479.9804
        49.0004         52.0004
  -8272390.71546  -6369864.57445  23615724.5784                   23615726.8714
        38.7504         32.7504
   9906029.72346   7727282.77343  24458150.2664                   24458148.6844
        40.0004         22.0004
  -9392888.79347  -7304218.30547  21696303.2034                   21696299.4964
        46.5004         43.2504
  -4133252.86746  -3157488.76644  24896131.1094                   24896133.3874
        38.7504         29.0004
 -26196758.68747 -20391362.36347  21426362.2664                   21426362.0864
        46.5004         45.0004
 -26138284.60548 -20205038.87946  21091867.7664                   21091865.1764
        48.5004         36.5004
 -12968748.50047 -14128138.41045  22136896.5864                   22136894.9494
        42.5004         30.5004
 25  8  8  0  4 30.0000000  0  9G01G03G09G28G31G06G26G04G16
  -5625488.78947  -4364061.60244  22964355.6254                   22964354.8794
        43.0004         28.5004
 -30981932.72748 -24205742.44948  19894460.1724                   19894459.1254
        48.0004         52.0004
  -8381038.21546  -6454524.82845  23595050.1564                   23595052.4694
        39.0004         32.2504
   9974456.75046   7780602.50443  24471171.7194                   24471170.1994
        40.7504         22.5004
  -9339554.30147  -7262658.98447  21706452.2424                   21706448.1174
        47.0004         43.2504
  -4212230.10946  -3219029.44544  24881101.7894                   24881104.3634
        38.2504         29.0004
 -26231893.50047 -20418740.11347  21419676.4534                   21419676.2814
        44.7504         44.7504
 -26210745.91447 -20261502.19146  21078078.6884                   21078076.3404
        47.5004         36.5004
 -13086824.89847 -14220145.86345  22114427.9614                   22114425.4224
        43.7504         30.5004
 25  8  8  0  5  0.0000000  0  9G01G03G09G28G31G06G26G04G16
  -5568314.40246  -4319510.29744  22975234.6094                   22975235.0784
        41.0004         26.5004
 -31013011.76248 -24229959.86748  19888546.1174                   19888544.9224
        48.2504         52.0004
  -8489663.47346  -6539167.77745  23574379.1024                   23574381.3364
        38.5004         32.5004
  10042898.60246   7833933.80143  24484194.7814                   24484193.6134
        39.2504         20.5004
  -9285966.14147  -7220901.99647  21716649.7034                   21716645.8754
        47.0004         43.2504
  -4290723.81246  -3280193.35545  24866165.1804                   24866167.2034
        38.7504         30.7504
 -26266410.63347 -20445636.55947  21413107.7274                   21413107.7584
        46.2504         44.7504
 -26283057.21948 -20317848.62946  21064318.0554                   21064315.9064
        48.0004         37.2504
 -13204560.65247 -14311887.89145  22092023.0004                   22092020.5434
        44.0004         31.2504
 25  8  8  0  5 30.0000000  0  9G01G03G09G28G31G06G26G04G16
  -5510953.88746  -4274813.95744  22986150.5314                   22986150.6524
        40.7504         26.7504
 -31043530.66447 -24253740.82448  19882738.6414                   19882737.3164
        47.0004         51.7504
  -8598267.13346  -6623793.89845  23553711.5474                   23553714.5864
        39.0004         32.7504
  10111352.46946   7887274.36743  24497221.5864                   24497220.8164
        39.2504         20.2504
  -9232127.96147  -7178950.19947  21726894.6884                   21726891.3134
        46.7504         43.5004
  -4368733.68446  -3340980.25044  24851319.5704                   24851322.8014
        39.0004         29.5004
 -26300310.79347 -20472052.24647  21406656.5554                   21406656.5434
        44.2504         44.5004
 -26355219.29747 -20374078.78546  21050586.2114                   21050583.9654
        47.5004         36.7504
 -13321953.50047 -14403362.73845  22069683.1804                   22069681.5124
        42.5004         31.5004
 25  8  8  0  6  0.0000000  0  9G01G03G09G28G31G06G26G04G16
  -5453409.93046  -4229974.68744  22997099.9614                   22997101.4694
        40.0004         27.0004
 -31073488.28947 -24277084.41448  19877037.7974                   19877036.7584
        47.2504         51.5004
  -8706848.60546  -6708402.72345  23533051.0944                   23533052.3014
        40.7504         33.7504
  10179817.12546   7940623.35543  24510249.8524                   24510248.9144
        38.5004         19.2504
  -9178041.73047  -7136805.10947  21737186.9614                   21737183.2424
        46.7504         43.0004
  -4446257.93446  -3401388.72745  24836568.2664                   24836570.0904
        39.2504         31.0004
 -26333593.14547 -20497986.51647  21400323.4304                   21400323.0744
        46.0004         44.5004
 -26427231.30147 -20430192.00046  21036882.7034                   21036880.4304
        47.0004         36.5004
 -13438999.58647 -14494567.36745  22047410.7274                   22047408.3484
        43.7504         31.0004
 25  8  8  0  6 30.0000000  0  9G01G03G09G28G31G06G26G04G16
  -5395684.33246  -4184993.87544  23008084.1024                   23008086.8794
        39.5004         27.2504
 -31102882.48048 -24299988.97348  19871444.4614                   19871443.2194
        49.0004         51.7504
  -8815406.27046  -6792992.99645  23512393.2194                   23512394.3284
        40.5004         33.7504
  10248292.28146   7993980.55943  24523279.7194                   24523279.7584
        37.7504         19.5004
  -9123708.64547  -7094467.66847  21747526.3984                   21747522.5204
        47.2504         42.7504
  -4523293.90246  -3461416.73044  24821907.9384                   24821910.4384
        39.0004         29.5004
 -26366255.89547 -20523437.99247  21394108.1884                   21394107.9344
        45.0004         44.5004
 -26499091.44547 -20486186.88346  21023208.2974                   21023205.9144
        47.5004         37.0004
 -13555694.58647 -14585498.43045  22025204.1254                   22025202.0084
        43.0004         31.0004
 25  8  8  0  7  0.0000000  0  9G01G03G09G28G31G06G26G04G16
  -5337774.64546  -4139869.63344  23019104.8834                   23019106.2734
        39.2504         28.7504
 -31131707.04347 -24322449.66048  19865959.0164                   19865958.0704
        47.5004         52.0004
  -8923934.25046  -6877560.11345  23491740.7274                   23491742.3874
        40.7504         34.7504
  10316781.61746   8047348.79343  24536313.1254                   24536312.8914
        38.0004         19.7504
  -9069125.55147  -7051935.40247  21757913.4774                   21757909.0744
        46.2504         43.2504
  -4599834.75046  -3521058.93044  24807342.5704                   24807345.0864
        40.0004         29.5004
 -26398293.16847 -20548402.07447  21388011.3914                   21388011.2234
        46.2504         44.5004
 -26570793.81247 -20542058.82846  21009563.4924                   21009561.0474
        47.0004         36.2504
 -13672029.25847 -14676148.68045  22003066.1644                   22003063.9104
        43.7504         31.7504
 25  8  8  0  7 30.0000000  0  9G01G03G09G28G31G06G26G04G16
  -5279699.28946  -4094616.30144  23030157.1484                   23030157.5004
        41.0004         28.0004
 -31159976.42247 -24344477.74648  19860579.4064                   19860578.3204
        47.5004         51.7504
  -9032447.54746  -6962115.78945  23471090.9844                   23471092.9104
        41.2504         35.5004
  10385268.60246   8100715.21543  24549345.5164                   24549345.4344
        37.7504         18.2504
  -9014310.19147  -7009222.16047  21768344.1724                   21768340.3714
        46.5004         43.0004
  -4675894.38746  -3580326.16844  24792868.9064                   24792871.5634
        39.5004         27.5004
 -26429719.86347 -20572890.37147  21382031.0474                   21382030.8014
        47.7504         44.7504
 -26642353.12147 -20597819.28946  20995946.3834                   20995943.9804
        47.2504         37.2504
 -13788015.14147 -14766527.18045  21980994.9694                   21980992.6024
        45.0004         31.5004
 25  8  8  0  8  0.0000000  0  9G01G03G09G28G31G06G26G04G16
  -5221459.71547  -4049235.01644  23041240.8204                   23041241.1414
        42.5004         28.7504
 -31187688.28948 -24366071.40248  19855306.2274                   19855305.1484
        49.7504         52.0004
  -9140944.15246  -7046658.46546  23450445.2274                   23450446.4264
        41.0004         36.0004
  10453752.99246   8154079.58243  24562377.8134                   24562377.8674
        38.0004         18.5004
  -8959263.87147  -6966328.94547  21778818.7814                   21778815.4964
        47.0004         42.5004
  -4751469.79746  -3639216.05145  24778487.7114                   24778490.4264
        39.7504         30.0004
 -26460533.93747 -20596901.32047  21376167.2504                   21376167.5354
        47.5004         45.2504
 -26713767.34047 -20653466.69946  20982356.7344                   20982354.5474
        47.0004         37.0004
 -13903647.39547 -14856630.13345  21958990.5784                   21958988.5084
        44.2504         31.5004
 25  8  8  0  8 30.0000000  0  9G01G03G09G28G31G06G26G04G16
  -5163045.96547  -4003717.98844  23052357.4694                   23052357.1914
        43.0004         29.2504
 -31214828.96548 -24387219.97748  19850141.3914                   19850140.3524
        48.5004         52.0004
  -9249410.75847  -7131177.75046  23429804.6254                   23429805.5744
        42.2504         36.5004
  10522246.33246   8207450.94943  24575412.6484                   24575411.2274
        39.5004         19.5004
  -8903975.75447  -6923247.33647  21789339.9924                   21789336.1604
        47.0004         42.7504
  -4826546.80546  -3697717.59445  24764200.8674                   24764203.3634
        40.5004         31.0004
 -26490722.12547 -20620424.57847  21370422.3204                   21370422.1414
        46.7504         44.7504
 -26785022.92648 -20708990.50046  20968797.2504                   20968794.5784
        48.0004         36.7504
 -14018909.73847 -14946444.84445  21937056.5084                   21937054.7034
        43.2504         31.5004
 25  8  8  0  9  0.0000000  0  9G01G03G09G28G31G06G26G04G16
  -5104468.58647  -3958073.46545  23063503.8594                   23063504.3794
        43.5004         30.2504
 -31241405.13748 -24407928.68448  19845084.2114                   19845083.3674
        49.0004         52.0004
  -9357854.38347  -7215679.14846  23409168.1884                   23409169.3754
        42.5004         37.5004
  10590739.65246   8260822.32843  24588445.8204                   24588445.6484
        38.0004         18.5004
  -8848455.77047  -6879985.03947  21799905.2344                   21799901.6524
        47.2504         43.0004
  -4901131.55146  -3755835.54745  24750008.3914                   24750010.6954
        40.2504         30.7504
 -26520291.48047 -20643465.60947  21364795.7734                   21364795.5904
        47.5004         45.0004
 -26856126.82447 -20764396.09846  20955266.4924                   20955263.8754
        47.0004         37.0004
 -14133806.12147 -15035974.35945  21915193.1724                   21915190.8674
        44.7504         32.0004
 25  8  8  0  9 30.0000000  0  9G01G03G09G28G31G06G26G04G16
  -5045733.43047  -3912305.98044  23074679.5864                   23074681.1024
        42.2504         29.0004
 -31267418.99248 -24428199.21948  19840134.0784                   19840133.1374
        48.0004         52.0004
  -9466277.55146  -7300164.60246  23388534.9144                   23388537.1764
        41.2504         37.0004
  10659228.54346   8314190.21942  24601478.4614                   24601478.1994
        37.0004         17.2504
  -8792709.16047  -6836546.15247  21810513.6954                   21810509.5944
        46.0004         43.0004
  -4975225.59846  -3813571.14144  24735908.4144                   24735911.0274
        40.5004         29.7504
 -26549244.60947 -20666026.48047  21359286.0704                   21359286.1994
        45.7504         45.0004
 -26927081.36748 -20819685.31646  20941764.1174                   20941762.0004
        48.0004         36.0004
 -14248336.02047 -15125218.34045  21893397.8364                   21893395.9454
        44.0004         31.0004
 25  8  8  0 10  0.0000000  0  9G01G03G09G28G31G06G26G04G16
  -4986840.30946  -3866415.41444  23085886.1254                   23085888.0944
        41.0004         28.5004
 -31292866.49647 -24448028.44548  19835291.4224                   19835290.4024
        47.5004         51.7504
  -9574676.56646  -7384631.20746  23367907.3054                   23367909.7234
        40.7504         38.0004
  10727714.82446   8367556.02343  24614512.1254                   24614510.6334
        39.5004         19.7504
  -8736734.98447  -6792929.93747  21821165.1804                   21821161.3054
        46.7504         42.5004
  -5048824.26246  -3870920.73444  24721902.6414                   24721905.2624
        39.7504         28.5004
 -26577577.85247 -20688104.31647  21353894.4064                   21353894.2194
        45.0004         45.0004
 -26997882.64847 -20874855.10946  20928290.8674                   20928288.7074
        47.2504         36.7504
 -14362492.37147 -15214171.21545  21871675.1334                   21871672.4264
        45.2504         32.2504
 25  8  8  0 10 30.0000000  0  9G01G03G09G28G31G06G26G04G16
  -4927786.63746  -3820399.77344  23097123.7664                   23097126.3324
        40.7504         28.7504
 -31317741.49248 -24467411.55548  19830557.9774                   19830556.5634
        49.0004         51.7504
  -9683045.40647  -7469074.30146  23347286.0084                   23347287.0944
        42.5004         37.7504
  10796202.45746   8420923.01243  24627544.8524                   24627543.5634
        38.7504         20.0004
  -8680530.18747  -6749134.02747  21831860.1884                   21831856.8404
        46.0004         43.0004
  -5121920.85546  -3927879.08644  24707992.8914                   24707995.4064
        39.7504         29.0004
 -26605285.42647 -20709694.61347  21348621.8524                   21348621.9264
        46.2504         44.7504
 -27068524.61747 -20929900.76646  20914848.4384                   20914846.1994
        47.5004         37.0004
 -14476266.39547 -15302826.18745  21850024.8914                   21850021.8524
        44.5004         32.2504
 25  8  8  0 11  0.0000000  0  9G01G03G09G28G31G06G26G04G16
  -4868574.20347  -3774260.43744  23108393.0474                   23108393.5594
        43.0004         28.5004
 -31342041.97748 -24486346.99648  19825933.5474                   19825932.5204
        48.7504         51.7504
  -9791382.30146  -7553492.53546  23326668.9144                   23326671.2154
        41.5004         38.0004
  10864691.41846   8474290.92243  24640577.4614                   24640577.0084
        37.7504         21.5004
  -8624095.66847  -6705159.10947  21842599.6724                   21842596.1684
        46.7504         42.2504
  -5194512.71146  -3984444.15244  24694179.8054                   24694181.4064
        41.0004         29.0004
 -26632365.81247 -20730796.19947  21343468.5784                   21343468.3134
        45.7504         44.5004
 -27139005.33647 -20984820.76246  20901435.9304                   20901433.8794
        47.5004         37.0004
 -14589653.39547 -15391179.58245  21828447.3834                   21828444.8594
        45.0004         32.5004
 25  8  8  0 11 30.0000000  0  9G01G03G09G28G31G06G26G04G16
  -4809225.32447  -3728014.73844  23119686.2664                   23119687.8404
        42.7504         28.7504
 -31365786.71548 -24504849.39148  19821415.1724                   19821413.6764
        48.0004         51.7504
  -9899706.27747  -7637900.65246  23306056.7424                   23306058.0474
        42.0004         39.0004
  10933160.79746   8527643.66443  24653606.5864                   24653605.5784
        38.5004         21.5004
  -8567453.25447  -6661022.19947  21853377.8674                   21853374.7194
        47.0004         42.5004
  -5266617.93446  -4040630.01644  24680458.7114                   24680459.8954
        40.7504         28.5004
 -26658838.12147 -20751423.95347  21338431.2504                   21338430.8484
        44.7504         45.2504
 -27209343.60547 -21039629.76246  20888051.4534                   20888049.0434
        47.5004         37.0004
 -14702669.35547 -15479243.85245  21806941.5314                   21806938.8404
        45.2504         33.2504
 25  8  8  0 12  0.0000000  0  9G01G03G09G28G31G06G26G04G16
  -4749728.09846  -3681653.46144  23131007.3054                   23131010.0234
        39.7504         27.7504
 -31388960.08248 -24522906.55948  19817005.7894                   19817004.3674
        49.5004         51.7504
 -10008001.82446  -7722286.64846  23285447.7504                   23285449.9654
        41.7504         38.2504
  11001624.14546   8580991.71143  24666634.6024                   24666634.3164
        39.0004         21.7504
  -8510590.53147  -6616713.61747  21864199.1644                   21864195.5124
        46.5004         42.7504
  -5338220.37146  -4096424.09844  24666832.0784                   24666834.1254
        40.0004         28.5004
 -26684687.17647 -20771566.06247  21333512.2584                   21333511.9264
        47.0004         45.0004
 -27279523.89847 -21094315.67246  20874696.4304                   20874694.1334
        47.5004         37.0004
 -14815295.61747 -15567004.47345  21785509.0314                   21785506.4224
        44.7504         32.7504
 25  8  8  0 12 30.0000000  0  9G01G03G09G28G31G06G26G04G16
  -4690082.44147  -3635176.54744  23142359.0164                   23142360.8164
        42.7504         28.5004
 -31411558.44148 -24540515.66448  19812705.5314                   19812703.9844
        48.7504         52.0004
 -10116265.51246  -7806647.79346  23264846.0554                   23264847.2734
        41.5004         38.5004
  11070083.10246   8634336.29743  24679662.6564                   24679661.7734
        40.0004         21.7504
  -8453506.27747  -6572232.41447  21875061.6644                   21875058.3324
        46.0004         42.5004
  -5409315.78546  -4151823.10544  24653303.2274                   24653305.3204
        39.2504         29.5004
 -26709909.74247 -20791220.00047  21328712.4774                   21328712.3134
        45.5004         44.7504
 -27349542.53947 -21148875.60246  20861372.6414                   20861370.4184
        47.7504         36.7504
 -14927526.10947 -15654456.69545  21764152.3134                   21764149.9184
        45.5004         32.2504
 25  8  8  0 13  0.0000000  0  9G01G03G09G28G31G06G26G04G16
  -4630298.68047  -3588592.00044  23153735.2504                   23153737.2544
        42.7504         28.5004
 -31433588.57048 -24557681.99648  19808513.0474                   19808511.8094
        48.7504         52.0004
 -10224504.13346  -7890989.42646  23244248.0944                   23244250.2814
        40.7504         38.0004
  11138528.89846   8687670.66443  24692687.3914                   24692686.3634
        39.0004         21.5004
  -8396210.55947  -6527586.43747  21885964.9844                   21885961.3714
        47.0004         42.2504
  -5479910.26646  -4206831.73444  24639869.6254                   24639871.8524
        39.7504         29.0004
 -26734513.06247 -20810391.40647  21324030.5314                   21324030.6334
        46.5004         44.7504
 -27419406.21947 -21203314.80146  20848077.7504                   20848075.3484
        47.5004         37.0004
 -15039364.25847 -15741603.19545  21742870.3204                   21742867.5164
        45.0004         32.2504
 25  8  8  0 13 30.0000000  0  9G01G03G09G28G31G06G26G04G16
  -2994943.93747  -2314289.83644  23464934.8444                   23464934.5514
        42.5004         27.0004
 -29879611.28147 -23346790.60248  20104224.9774                   20104224.0474
        47.2504         52.0004
  -8757275.77746  -6747694.43746  23523452.6094                   23523454.0514
        39.7504         37.2504
  12782395.67646   9968605.76643  25005504.4304                   25005504.2234
        38.7504         22.2504
  -6763269.60547  -5255164.93747  22196702.5394                   22196699.5044
        46.0004         42.2504
  -3974562.52346  -3033833.46544  24926328.2974                   24926329.9774
        40.2504         29.0004
 -25183058.28547 -19601465.58647  21619262.4774                   21619262.4264
        44.5004         44.7504
 -25913674.10247 -20030017.00046  21134608.6414                   21134606.4694
        47.5004         37.7504
 -13575365.40647 -14600824.75445  22021460.3444                   22021457.2704
        44.5004         32.5004
 25  8  8  0 14  0.0000000  0  9G01G03G09G28G31G06G26G04G16
  -2934863.85246  -2267474.36744  23476366.0474                   23476367.6094
        41.5004         26.0004
 -29900474.10248 -23363047.34048  20100254.9224                   20100253.8984
        48.2504         51.7504
  -8865433.77746  -6831973.22346  23502870.2424                   23502872.3524
        39.0004         37.0004
  12850840.09046  10021938.98443  25018529.4844                   25018529.5274
        39.5004         22.2504
  -6705528.69947  -5210172.05547  22207690.8914                   22207687.6484
        46.5004         42.0004
  -4044122.64846  -3088036.11744  24913091.2034                   24913093.1604
        39.7504         28.7504
 -25206393.55547 -19619648.90647  21614822.0084                   21614822.1054
        45.0004         45.0004
 -25983196.85547 -20084190.54346  21121379.0554                   21121377.0554
        47.5004         37.2504
 -13686380.12547 -14687329.63345  22000334.2584                   22000331.4414
        44.5004         31.7504
 25  8  8  0 14 30.0000000  0  9G01G03G09G28G31G06G26G04G16
  -2874652.06246  -2220556.28544  23487823.4844                   23487826.4304
        40.5004         25.7504
 -29920764.41048 -23378857.96948  20096393.6484                   20096392.7504
        49.0004         51.5004
  -8973562.59446  -6916229.28146  23482294.9774                   23482296.1454
        40.2504         37.5004
  12919269.86346  10075260.83243  25031551.9534                   25031550.6254
        38.2504         20.7504
  -6647580.66047  -5165017.77047  22218717.9774                   22218714.3674
        46.2504         42.0004
  -4113175.79346  -3141843.75445  24899950.9144                   24899953.1954
        39.7504         30.0004
 -25229106.64147 -19637347.39547  21610500.2194                   21610499.7234
        46.5004         45.0004
 -26052560.14147 -20138239.80946  21108179.7584                   21108177.3954
        47.5004         37.0004
 -13796989.82047 -14773518.88745  21979286.5474                   21979283.2034
        44.7504         32.2504
 25  8  8  0 15  0.0000000  0  9G01G03G09G28G31G06G26G04G16
  -2814300.66447  -2173529.46144  23499309.8594                   23499310.8914
        42.5004         27.0004
 -29940470.89148 -23394213.66848  20092643.8364                   20092642.5784
        49.0004         51.7504
  -9081650.99246  -7000453.85546  23461725.4304                   23461727.2344
        38.5004         37.0004
  12987694.27346  10128578.54343  25044571.4224                   25044571.2274
        37.5004         21.5004
  -6589416.87947  -5119695.36747  22229786.3834                   22229782.6134
        46.2504         42.2504
  -4181710.03546  -3195247.05144  24886908.9224                   24886910.8914
        40.7504         29.2504
 -25251186.57847 -19654552.52747  21606298.4844                   21606297.7974
        47.0004         45.0004
 -26121752.48447 -20192155.88346  21095013.1804                   21095010.6454
        47.0004         36.7504
 -13907180.48047 -14859381.62545  21958317.4614                   21958314.6214
        44.5004         32.0004
 25  8  8  0 15 30.0000000  0  9G01G03G09G28G31G06G26G04G16
  -2753813.70347  -2126396.95344  23510820.0164                   23510821.0824
        43.0004         26.5004
 -29959594.12547 -23409114.88348  20089005.0474                   20089003.4884
        47.0004         51.7504
  -9189699.43446  -7084647.27046  23441165.0704                   23441166.2894
        41.0004         37.0004
  13056111.06346  10181890.27343  25057591.0004                   25057591.0704
        37.5004         20.7504
  -6531040.82047  -5074207.55947  22240894.7814                   22240891.5124
        46.2504         42.0004
  -4249725.26246  -3248245.89544  24873966.2664                   24873968.6024
        40.7504         29.7504
 -25272634.51647 -19671265.18747  21602217.0394                   21602216.7304
        44.7504         45.0004
 -26190774.27048 -20245939.05146  21081878.4924                   21081876.4024
        48.0004         37.5004
 -14016949.54347 -14944915.86345  21937428.9534                   21937426.1954
        45.0004         32.5004
 25  8  8  0 16  0.0000000  0  9G01G03G09G28G31G06G26G04G16
  -2693203.12147  -2079168.16044  23522353.8054                   23522355.1024
        42.0004         24.5004
 -29978142.55948 -23423568.21148  20085475.2114                   20085473.8954
        49.2504         51.7504
  -9297716.42246  -7168816.18046  23420609.7814                   23420611.1134
        40.7504         36.2504
  13124509.98846  10235188.03943  25070606.4304                   25070606.3674
        36.0004         19.5004
  -6472463.60947  -5028563.02046  22252041.6644                   22252037.8754
        45.5004         41.5004
  -4317229.39146  -3300846.46144  24861120.5004                   24861123.0824
        38.2504         28.2504
 -25293459.32847 -19687492.29747  21598253.9844                   21598253.7034
        47.2504         45.2504
 -26259633.73047 -20299595.73046  21068774.8054                   21068772.7974
        47.5004         37.5004
 -14126302.47347 -15030125.83645  21916619.4304                   21916616.9064
        44.5004         33.5004
 25  8  8  0 16 30.0000000  0  9G01G03G09G28G31G06G26G04G16
  -2632463.47346  -2031838.77344  23533911.3754                   23533914.2074
        41.2504         26.7504
 -29996107.37148 -23437566.76248  20082056.6174                   20082055.3594
        49.2504         51.7504
  -9405692.97746  -7252953.59046  23400062.0554                   23400063.2464
        39.5004         36.0004
  13192898.00846  10288477.34043  25083621.4064                   25083620.1214
        37.7504         20.2504
  -6413679.13747  -4982756.97746  22263228.3134                   22263224.5084
        46.5004         41.7504
  -4384212.89846  -3353041.37944  24848374.0474                   24848376.4064
        39.0004         29.2504
 -25313652.64847 -19703227.33247  21594411.4454                   21594411.2464
        46.2504         45.2504
 -26328321.84047 -20353118.89846  21055703.9224                   21055701.5434
        47.2504         36.7504
 -14235227.60947 -15115002.44945  21895891.4694                   21895888.8984
        44.2504         32.5004
 25  8  8  0 17  0.0000000  0  9G01G03G09G28G31G06G26G04G16
  -2571602.66847  -1984415.02044  23545494.2894                   23545495.5784
        42.5004         26.0004
 -30013493.18748 -23451114.15248  20078748.3594                   20078747.0004
        48.2504         51.7504
  -9513633.53946  -7337062.95745  23379521.6804                   23379522.9844
        39.0004         35.0004
  13261268.84445  10341753.30143  25096631.4774                   25096631.2544
        34.7504         20.7504
  -6354694.53947  -4936794.97346  22274452.5864                   22274448.8054
        46.2504         41.5004
  -4450679.82846  -3404833.77744  24835726.6564                   24835728.3794
        39.5004         29.7504
 -25333219.55947 -19718474.25047  21590687.9774                   21590687.8444
        46.0004         45.5004
 -26396842.92247 -20406511.91046  21042664.8134                   21042662.4494
        47.7504         37.5004
 -14343726.84847 -15199547.20745  21875244.8674                   21875242.1054
        44.7504         32.7504
 25  8  8  0 17 30.0000000  0  9G01G03G09G28G31G06G26G04G16
  -2510623.77346  -1936899.25044  23557098.3984                   23557098.9844
        41.5004         24.5004
 -30030299.57448 -23464210.03948  20075550.0084                   20075548.7584
        49.0004         51.7504
  -9621537.66446  -7421143.93045  23358988.4614                   23358989.5004
        39.2504         35.5004
  13329621.14146  10395014.77343  25109639.4224                   25109638.6684
        36.0004         18.5004
  -6295512.30147  -4890678.98446  22285714.6254                   22285710.9924
        46.2504         41.0004
  -4516629.12146  -3456222.82045  24823176.2194                   24823178.4224
        39.0004         30.2504
 -25352160.18747 -19733233.16847  21587083.8674                   21587083.3014
        47.0004         45.2504
 -26465196.27747 -20459774.23046  21029657.6414                   21029655.0514
        47.7504         37.2504
 -14451796.39147 -15283757.14545  21854679.3444                   21854677.3714
        45.2504         32.7504
 25  8  8  0 18  0.0000000  0  9G01G03G09G28G31G06G26G04G16
  -2449522.52746  -1889288.07843  23568725.2584                   23568726.6804
        41.0004         22.7504
 -30046518.96548 -23476848.53148  20072463.4694                   20072462.3404
        48.7504         51.7504
  -9729397.53546  -7505190.42245  23338462.3674                   23338463.6684
        38.5004         35.7504
  13397960.94545  10448266.46943  25122643.6884                   25122642.5234
        35.5004         19.2504
  -6236127.45347  -4844405.11346  22297015.1954                   22297011.4734
        46.5004         41.5004
  -4582052.51646  -3507202.08645  24810725.9224                   24810728.8244
        39.7504         30.0004
 -25370467.36747 -19747498.49647  21583599.8444                   21583599.7274
        47.5004         45.2504
 -26533373.97347 -20512899.66046  21016683.6804                   21016681.1644
        47.0004         37.5004
 -14559425.75047 -15367624.09445  21834198.7504                   21834195.9024
        45.2504         33.7504
 25  8  8  0 18 30.0000000  0  9G01G03G09G28G31G06G26G04G16
  -2388311.14547  -1841591.13344  23580374.5164                   23580375.4264
        42.0004         26.2504
 -30062160.34847 -23489036.62148  20069487.3444                   20069485.5124
        47.5004         51.7504
  -9837221.88346  -7589209.23846  23317944.4064                   23317945.8834
        38.2504         36.0004
  13466277.46546  10501500.06343  25135643.5864                   25135643.4804
        38.0004         19.2504
  -6176551.39147  -4797982.24646  22308352.4064                   22308348.1684
        46.2504         41.2504
  -4646958.37946  -3557778.05944  24798375.4614                   24798377.7544
        38.5004         29.5004
 -25388150.61347 -19761277.63347  21580234.7194                   21580234.6804
        45.2504         45.0004
 -26601384.68747 -20565894.98846  21003741.6334                   21003739.2894
        47.2504         37.5004
 -14666621.32847 -15451153.03145  21813800.1254                   21813796.9654
        45.5004         33.7504
 25  8  8  0 19  0.0000000  0  9G01G03G09G28G31G06G26G04G16
  -2326988.24646  -1793807.27744  23592043.4384                   23592044.8914
        40.0004         25.0004
 -30077218.99648 -23500770.63748  20066621.6024                   20066620.4694
        49.0004         51.7504
  -9945005.77046  -7673196.53145  23297434.1884                   23297434.9654
        39.7504         35.7504
  13534573.82446  10554717.98043  25148639.8204                   25148640.2894
        36.7504         18.5004
  -6116782.09847  -4751408.80546  22319726.1884                   22319722.3284
        46.2504         40.7504
  -4711341.50046  -3607946.68445  24786123.2814                   24786126.0594
        38.2504         30.0004
 -25405205.69147 -19774567.28147  21576989.3054                   21576989.0514
        47.2504         44.7504
 -26669223.27047 -20618756.19146  20990832.3134                   20990830.1094
        46.7504         37.0004
 -14773375.04347 -15534337.65245  21793485.4384                   21793481.8554
        45.7504         33.7504
 25  8  8  0 19 30.0000000  0  9G01G03G09G28G31G06G26G04G16
  -2265556.41846  -1745938.57044  23603733.5784                   23603735.1334
        40.5004         26.0004
 -30091694.30548 -23512050.10248  20063866.8204                   20063865.7034
        49.0004         51.7504
 -10052748.34046  -7757151.64845  23276931.2274                   23276932.2034
        40.0004         35.5004
  13602849.33646  10607919.56643  25161632.4304                   25161632.4534
        38.2504         19.2504
  -6056821.03547  -4704685.92646  22331136.2034                   22331132.7974
        46.5004         41.2504
  -4775200.48846  -3657706.91444  24773971.2344                   24773973.4064
        38.7504         29.7504
 -25421632.48047 -19787367.36747  21573862.9774                   21573863.3364
        47.0004         44.5004
 -26736888.72747 -20671482.49646  20977956.2734                   20977953.6954
        47.5004         37.2504
 -14879683.33247 -15617175.18745  21773255.8754                   21773252.3634
        45.7504         33.2504
 25  8  8  0 20  0.0000000  0  9G01G03G09G28G31G06G26G04G16
  -2204023.39147  -1697990.96544  23615442.9924                   23615444.7194
        42.0004         27.0004
 -30105590.74248 -23522878.48848  20061222.6804                   20061221.6374
        49.5004         51.7504
 -10160453.73846  -7841077.80146  23256435.5784                   23256436.2384
        39.0004         36.5004
  13671097.68046  10661100.08643  25174620.6254                   25174619.3204
        38.7504         19.7504
  -5996675.76647  -4657819.53146  22342581.0634                   22342577.6724
        46.0004         40.5004
  -4838539.24246  -3707061.76645  24761918.7894                   24761920.6024
        38.2504         30.0004
 -25437435.94947 -19799681.74247  21570856.1334                   21570856.0944
        47.0004         44.7504
 -26804385.06247 -20724077.01246  20965111.8444                   20965109.3364
        47.5004         37.2504
 -14985547.56247 -15699666.71945  21753110.1414                   21753107.3674
        44.2504         33.0004
 25  8  8  0 20 30.0000000  0 10G01G03G09G28G31G06G26G07G04G16
  -2142394.66447  -1649968.82044  23627171.5314                   23627172.0944
        43.2504         27.0004
 -30118910.63348 -23533257.62948  20058688.0704                   20058686.8484
        49.2504         51.7504
 -10268123.97346  -7924976.57046  23235946.0314                   23235947.0634
        41.5004         37.0004
  13739315.21145  10714256.57442  25187600.3754                   25187601.2304
        35.5004         17.2504
  -5936350.92247  -4610813.19946  22354060.7734                   22354057.2384
        45.7504         40.7504
  -4901359.33646  -3756012.44545  24749964.6174                   24749966.9304
        38.2504         31.7504
 -25452618.91047 -19811512.60547  21567967.0004                   21567966.7234
        47.5004         44.5004
   1427587.29756   1155682.94153  25017812.8204                   25017818.0594
        37.2504         21.5004
 -26871714.10947 -20776541.17646  20952299.5084                   20952297.3444
        46.7504         37.7504
 -15090967.24647 -15781811.83245  21733049.3754                   21733046.2384
        45.7504         33.2504
 25  8  8  0 21  0.0000000  0 10G01G03G09G28G31G06G26G07G04G16
  -2080663.87546  -1601867.16844  23638918.3984                   23638919.9734
        40.5004         26.7504
 -30131644.46148 -23543180.09448  20056264.4614                   20056263.3484
        48.7504         51.7504
 -10375749.07446  -8008840.16446  23215465.8984                   23215466.4924
        40.0004         37.2504
  13807510.00846  10767395.22742  25200578.0394                   25200578.2274
        37.0004         17.7504
  -5875839.34847  -4563661.36346  22365575.9924                   22365572.6804
        44.7504         41.0004
  -4963650.64546  -3804551.10945  24738110.6174                   24738112.6454
        38.7504         31.7504
 -25467172.40647 -19822852.97747  21565197.2274                   21565196.9774
        47.0004         44.0004
   1314050.28546   1067212.93044  24996207.0704                   24996212.7854
        41.5004         28.7504
 -26938865.88747 -20828867.20746  20939521.0084                   20939518.7734
        47.0004         38.0004
 -15195929.82847 -15863600.76245  21713075.4774                   21713072.7424
        44.5004         33.5004
 25  8  8  0 21 30.0000000  0 10G01G03G09G28G31G06G26G07G04G16
  -2018847.64546  -1553698.88744  23650680.0944                   23650683.5044
        39.2504         26.5004
 -30143805.62948 -23552656.32448  20053950.7584                   20053949.0904
        49.0004         51.7504
 -10483342.23446  -8092678.87546  23194991.6024                   23194992.3554
        41.7504         38.0004
  13875666.99646  10820504.57842  25213549.2424                   25213547.9414
        39.0004         17.7504
  -5815156.87147  -4516376.35546  22377123.6884                   22377119.6174
        45.7504         40.5004
  -5025426.07846  -3852687.78545  24726355.5944                   24726356.6484
        37.7504         30.5004
 -25481110.32047 -19833713.68747  21562544.9534                   21562544.9734
        47.0004         44.5004
   1200663.91047    978860.28545  24974630.1644                   24974635.2154
        43.5004         34.0004
 -27005853.23447 -20881065.12546  20926773.9924                   20926771.4064
        47.0004         37.5004
 -15300445.27747 -15945041.29345  21693186.5394                   21693183.9694
        46.0004         34.2504
 25  8  8  0 22  0.0000000  0 10G01G03G09G28G31G06G26G07G04G16
  -1956939.39547  -1505458.96544  23662462.2974                   23662464.3404
        42.2504         26.0004
 -30155384.43748 -23561678.78148  20051747.0944                   20051745.6214
        49.0004         51.7504
 -10590893.21547  -8176484.71946  23174524.8594                   23174526.1414
        43.2504         38.5004
  13943794.70746  10873591.10543  25226512.6174                   25226511.3524
        37.7504         18.2504
  -5754296.30147  -4468952.57846  22388704.3984                   22388701.4264
        45.2504         41.0004
  -5086675.13746  -3900414.28145  24714699.5314                   24714702.1024
        37.5004         31.5004
 -25494423.49247 -19844087.58647  21560011.5704                   21560011.6644
        46.7504         44.2504
   1087438.61347    890633.15245  24953084.0394                   24953088.7774
        42.5004         33.5004
 -27072665.93047 -20933126.92246  20914059.6414                   20914057.3324
        47.5004         37.2504
 -15404501.01647 -16026123.59845  21673385.9924                   21673383.0044
        45.7504         34.0004
 25  8  8  0 22 30.0000000  0 10G01G03G09G28G31G06G26G07G04G16
  -1894946.74247  -1457153.23444  23674259.4064                   23674262.0234
        43.0004         27.7504
 -30166385.53148 -23570251.05948  20049653.8754                   20049652.5944
        48.7504         51.5004
 -10698406.23847  -8260260.99646  23154065.8674                   23154067.1764
        43.0004         38.5004
  14011887.08246  10926650.00842  25239469.4384                   25239469.3094
        38.2504         17.7504
  -5693264.45347  -4421395.34446  22400318.9774                   22400315.2934
        45.7504         40.5004
  -5147401.93746  -3947733.82045  24703143.9064                   24703146.3794
        38.5004         30.2504
 -25507117.03947 -19853978.65247  21557596.4454                   21557596.0594
        46.7504         44.2504
    974370.29746    802528.36345  24931567.6414                   24931572.5864
        39.0004         30.7504
 -27139307.97347 -20985055.76246  20901378.0394                   20901375.3484
        47.2504         37.2504
 -15508098.63347 -16106848.93445  21653671.3364                   21653668.1054
        45.2504         33.5004
 25  8  8  0 23  0.0000000  0 10G01G03G09G28G31G06G26G07G04G16
  -1832870.80947  -1408782.64544  23686073.3524                   23686074.0234
        42.0004         26.7504
 -30176806.94148 -23578371.64548  20047670.9454                   20047669.7154
        48.5004         51.5004
 -10805878.82847  -8344005.76646  23133615.0554                   23133615.6524
        43.7504         39.0004
  14079944.62546  10979681.82042  25252421.1094                   25252419.9104
        39.5004         17.7504
  -5632061.28547  -4373704.60246  22411965.2034                   22411961.6174
        45.7504         40.5004
  -5207603.81246  -3994644.34045  24691688.6414                   24691690.3594
        38.7504         30.5004
 -25519189.57047 -19863385.81647  21555298.7584                   21555298.6844
        47.2504         44.5004
    861461.84446    714548.13345  24910081.4774                   24910086.1374
        39.0004         32.0004
 -27205776.80547 -21036849.62946  20888729.4144                   20888726.7234
        46.7504         37.2504
 -15611233.18447 -16187213.43745  21634045.9844                   21634042.5314
        45.7504         33.2504
 25  8  8  0 23 30.0000000  0 10G01G03G09G28G31G06G26G07G04G16
  -1770714.96947  -1360349.76244  23697900.5394                   23697902.8754
        44.2504         28.5004
 -30186648.89548 -23586040.69948  20045797.8914                   20045796.5864
        48.7504         51.5004
 -10913310.73447  -8427718.84846  23113170.4694                   23113171.5354
        43.7504         40.0004
  14147966.00446  11032685.46142  25265365.7034                   25265364.3204
        39.7504         17.2504
  -5570690.01247  -4325882.87546  22423644.2584                   22423640.6914
        45.0004         40.5004
  -5267280.26646  -4041145.43445  24680331.5944                   24680334.0514
        37.7504         32.0004
 -25530641.81247 -19872309.64147  21553119.4304                   21553119.1804
        47.0004         44.0004
    748713.87546    626692.93045  24888625.9224                   24888630.6804
        40.0004         32.0004
 -27272071.97347 -21088508.17246  20876113.9064                   20876111.3364
        46.7504         37.5004
 -15713901.55147 -16267214.67245  21614507.9384                   21614505.1954
        45.0004         33.7504
 25  8  8  0 24  0.0000000  0 10G01G03G09G28G31G06G26G07G04G16
  -1708478.08647  -1311853.71544  23709743.2974                   23709746.0984
        42.7504         28.5004
 -30195907.30947 -23593255.05548  20044035.7274                   20044035.0864
        47.7504         51.5004
 -11020697.28947  -8511396.58646  23092736.1884                   23092736.3594
        44.0004         40.0004
  14215953.88746  11085663.02342  25278303.1564                   25278302.0864
        40.0004         17.2504
  -5509148.64847  -4277928.61346  22435354.8834                   22435351.8954
        45.7504         40.5004
  -5326426.64846  -4087233.47345  24669076.1644                   24669078.7464
        37.7504         31.0004
 -25541470.21547 -19880747.34447  21551059.0864                   21551058.5864
        45.2504         44.0004
    636131.06646    538966.47345  24867201.0234                   24867206.0634
        37.7504         30.5004
 -27338188.72747 -21140027.68746  20863532.4064                   20863529.6804
        46.0004         37.0004
 -15816096.87947 -16346847.30545  21595060.8984                   21595058.1054
        45.7504         33.5004
 25  8  8  0 24 30.0000000  0 10G01G03G09G28G31G06G26G07G04G16
  -1646160.71146  -1263294.96544  23721601.7034                   23721604.8754
        40.5004         27.2504
 -30204579.86347 -23600012.89548  20042385.5004                   20042384.3244
        47.2504         51.7504
 -11128035.60547  -8595036.73046  23072310.3204                   23072311.0044
        44.0004         39.7504
  14283909.40246  11138615.32442  25291233.8914                   25291234.2274
        39.5004         17.2504
  -5447436.82447  -4229841.52746  22447098.3594                   22447095.1374
        45.0004         40.5004
  -5385040.02046  -4132906.20745  24657922.7034                   24657924.6884
        37.5004         32.2504
 -25551672.99647 -19888697.56247  21549117.3134                   21549117.0234
        44.5004         44.0004
    523716.82046    451371.34845  24845809.0784                   24845814.7114
        39.0004         30.7504
 -27404124.04747 -21191405.82446  20850985.0314                   20850982.8594
        46.0004         37.7504
 -15917813.10247 -16426106.61345  21575705.3054                   21575702.0514
        46.2504         34.0004
 25  8  8  0 25  0.0000000  0 10G01G03G09G28G31G06G26G07G04G16
  -1583772.55147  -1214681.10944  23733475.0234                   23733477.0274
        43.2504         27.0004
 -30212673.21147 -23606319.40648  20040845.6884                   20040844.2504
        47.7504         51.5004
 -11235331.73047  -8678644.02046  23051892.5314                   23051892.6844
        44.0004         39.2504
  14351824.69946  11191536.37542  25304158.0234                   25304158.0004
        39.5004         16.7504
  -5385563.37547  -4181628.51246  22458872.1884                   22458869.0044
        45.5004         41.0004
  -5443126.32846  -4178168.21545  24646869.4224                   24646871.2424
        38.7504         31.0004
 -25561257.34847 -19896165.88347  21547293.3134                   21547293.2544
        45.7504         44.0004
    411465.13345    363902.89544  24824447.9774                   24824453.2114
        33.5004         25.0004
 -27469883.82847 -21242647.18446  20838471.6724                   20838469.1294
        45.5004         37.7504
 -16019054.27747 -16504995.75845  21556439.5864                   21556436.5314
        45.5004         33.7504
 25  8  8  0 25 30.0000000  0 10G01G03G09G28G31G06G26G07G04G16
  -1521311.19946  -1166010.19544  23745360.1954                   23745364.0904
        40.0004         26.5004
 -30220181.97748 -23612170.39548  20039416.5084                   20039415.4264
        49.2504         51.5004
 -11342579.66847  -8762213.73846  23031483.2034                   23031484.2194
        43.7504         40.0004
  14419704.05546  11244429.34842  25317075.3364                   25317074.4884
        39.0004         14.7504
  -5323525.14147  -4133287.08246  22470678.0164                   22470674.5784
        45.0004         40.7504
  -5500679.57046  -4223014.84445  24635917.0084                   24635918.7854
        38.2504         32.2504
 -25570218.46147 -19903148.56247  21545588.4534                   21545587.8834
        45.5004         44.2504
    299382.14145    276565.86744  24803119.4694                   24803124.0634
        31.5004         26.5004
 -27535461.96947 -21293746.99646  20825992.6724                   20825989.8204
        46.2504         37.5004
 -16119811.76647 -16583508.01645  21537266.1644                   21537263.0474
        45.2504         34.0004
 25  8  8  0 26  0.0000000  0 10G01G03G09G28G31G06G26G07G04G16
  -1458783.74646  -1117287.78144  23757260.0554                   23757262.3874
        40.0004         27.0004
 -30227110.57448 -23617569.30548  20038098.1804                   20038097.0164
        48.5004         51.2504
 -11449783.12147  -8845748.80546  23011083.4144                   23011083.8984
        43.0004         39.7504
  14487541.96546  11297289.94942  25329984.5234                   25329983.8134
        38.7504         16.7504
  -5261328.83247  -4084822.46946  22482513.7114                   22482510.1174
        46.0004         41.0004
  -5557703.45346  -4267449.00445  24625065.6414                   24625067.8284
        38.0004         31.5004
 -25578561.27747 -19909649.44547  21544000.6254                   21544000.1684
        45.5004         44.0004
    187464.07855    189357.46154  24781822.0864                   24781826.7274
        34.2504         25.7504
 -27600862.04347 -21344708.06646  20813547.0944                   20813544.5744
        45.7504         37.7504
 -16220086.78547 -16661644.31245  21518184.1174                   21518180.9964
        45.5004         34.5004
 25  8  8  0 26 30.0000000  0 10G01G03G09G28G31G06G26G07G04G16
  -1396194.42646  -1068517.19144  23769169.9694                   23769173.3794
        39.2504         25.0004
 -30233460.12148 -23622517.01248  20036889.5784                   20036888.8484
        49.0004         51.2504
 -11556942.57847  -8929249.57446  22990690.9304                   22990692.0164
        43.2504         39.7504
  14555336.05946  11350116.52743  25342884.2504                   25342885.1294
        37.7504         18.2504
  -5198977.50847  -4036237.06646  22494378.2664                   22494375.4104
        45.2504         40.7504
  -5614198.55546  -4311471.12145  24614314.7894                   24614317.2504
        37.5004         31.0004
 -25586287.42647 -19915669.81247  21542530.4064                   21542529.9454
        47.0004         44.0004
