     2.11           OBSERVATION DATA    G (GPS)             RINEX VERSION / TYPE
teqc  2019Feb25                         20250819 04:15:18UTCPGM / RUN BY / DATE
Linux 2.6.32-573.12.1.x86_64|x86_64|gcc -static|Linux 64|=+ COMMENT
BIT 2 OF LLI FLAGS DATA COLLECTED UNDER A/S CONDITION       COMMENT
36453561                                                    MARKER NAME
3645                                                        MARKER NUMBER
-Unknown-           -Unknown-                               OBSERVER / AGENCY
0220263645          TRIMBLE 5700        2.32                REC # / TYPE / VERS
-Unknown-           TRM39105.00     NONE                    ANT # / TYPE
 -2372560.9194 -4591118.7239  3726563.8470                  APPROX POSITION XYZ
        0.0000        0.0000        0.0000                  ANTENNA: DELTA H/E/N
     1     1                                                WAVELENGTH FACT L1/2
     7    L1    L2    C1    P1    P2    S1    S2            # / TYPES OF OBSERV
    18                                                      LEAP SECONDS
 SNR is mapped to RINEX snr flag value [0-9]                COMMENT
  L1 & L2: min(max(int(snr_dBHz/6), 0), 9)                  COMMENT
  2025     8     7    21     3    0.0000000     GPS         TIME OF FIRST OBS
                                                            END OF HEADER
 25  8  7 21  3  0.0000000  0  6G01G02G10G28G31G32
    -94003.20357    -53806.27055  22517994.2114                   22517993.9694
        45.5004         31.7504
    -23536.66057    -13719.39856  21418751.0474                   21418746.7504
        47.7504         38.7504
     63249.23457     35796.28957  22130114.5864                   22130115.1374
        47.0004         44.7504
    -41440.98857    -23987.30156  21066242.6174                   21066240.7304
        46.2504         38.0004
   -101563.79757    -64235.22357  21965429.1804                   21965428.2854
        45.5004         43.5004
     71430.46558     42260.46958  21478107.4304                   21478106.8954
        49.2504         50.0004
 25  8  7 21  3 30.0000000  0  7G01G02G10G28G31G32G08
   -173560.49647   -115798.91045  22502854.9924                   22502854.8954
        45.2504         31.2504
    -44492.80147    -30048.87546  21414763.1414                   21414758.7384
        47.7504         38.5004
    114197.47747     75496.14847  22139809.3984                   22139809.7974
        47.0004         44.7504
    -77490.32847    -52077.66046  21059382.4844                   21059380.5314
        45.7504         38.0004
   -195820.15247   -137681.62147  21947493.1414                   21947491.4264
        46.2504         43.0004
    129433.87148     87457.90248  21489145.2034                   21489144.6994
        49.2504         49.7504
    100329.63256     57978.25054  24473253.7734                   24473261.6844
        38.5004         26.7504
 25  8  7 21  4  0.0000000  0  7G01G02G10G28G31G32G08
   -253808.48047   -178329.72345  22487584.3054                   22487583.5554
        43.5004         31.5004
    -65973.96947    -46787.46546  21410675.8834                   21410670.9694
        47.0004         37.5004
    164366.36747    114588.73447  22149356.4064                   22149356.9964
        46.0004         44.5004
   -113998.90647    -80525.89546  21052435.2114                   21052433.3794
        46.5004         39.7504
   -290768.77347   -211667.47747  21929424.6884                   21929423.2344
        45.0004         43.2504
    186608.98448    132009.89148  21500025.4844                   21500024.7854
        49.5004         50.7504
    178005.578 5                  24488035.969
        32.250
 25  8  7 21  4 30.0000000  0  8G01G02G03G10G28G31G32G08
   -334579.07847   -241267.80545  22472214.4304                   22472213.8954
        44.5004         33.0004
    -87813.78148    -63805.53146  21406519.6954                   21406515.5314
        49.2504         40.2504
    -50026.68755   -102982.60255  24281662.6644                   24281667.2814
        35.7504         31.7504
    213921.71547    153203.22347  22158786.4534                   22158787.1914
        47.5004         46.0004
   -150799.95347   -109201.98846  21045432.2894                   21045430.0164
        46.2504         39.2504
   -386241.16047   -286061.43047  21911256.4614                   21911255.4844
        46.0004         43.2504
    243119.64848    176044.17247  21510779.0394                   21510777.9534
        48.2504         47.7504
    254892.06656    148763.21554  24502666.3444                   24502673.4104
        40.5004         28.5004
 25  8  7 21  5  0.0000000  0  8G01G02G03G10G28G31G32G08
   -415777.93047   -304539.54744  22456762.0634                   22456761.4614
        44.5004         29.7504
   -109919.35948    -81030.64146  21402313.2974                   21402308.8714
        48.7504         39.2504
   -136791.77746   -170591.61345  24265151.4454                   24265156.7814
        37.0004         30.5004
    262955.89548    191411.59047  22168117.4534                   22168117.9884
        48.0004         45.2504
   -187800.21547   -138033.33246  21038391.2344                   21038389.0594
        44.5004         38.5004
   -482142.13347   -360789.29346  21893007.2814                   21893006.3834
        43.5004         40.5004
    299056.22348    219631.09048  21521423.6884                   21521422.7274
        49.0004         50.0004
    331076.37546    208127.28545  24517163.5164                   24517171.9654
        38.7504         30.7504
 25  8  7 21  5 30.0000000  0  8G01G02G03G10G28G31G32G08
   -497322.42247   -368080.67645  22441245.3914                   22441244.4574
        44.5004         32.5004
   -132209.59847    -98399.65646  21398071.6644                   21398067.0784
        47.5004         39.0004
   -224263.96546   -238751.60245  24248505.4384                   24248511.4534
        36.5004         30.5004
    311549.17647    229276.41847  22177364.4224                   22177365.1564
        47.0004         44.7504
   -224918.36747   -166956.52046  21031328.1414                   21031325.9694
        46.0004         38.2504
   -578388.88347   -435786.63747  21874692.1254                   21874690.6804
        46.5004         43.5004
    354497.11348    262831.75848  21531973.5864                   21531972.6884
        49.5004         49.7504
    406636.31346    267004.98844  24531543.0004                   24531550.2854
        41.5004         29.7504
 25  8  7 21  6  0.0000000  0  9G01G02G03G10G28G31G32G08G25
   -579150.27747   -431842.56245  22425673.8284                   22425672.9774
        44.5004         31.7504
   -154623.97748   -115865.42246  21393806.3134                   21393801.4734
        48.2504         39.5004
   -312382.86346   -307415.51644  24231736.7274                   24231742.0124
        37.0004         29.0004
    359761.70347    266844.55947  22186538.9614                   22186539.5594
        47.2504         44.7504
   -262093.36747   -195924.02746  21024253.4454                   21024251.4574
        46.0004         38.7504
   -674918.76647   -511004.60947  21856322.4694                   21856321.7584
        45.7504         43.2504
    409500.50448    305691.52048  21542440.1644                   21542439.6724
        49.2504         49.7504
    481628.90246    325440.54745  24545813.1724                   24545821.0124
        41.0004         30.5004
    -82807.71555    -54204.98453  24793351.5004                   24793355.1724
        33.0004         22.7504
 25  8  7 21  6 30.0000000  0  9G01G02G03G10G28G31G32G08G25
   -661216.94547   -495790.56245  22410056.7344                   22410056.0044
        44.7504         31.7504
   -177119.24248   -133394.20346  21389525.6094                   21389520.6454
        48.2504         38.7504
   -401106.00046   -376550.28544  24214853.2194                   24214858.8524
        37.7504         29.7504
    407635.89147    304149.05947  22195649.3594                   22195649.9104
        47.5004         45.0004
   -299281.92647   -224902.09046  21017176.8594                   21017174.5554
        46.5004         38.5004
   -771686.45747   -586407.86747  21837908.6174                   21837907.4734
        46.2504         43.5004
    464106.85548    348241.90648  21552831.3754                   21552830.7424
        48.7504         49.5004
    556093.12946    383464.36345  24559983.5784                   24559991.7664
        40.7504         30.7504
   -132316.42645    -92783.16044  24783929.8364                   24783933.8204
        34.5004         24.2504
 25  8  7 21  7  0.0000000  0  9G01G02G03G10G28G31G32G08G25
   -743478.26647   -559890.25045  22394402.6954                   22394402.0784
        44.5004         31.7504
   -199653.22348   -150953.15646  21385237.2734                   21385232.5784
        48.2504         39.0004
   -490391.09046   -446122.90644  24197862.5554                   24197867.9494
        37.5004         28.0004
    455213.72347    341222.62547  22204703.0314                   22204703.8054
        47.7504         44.7504
   -336441.20347   -253857.33646  21010105.4924                   21010103.4384
        46.7504         39.2504
   -868647.31247   -661961.67247  21819457.2584                   21819456.0474
        46.2504         44.0004
    518356.24248    390514.12948  21563155.0314                   21563154.2344
        49.0004         49.5004
    630067.84846    441106.76645  24574060.4224                   24574069.0554
        40.0004         31.2504
   -182017.74645   -131511.37944  24774472.0474                   24774475.8364
        34.2504         24.5004
 25  8  7 21  7 30.0000000  0  9G01G02G03G10G28G31G32G08G25
   -825898.19947   -624113.50845  22378718.9694                   22378717.8524
        45.5004         32.2504
   -222191.21148   -168515.22746  21380948.3984                   21380943.5234
        48.2504         39.0004
   -580204.19546   -516106.99644  24180773.1174                   24180777.7504
        38.0004         29.5004
    502529.01647    378091.63347  22213707.1024                   22213707.7344
        47.2504         44.5004
   -373536.46147   -282762.69946  21003046.7114                   21003044.6374
        47.0004         38.7504
   -965764.90247   -737637.58647  21800976.3284                   21800974.8524
        47.0004         43.7504
    572280.57848    432533.07048  21573416.1484                   21573415.6134
        49.7504         49.5004
    703583.56346    498391.48845  24588050.5944                   24588057.6914
        39.7504         30.0004
   -231875.37145   -170361.47344  24764985.1884                   24764988.3634
        33.7504         26.0004
 25  8  7 21  8  0.0000000  0  9G01G02G03G10G28G31G32G08G25
   -908441.37947   -688432.81645  22363010.9694                   22363010.3284
        45.0004         32.2504
   -244699.43448   -186054.09846  21376665.4924                   21376660.8714
        48.2504         39.0004
   -670511.89546   -586476.48844  24163586.8284                   24163591.7424
        38.0004         29.0004
    549614.99247    414781.93447  22222667.1334                   22222667.8484
        46.7504         44.5004
   -410533.71147   -311591.69546  20996006.2034                   20996004.4304
        46.5004         38.7504
  -1063003.56647   -813407.84047  21782472.1564                   21782471.1724
        46.5004         44.0004
    625911.19548    474323.12948  21583622.0944                   21583621.1454
        49.7504         49.2504
    776670.31346    555341.92645  24601959.8204                   24601966.2034
        40.7504         31.5004
   -281853.98045   -209305.73444  24755474.8524                   24755477.0354
        35.7504         25.5004
 25  8  7 21  8 30.0000000  0  9G01G02G03G10G28G31G32G08G25
   -991080.08647   -752826.55945  22347285.4614                   22347284.4924
        45.2504         33.2504
   -267151.75047   -203549.41446  21372392.3674                   21372388.0514
        47.7504         39.0004
   -761288.48446   -657211.31244  24146313.1334                   24146317.1884
        39.0004         28.7504
    596497.11347    451313.39847  22231588.7424                   22231588.8984
        47.2504         44.5004
   -447406.61347   -340323.80146  20988989.4694                   20988987.6334
        46.2504         38.0004
  -1160334.90247   -889250.32447  21763950.4924                   21763949.5784
        46.0004         44.0004
    679271.66448    515902.69548  21593776.1094                   21593775.2194
        49.0004         49.0004
    849350.31346    611975.43445  24615790.1174                   24615797.2734
        40.5004         31.2504
   -331925.78145   -248322.73443  24745945.7664                   24745949.0704
        33.2504         23.7504
 25  8  7 21  9  0.0000000  0  9G01G02G03G10G28G31G32G08G25
  -1073778.94947   -817267.17245  22331548.4924                   22331547.3484
        44.5004         32.0004
   -289514.77348   -220975.14546  21368137.4694                   21368132.9064
        48.0004         39.2504
   -852500.44546   -728285.42644  24128955.3204                   24128959.9964
        39.2504         29.7504
    643208.60547    487711.91047  22240477.4384                   22240478.0124
        46.7504         44.5004
   -484121.18047   -368932.52046  20982002.9614                   20982000.9024
        46.0004         38.2504
  -1257723.11347   -965137.10547  21745418.2424                   21745416.4924
        46.0004         44.2504
    732393.36748    557296.20348  21603884.5164                   21603884.1994
        49.2504         49.2504
    921653.52746    668315.32445  24629549.4064                   24629556.4774
        41.0004         33.0004
   -382055.11346   -287384.44944  24736406.9144                   24736410.4574
        37.0004         27.5004
 25  8  7 21  9 30.0000000  0  9G01G02G03G10G28G31G32G08G25
  -1156515.64847   -881737.26645  22315804.4144                   22315803.0784
        45.0004         32.7504
   -311767.97348   -238315.29746  21363902.4454                   21363897.7114
        48.0004         39.0004
   -944127.44546   -799682.94945  24111519.9454                   24111523.9534
        40.0004         30.2504
    689769.60947    523993.16047  22249337.5004                   22249338.4884
        47.0004         44.5004
   -520656.45347   -397401.52746  20975050.6414                   20975048.4304
        45.0004         38.2504
  -1355145.42647  -1041050.47347  21726879.4224                   21726877.9734
        45.0004         43.5004
    785294.50848    598517.84448  21613951.5474                   21613950.5354
        49.2504         49.0004
    993596.86746    724374.79345  24643239.6254                   24643247.3914
        38.5004         30.5004
   -432219.63345   -326473.64843  24726860.3594                   24726862.2504
        34.2504         22.7504
 25  8  7 21 10  0.0000000  0  9G01G02G03G10G28G31G32G08G25
  -1239262.09847   -946214.94945  22300058.5084                   22300057.0514
        43.5004         31.7504
   -333884.75847   -255549.15646  21359693.5554                   21359689.0594
        47.7504         39.0004
  -1036143.30146   -871383.47744  24094009.4774                   24094013.2274
        39.0004         29.2504
    736206.07047    560177.35947  22258174.7274                   22258175.0124
        47.0004         44.0004
   -556985.72347   -425710.02346  20968137.2664                   20968135.1764
        45.2504         38.2504
  -1452573.21947  -1116968.10247  21708339.5864                   21708337.4024
        46.7504         44.0004
    837999.20748    639586.41448  21623981.2344                   21623980.2704
        48.5004         49.0004
   1065203.16546    780171.62445  24656865.5784                   24656873.7234
        38.0004         31.2504
   -482391.02346   -365568.16044  24717313.4064                   24717317.4064
        36.5004         28.0004
 25  8  7 21 10 30.0000000  0  9G01G02G03G10G28G31G32G08G25
  -1321997.80547  -1010684.27345  22284313.8914                   22284312.8874
        44.5004         32.5004
   -355846.33648   -272662.06646  21355514.7424                   21355510.4024
        48.2504         39.5004
  -1128529.37546   -943372.48445  24076429.2894                   24076432.6994
        39.7504         31.0004
    782536.28147    596278.76647  22266990.7114                   22266991.2154
        46.5004         43.7504
   -593090.00847   -453843.19946  20961266.6884                   20961264.3014
        45.5004         38.5004
  -1549985.70347  -1192873.81247  21689802.6564                   21689800.5664
        46.5004         44.0004
    890523.92648    680514.73848  21633976.0084                   21633975.3404
        49.0004         48.7504
   1136487.46946    835717.59445  24670431.2504                   24670438.8284
        37.5004         32.0004
   -532548.85945   -404652.13743  24707768.4384                   24707771.6214
        35.2504         22.7504
 25  8  7 21 11  0.0000000  0  9G01G02G03G10G28G31G32G08G25
  -1404705.34447  -1075131.64545  22268575.0314                   22268574.3094
        45.0004         32.5004
   -377637.01647   -289641.82446  21351368.1334                   21351363.6484
        47.5004         39.0004
  -1221270.10946  -1015637.84045  24058781.4534                   24058784.9024
        40.5004         30.0004
    828775.49647    632309.27047  22275789.3134                   22275790.7894
        46.5004         43.7504
   -628953.25047   -481788.55146  20954441.9694                   20954440.0124
        45.7504         38.5004
  -1647364.88747  -1268753.59047  21671271.2734                   21671269.5864
        46.2504         44.5004
    942882.09048    721313.28148  21643939.4774                   21643938.6914
        48.2504         48.5004
   1207461.75445    891022.00044  24683936.4694                   24683944.8014
        35.0004         29.5004
   -582675.34845   -443711.77343  24698229.8984                   24698232.5784
        34.5004         23.0004
 25  8  7 21 11 30.0000000  0  9G01G02G03G10G28G31G32G08G25
  -1487371.24247  -1139546.56645  22252844.3284                   22252843.7464
        45.0004         32.5004
   -399245.11747   -306479.30546  21347256.4694                   21347251.8094
        47.7504         39.0004
  -1314353.96946  -1088170.57445  24041067.4064                   24041071.5474
        38.2504         30.0004
    874934.94147    668277.60247  22284574.0784                   22284574.4494
        46.7504         44.0004
   -664563.57047   -509536.82046  20947665.9224                   20947663.4804
        45.0004         38.5004
  -1744696.85247  -1344596.55947  21652749.6334                   21652747.8634
        47.0004         44.2504
    995083.09448    761989.35948  21653872.8364                   21653872.4104
        49.0004         48.5004
   1278134.21145    946091.18044  24697384.6724                   24697393.6954
        33.5004         28.7504
   -632757.23045   -482736.49244  24688698.7504                   24688702.9494
        35.2504         25.7504
 25  8  7 21 12  0.0000000  0  9G01G02G03G10G28G31G32G08G25
  -1569975.80547  -1203913.68745  22237125.3594                   22237124.4144
        45.0004         33.5004
   -420652.71947   -323160.56246  21343182.6334                   21343177.8634
        47.7504         39.2504
  -1407763.15246  -1160956.80945  24023292.2034                   24023295.6484
        39.0004         30.2504
    921032.11747    704197.43047  22293345.7034                   22293346.3594
        46.5004         44.0004
   -699902.78147   -537073.83646  20940940.8364                   20940938.8014
        45.5004         38.7504
  -1841961.45347  -1420387.05547  21634240.7504                   21634239.2854
        46.5004         44.5004
   1047142.59448    802555.18448  21663779.7584                   21663778.9344
        48.5004         48.5004
   1348519.07445   1000936.27744  24710777.7814                   24710787.7074
        32.0004         25.2504
   -682774.66846   -521711.14543  24679181.4454                   24679184.0554
        36.0004         22.7504
 25  8  7 21 12 30.0000000  0  9G01G02G03G10G28G31G32G08G25
  -1652508.37947  -1268224.70345  22221419.4384                   22221418.8674
        45.2504         34.0004
   -441850.89147   -339678.61746  21339148.1884                   21339143.8204
        47.5004         38.7504
  -1501488.91846  -1233989.75444  24005456.6644                   24005460.8524
        37.2504         29.0004
    967075.48447    740075.32847  22302107.5554                   22302108.0634
        47.2504         43.7504
   -734961.71947   -564392.46146  20934269.2424                   20934267.2034
        45.2504         38.2504
  -1939147.78547  -1496116.55547  21615746.8674                   21615744.9774
        46.5004         44.5004
   1099067.29748    843015.96548  21673660.4774                   21673660.0204
        48.2504         48.5004
   1418621.80155   1055561.44954  24724119.9144                   24724127.9574
        34.5004         27.5004
   -732716.95746   -560627.14844  24669677.2034                   24669680.7034
        36.2504         24.0004
 25  8  7 21 13  0.0000000  0  9G01G02G03G10G28G31G32G08G25
  -1734950.53947  -1332465.27745  22205731.2974                   22205730.5824
        45.7504         33.7504
   -462822.80548   -356020.36746  21335157.6564                   21335153.1844
        48.0004         39.0004
  -1595514.58246  -1307256.37144  23987563.9064                   23987567.9454
        37.2504         29.0004
   1013081.30147    775923.97347  22310862.2194                   22310862.9774
        46.5004         43.5004
   -769723.50047   -591479.53146  20927654.7114                   20927651.9304
        46.2504         38.7504
  -2036236.73847  -1571770.17647  21597271.6564                   21597269.4654
        47.0004         45.0004
   1150871.71148    883383.01248  21683518.8834                   21683518.0084
        48.0004         48.5004
   1488455.34045   1109976.89544  24737409.0164                   24737417.6604
        34.2504         28.2504
   -782565.41846   -599470.04744  24660192.1254                   24660194.6994
        37.0004         24.7504
 25  8  7 21 13 30.0000000  0  9G01G02G03G10G28G31G32G08G25
  -1817293.91847  -1396628.87945  22190062.3914                   22190061.1254
        44.5004         34.2504
   -483562.20747   -372180.94546  21331211.2424                   21331206.4844
        47.7504         39.7504
  -1689833.60946  -1380751.59044  23969615.7344                   23969619.1524
        37.7504         29.7504
   1059055.76247    811748.17247  22319610.7504                   22319611.4494
        46.2504         43.0004
   -804181.31247   -618329.74646  20921097.0084                   20921095.1994
        46.2504         38.5004
  -2133219.54347  -1647341.10247  21578816.3204                   21578813.9064
        46.2504         44.2504
   1202560.17648    923659.71548  21693354.6414                   21693353.7074
        48.5004         48.2504
                                  24750645.5164                   24750655.4574
        31.0004         22.2504
   -832311.80146   -638233.41444  24650725.3444                   24650728.4884
        38.0004         27.7504
 25  8  7 21 14  0.0000000  0  9G01G02G03G10G28G31G32G08G25
  -1899529.93047  -1460708.81645  22174413.1644                   22174412.1024
        45.7504         33.7504
   -504062.37948   -388155.10546  21327309.7974                   21327305.5514
        48.5004         39.2504
  -1784439.29346  -1454470.19944  23951612.2814                   23951616.9734
        36.5004         29.5004
   1105005.23447    847552.90647  22328354.8134                   22328355.2974
        46.5004         43.0004
   -838328.19947   -644937.68446  20914599.3524                   20914597.3054
        45.0004         39.0004
  -2230087.25047  -1722822.33247  21560382.4064                   21560380.8914
        45.5004         44.5004
   1254137.32848    963849.67648  21703169.3364                   21703168.6374
        48.0004         48.2504
   1627327.38345   1218188.31644  24763836.1254                   24763844.4024
        31.7504         24.5004
   -881947.40246   -676910.47344  24641280.0944                   24641283.2114
        37.5004         26.0004
 25  8  7 21 14 30.0000000  0  9G01G02G03G10G28G31G32G08G25
  -1981642.20747  -1524692.32845  22158787.4454                   22158786.1024
        45.2504         35.0004
   -524308.75848   -403931.51246  21323457.2734                   21323452.6994
        48.2504         39.0004
  -1879316.98445  -1528400.74245  23933557.9304                   23933562.4534
        35.2504         30.0004
   1150943.91047    883349.22347  22337096.6644                   22337097.2814
        47.2504         43.5004
   -872149.33647   -671291.78546  20908163.8364                   20908161.2304
        45.2504         39.0004
  -2326823.18447  -1798200.88747  21541974.1644                   21541972.5784
        45.5004         44.2504
   1305615.59048   1003962.58248  21712965.5864                   21712964.9304
        48.5004         48.2504
   1696380.20755   1271995.46555  24776975.3674                   24776984.6294
        35.5004         30.0004
   -931455.96146   -715488.44944  24631859.0234                   24631860.4734
        38.0004         25.5004
 25  8  7 21 15  0.0000000  0  9G01G02G03G10G28G31G32G08G25
  -2063620.61747  -1588571.53545  22143187.4614                   22143186.3054
        46.0004         34.5004
   -544292.93447   -419503.59046  21319654.6884                   21319649.8714
        47.5004         38.7504
  -1974458.44145  -1602536.82045  23915452.6724                   23915457.4654
        34.2504         30.5004
   1196879.69147    919143.28547  22345838.0944                   22345838.5864
        47.0004         44.0004
   -905636.24247   -697385.45746  20901791.0004                   20901788.7304
        47.0004         38.0004
  -2423416.69947  -1873468.47347  21523593.0944                   21523591.4614
        46.0004         44.5004
   1357001.18048   1044003.27748  21722743.8754                   21722743.0044
        48.5004         48.0004
   1765186.08245   1325610.06645  24790070.1884                   24790078.4264
        35.5004         30.5004
   -980827.05545   -753959.38344  24622463.2734                   24622465.9064
        35.7504         26.0004
 25  8  7 21 15 30.0000000  0  9G01G02G03G10G28G31G32G08G25
  -2145452.69947  -1652336.73045  22127615.6564                   22127614.0164
        46.2504         34.7504
   -564004.16448   -434862.99646  21315903.4844                   21315898.6024
        48.0004         39.2504
  -2069852.75845  -1676869.91445  23897300.9454                   23897304.6174
        34.2504         31.2504
   1242822.96147    954943.17647  22354581.0704                   22354581.8164
        46.5004         43.5004
   -938778.04347   -723210.21146  20895484.4064                   20895482.0784
        47.2504         39.5004
  -2519854.53547  -1948614.75047  21505241.4924                   21505239.5204
        45.2504         44.5004
   1408302.69548   1083978.46548  21732506.2424                   21732505.5664
        48.5004         48.0004
   1833752.27046   1379038.07045  24803117.6414                   24803126.1054
        37.0004         30.0004
  -1030048.34046   -792313.50444  24613096.6804                   24613100.4344
        37.5004         27.0004
 25  8  7 21 16  0.0000000  0  9G01G02G03G10G28G31G32G08G25
  -2227126.98447  -1715978.96145  22112072.7894                   22112071.3954
        46.0004         33.7504
   -583433.07447   -450002.41446  21312206.3524                   21312201.6644
        47.5004         39.0004
  -2165490.41845  -1751392.60544  23879100.5004                   23879104.6174
        34.5004         29.7504
   1288782.93447    990756.08247  22363326.7734                   22363327.6724
        47.0004         43.2504
   -971564.95747   -748758.43046  20889244.8364                   20889243.0704
        47.0004         38.5004
  -2616124.87147  -2023630.53147  21486921.7034                   21486919.7274
        45.0004         44.0004
   1459527.66048   1123893.99647  21742254.0394                   21742253.5234
        48.5004         47.5004
   1902084.92645   1432283.95744  24816121.0084                   24816129.8484
        35.5004         29.2504
  -1079108.29746   -830542.02743  24603760.6884                   24603763.3524
        36.0004         22.5004
 25  8  7 21 16 30.0000000  0  9G01G02G03G10G28G31G32G08G25
  -2308636.92647  -1779493.13745  22096561.8524                   22096561.0944
        45.5004         33.7504
   -602574.95747   -464918.18046  21308563.8444                   21308559.1334
        47.7504         39.2504
  -2261366.56245  -1826101.13745  23860855.7894                   23860859.6884
        33.5004         30.2504
   1334763.98847   1026585.42247  22372076.6724                   22372077.6524
        46.5004         42.7504
  -1003992.15248   -774026.34046  20883074.7194                   20883071.8484
        48.2504         38.5004
  -2712220.97347  -2098510.53947  21468634.9694                   21468633.2344
        46.0004         44.2504
   1510678.71947   1163751.94947  21751987.7194                   21751986.9734
        47.5004         47.5004
   1970185.25846   1485348.86745  24829079.6094                   24829089.0704
        39.0004         32.2504
  -1128000.38346   -868639.64844  24594457.3284                   24594461.5004
        38.0004         28.2504
 25  8  7 21 17  0.0000000  0  9G01G02G03G10G28G31G32G08G25
  -2389970.52047  -1842869.89145  22081085.0314                   22081084.0354
        44.7504         34.0004
   -621419.77047   -479602.46146  21304977.7274                   21304973.3444
        47.0004         39.0004
  -2357470.87545  -1900987.45345  23842568.0314                   23842571.9144
        35.2504         30.5004
   1380775.85247   1062438.75847  22380832.4924                   22380832.8984
        46.5004         42.7504
  -1036049.34447   -799005.94546  20876974.5234                   20876971.9414
        47.2504         38.0004
  -2808130.60947  -2173245.24247  21450384.5004                   21450382.3444
        45.7504         44.5004
   1561763.94948   1203558.60247  21761709.0164                   21761708.3094
        48.7504         47.5004
   2038060.12946   1538238.11745  24841995.9144                   24842005.7504
        39.2504         32.0004
  -1176712.64846   -906597.17643  24585187.7894                   24585189.7274
        37.2504         22.0004
 25  8  7 21 17 30.0000000  0  9G01G02G03G10G28G31G32G08G25
  -2471112.20747  -1906097.11745  22065644.0944                   22065642.7894
        46.0004         33.7504
   -639953.70747   -494044.50446  21301450.9614                   21301445.8954
        47.7504         39.2504
  -2453789.52746  -1976040.77345  23824238.5164                   23824243.0594
        36.0004         30.7504
   1426831.99247   1098326.60547  22389596.6954                   22389597.3484
        46.5004         43.2504
  -1067722.62947   -823686.39546  20870946.9534                   20870944.8794
        47.5004         39.2504
  -2903837.72347  -2247822.13747  21432171.8204                   21432170.1294
        46.5004         45.0004
   1612795.09848   1243323.11348  21771419.9304                   21771419.4574
        48.2504         48.0004
   2105719.77346   1590959.64544  24854871.7274                   24854881.0394
        37.5004         26.7504
  -1225229.49246   -944402.50444  24575955.6884                   24575958.0824
        38.7504         25.5004
 25  8  7 21 18  0.0000000  0  9G01G02G03G10G28G31G32G08G25
  -2552066.60947  -1969178.41845  22050238.9774                   22050237.6804
        45.0004         34.0004
   -658183.39147   -508249.47346  21297982.1414                   21297977.2974
        47.7504         38.7504
  -2550328.86746  -2051266.09045  23805867.7504                   23805871.5124
        37.0004         32.5004
   1472925.51647   1134243.58647  22398367.8754                   22398368.6174
        47.0004         43.0004
  -1099018.45747   -848072.73446  20864991.6254                   20864989.0044
        46.7504         39.2504
  -2999346.41447  -2322244.42247  21413996.8594                   21413994.9024
        47.5004         45.2504
   1663763.62548   1283038.82447  21781118.7734                   21781118.6294
        48.5004         47.7504
   2173154.29345   1643505.74243  24867705.5084                   24867714.0944
        35.2504         22.7504
  -1273555.54746   -982059.06243  24566758.5004                   24566761.2194
        37.5004         22.2504
 25  8  7 21 18 30.0000000  0  9G01G02G03G10G28G31G32G08G25
  -2632820.39547  -2032103.38345  22034871.7974                   22034871.0004
        45.5004         34.7504
   -676097.38347   -522208.43446  21294573.0234                   21294568.1804
        47.5004         39.5004
  -2647077.26246  -2126654.30145  23787456.2814                   23787460.8794
        38.2504         33.5004
   1519067.58247   1170198.38347  22407148.7034                   22407149.2304
        46.2504         42.7504
  -1129925.16047   -872155.85546  20859110.0004                   20859107.5904
        47.5004         39.0004
  -3094642.75847  -2396501.24247  21395862.6884                   21395860.4144
        47.5004         45.2504
   1714679.08648   1322713.18447  21790807.9304                   21790807.2894
        48.5004         47.7504
   2240371.93845   1695882.84843  24880495.8134                   24880505.1994
        30.7504         18.2504
  -1321677.57046  -1019556.69144  24557601.8134                   24557602.8324
        38.0004         24.5004
 25  8  7 21 19  0.0000000  0  9G01G02G03G10G28G31G32G08G25
  -2713366.85247  -2094866.78145  22019544.4064                   22019543.4104
        45.5004         33.5004
   -693691.03547   -535917.78146  21291224.8984                   21291220.4774
        47.5004         39.0004
  -2744029.57446  -2202201.39845  23769007.4064                   23769011.3954
        38.2504         34.0004
   1565262.79347   1206194.59047  22415939.2894                   22415940.3554
        46.2504         42.7504
  -1160437.82847   -895931.93746  20853303.8754                   20853301.4064
        47.5004         39.0004
  -3189719.94547  -2470587.28147  21377769.8984                   21377767.9184
        46.7504         45.0004
   1765544.32448   1362348.42247  21800487.3204                   21800486.5904
        49.0004         47.7504
                                  24893247.906
        26.250
  -1369588.77046  -1056890.02744  24548484.4774                   24548487.8484
        37.7504         26.0004
 25  8  7 21 19 30.0000000  0  8G01G02G03G10G28G31G32G25
  -2793693.65647  -2157459.04345  22004258.6804                   22004257.5274
        45.0004         34.2504
   -710953.93447   -549369.40246  21287939.8834                   21287935.5664
        47.0004         39.5004
  -2841175.21946  -2277899.16845  23750520.7274                   23750524.9694
        38.2504         34.5004
   1611521.17247   1242240.01647  22424741.9534                   22424742.7074
        45.0004         42.7504
  -1190545.94547   -919392.77746  20847574.1644                   20847571.6954
        47.5004         39.0004
  -3284565.38347  -2544492.75047  21359721.3754                   21359719.5234
        47.5004         44.7504
   1816367.87548   1401951.16847  21810158.9224                   21810157.8054
        49.2504         47.7504
  -1417276.96546  -1094049.57443  24539410.0084                   24539411.0434
        39.0004         23.2504
 25  8  7 21 20  0.0000000  0  8G01G02G03G10G28G31G32G25
  -2873794.34847  -2219875.11745  21989015.3594                   21989014.3554
        44.7504         33.5004
   -727881.49247   -562559.71946  21284718.6334                   21284714.2504
        46.5004         39.2504
  -2938509.35546  -2353743.81245  23731999.3204                   23732002.6644
        38.7504         35.5004
   1657847.09047   1278338.07447  22433557.1254                   22433558.6054
        45.0004         42.5004
  -1220244.86348   -942534.75846  20841922.5554                   20841920.0594
        48.0004         39.0004
  -3379171.98447  -2618212.10247  21341718.6024                   21341716.2774
        46.7504         45.2504
   1867152.40648   1441523.51647  21819822.5704                   21819821.4734
        48.7504         47.7504
  -1464735.60246  -1131030.31644  24530378.1804                   24530380.9614
        37.2504         25.2504
 25  8  7 21 20 30.0000000  0  8G01G02G03G10G28G31G32G25
  -2953661.68047  -2282109.35245  21973817.4614                   21973815.7424
        46.0004         33.2504
   -744468.76647   -575484.87946  21281562.3054                   21281557.6804
        47.7504         39.2504
  -3036026.33646  -2429730.91845  23713442.0634                   23713445.9494
        39.2504         35.5004
   1704245.57447   1314492.66447  22442387.0164                   22442387.8244
        45.0004         42.2504
  -1249529.13347   -965353.64146  20836350.4144                   20836347.7584
        47.5004         39.0004
  -3473532.06648  -2691739.35947  21323762.0084                   21323760.1484
        48.2504         45.5004
   1917901.37548   1481068.15247  21829479.7344                   21829479.3754
        48.2504         47.5004
  -1511957.67646  -1167826.67644  24521392.0864                   24521394.0354
        38.7504         24.0004
 25  8  7 21 21  0.0000000  0  8G01G02G03G10G28G31G32G25
  -3033284.45747  -2344153.02045  21958665.8674                   21958664.6954
        45.7504         33.5004
   -760706.13347   -588137.38346  21278472.0634                   21278467.7894
        47.0004         39.2504
  -3133716.58246  -2505853.04745  23694852.2734                   23694855.6884
        40.2504         34.5004
   1750725.63347   1350710.83247  22451231.9064                   22451232.7894
        45.0004         42.0004
  -1278389.48047   -987842.19546  20830858.2664                   20830855.6804
        47.7504         39.2504
  -3567633.87547  -2765065.35947  21305854.8984                   21305853.1334
        47.7504         45.2504
   1968622.19548   1520590.85547  21839131.8134                   21839131.0204
        48.0004         47.5004
  -1558931.87146  -1204429.98844  24512453.4144                   24512455.9104
        37.7504         25.2504
 25  8  7 21 21 30.0000000  0  8G01G02G03G10G28G31G32G25
  -3112655.06647  -2406000.19545  21943561.8204                   21943560.5824
        45.2504         34.0004
   -776588.58247   -600513.32446  21275449.9924                   21275445.6684
        47.7504         39.0004
  -3231574.16446  -2582105.56645  23676230.3594                   23676233.8634
        38.7504         34.0004
   1797292.66447   1386996.76247  22460093.4384                   22460094.1254
        43.7504         42.0004
  -1306820.11347  -1009995.90646  20825447.7344                   20825445.2114
        47.7504         38.7504
  -3661469.85948  -2838184.22347  21287998.7664                   21287996.3284
        48.5004         46.0004
   2019318.68848   1560094.59847  21848779.0004                   21848778.2974
        48.0004         47.5004
  -1605650.74246  -1240834.23844  24503562.6484                   24503567.2194
        37.7504         26.7504
 25  8  7 21 22  0.0000000  0  8G01G02G03G10G28G31G32G25
  -3191770.88747  -2467648.83245  21928506.6254                   21928505.4144
        45.5004         34.5004
   -792115.18447   -612611.98046  21272495.4844                   21272491.0514
        47.7504         39.7504
  -3329597.85546  -2658487.52045  23657576.7584                   23657580.4884
        40.0004         34.2504
   1843947.18047   1423350.88746  22468971.6564                   22468972.0664
        45.0004         41.5004
  -1334820.27748  -1031814.19146  20820119.9384                   20820117.3714
        48.0004         38.7504
  -3755036.69148  -2911093.36347  21270193.2424                   21270191.2344
        48.7504         46.0004
   2069989.78948   1599578.56347  21858421.1644                   21858420.3674
        48.7504         47.5004
  -1652111.73846  -1277037.63344  24494722.3674                   24494724.4144
        37.7504         26.0004
 25  8  7 21 22 30.0000000  0  8G01G02G03G10G28G31G32G25
  -3270629.26647  -2529096.85945  21913500.3134                   21913499.0554
        45.5004         34.5004
   -807285.11347   -624432.71946  21269608.7664                   21269604.5864
        47.2504         40.0004
  -3427786.65646  -2734998.13745  23638892.9384                   23638895.4414
        40.0004         33.0004
   1890689.61347   1459773.51646  22477865.3754                   22477866.3834
        44.0004         41.0004
  -1362389.22748  -1053296.46146  20814873.6414                   20814871.1094
        48.0004         38.7504
  -3848331.36748  -2983790.44147  21252439.7814                   21252437.8674
        48.2504         45.5004
   2120634.39148   1639041.87147  21868058.6884                   21868057.9024
        49.0004         47.2504
  -1698312.21146  -1313037.99644  24485930.0084                   24485932.7774
        38.5004         27.0004
 25  8  7 21 23  0.0000000  0  8G01G02G03G10G28G31G32G25
  -3349229.24647  -2590343.54745  21898543.3674                   21898542.0904
        45.2504         35.0004
   -822099.78947   -635976.62946  21266789.4454                   21266785.2114
        47.2504         39.2504
  -3526141.10546  -2811637.85545  23620175.9454                   23620178.8984
        40.5004         32.2504
   1937518.82847   1496263.74646  22486777.8834                   22486778.5744
        43.7504         41.5004
  -1389527.96947  -1074443.51246  20809709.1564                   20809706.8444
        47.5004         39.0004
  -3941352.79348  -3056274.58247  21234738.4384                   21234735.8014
        48.5004         45.5004
   2171249.75048   1678482.39147  21877690.1564                   21877689.7464
        48.2504         47.2504
  -1744251.24246  -1348834.54344  24477188.0704                   24477192.3834
        37.5004         28.5004
 25  8  7 21 23 30.0000000  0  8G01G02G03G10G28G31G32G25
  -3427565.82847  -2651384.98845  21883636.5554                   21883635.4454
        45.5004         34.2504
   -836556.25447   -647241.41846  21264038.7734                   21264034.2854
        47.0004         39.0004
  -3624657.78946  -2888403.98445  23601428.8754                   23601431.7234
        39.7504         32.2504
   1984437.52747   1532823.69146  22495706.0704                   22495707.2814
        44.7504         41.2504
  -1416233.45748  -1095252.94946  20804627.2894                   20804624.5234
        48.0004         39.0004
  -4034095.61348  -3128541.62547  21217090.1564                   21217087.8874
        48.5004         45.7504
   2221837.13748   1717901.12147  21887316.7344                   21887316.1884
        48.0004         47.2504
  -1789924.15645  -1384423.89144  24468496.5554                   24468498.8714
        35.0004         25.0004
 25  8  7 21 24  0.0000000  0  8G01G02G03G10G28G31G32G25
  -3505627.05547  -2712211.87145  21868781.5634                   21868780.5124
        45.7504         35.0004
   -850644.41847   -658219.21946  21261357.9694                   21261353.5944
        47.2504         39.5004
  -3723326.19946  -2965288.35245  23582652.8594                   23582656.1604
        40.7504         33.0004
   2031455.54747   1569461.03146  22504654.0784                   22504654.2624
        43.2504         41.7504
  -1442495.60547  -1115716.94146  20799629.4534                   20799627.0164
        47.7504         39.5004
  -4126547.23447  -3200581.76247  21199496.3204                   21199494.6094
        47.7504         46.0004
   2272404.85947   1757304.53147  21896939.5944                   21896939.0164
        46.5004         47.0004
  -1835318.87146  -1419796.37544  24459859.6094                   24459861.3834
        36.7504         26.0004
 25  8  7 21 24 30.0000000  0  8G01G02G03G10G28G31G32G25
  -3583412.03947  -2772823.48845  21853979.8594                   21853978.5784
        46.0004         34.7504
   -864365.68447   -668911.12546  21258746.9844                   21258742.2664
        45.5004         39.5004
  -3822146.98446  -3042291.44945  23563847.5864                   23563850.8014
        39.5004         32.0004
   2078571.63347   1606174.80546  22513618.7734                   22513620.2114
        44.0004         41.5004
  -1468315.57048  -1135836.36746  20794716.3284                   20794714.0664
        48.5004         39.0004
  -4218706.48447  -3272394.07847  21181959.6414                   21181957.5474
        47.0004         46.0004
   2322950.12947   1796690.43447  21906558.3524                   21906557.3794
        47.5004         47.0004
  -1880434.74645  -1454951.46543  24451272.8984                   24451276.6054
        33.7504         23.5004
 25  8  7 21 25  0.0000000  0  8G01G02G03G10G28G31G32G25
  -3660897.96947  -2833202.08645  21839234.3674                   21839233.3284
        45.5004         34.7504
   -877699.27347   -679300.94946  21256209.4614                   21256205.0824
        45.5004         39.2504
  -3921098.72346  -3119396.57845  23545017.9224                   23545020.7734
        38.5004         31.0004
   2125806.34847   1642981.00846  22522607.8914                   22522608.9734
        44.0004         41.5004
  -1493672.50447  -1155594.98446  20789890.6644                   20789888.7544
        47.5004         39.2504
  -4310550.34048  -3343960.62147  21164482.6334                   21164479.8984
        48.2504         46.2504
   2373492.13747   1836073.80947  21916175.7194                   21916175.2624
        47.5004         47.0004
  -1925248.91446  -1489871.62544  24442746.0704                   24442746.6994
        37.0004         24.5004
 25  8  7 21 25 30.0000000  0  8G01G02G03G10G28G31G32G25
  -3738078.60547  -2893342.79345  21824547.6644                   21824546.3794
        46.0004         34.2504
   -890641.10247   -689385.50046  21253746.8204                   21253742.2154
        46.5004         39.0004
  -4020176.64546  -3196600.03545  23526163.3524                   23526166.4774
        39.0004         30.0004
   2173163.85247   1679882.90246  22531619.6334                   22531620.5554
        42.7504         41.0004
  -1518562.14848  -1174989.49646  20785154.7584                   20785152.1844
        48.2504         38.7504
  -4402071.92248  -3415276.05547  21147065.6644                   21147064.0434
        48.2504         46.0004
   2424033.47747   1875456.65247  21925793.5394                   21925793.3634
        47.0004         46.7504
  -1969755.43045  -1524552.07844  24434276.6254                   24434278.1484
        35.7504         24.5004
 25  8  7 21 26  0.0000000  0  8G01G02G03G10G28G31G32G25
  -3814948.05947  -2953241.01645  21809920.2194                   21809918.1334
        45.2504         35.5004
   -903187.19947   -699161.69546  21251359.1804                   21251354.8054
        46.2504         39.5004
  -4119376.29746  -3273898.34444  23507286.4844                   23507289.3284
        37.7504         29.2504
   2220647.87147   1716883.35946  22540655.6884                   22540656.3284
        43.5004         40.7504
  -1542980.63747  -1194016.86746  20780507.7114                   20780505.3244
        47.7504         39.0004
  -4493265.32448  -3486335.75847  21129712.8054                   21129710.3554
        48.5004         46.2504
   2474576.44547   1914840.76647  21935411.4454                   21935411.1644
        47.0004         46.7504
  -2013948.50445  -1558988.15643  24425865.3914                   24425870.3364
        31.7504         23.5004
 25  8  7 21 26 30.0000000  0  8G01G02G03G10G28G31G32G25
  -3891483.93747  -3012879.31645  21795355.7344                   21795354.0744
        46.2504         34.5004
   -915317.48047   -708613.87946  21249050.8984                   21249046.3484
        46.5004         39.0004
  -4218676.66046  -3351275.12145  23488390.8444                   23488393.1254
        37.5004         31.2504
   2268278.57047   1753998.11346  22549719.7584                   22549720.4184
        44.0004         41.0004
  -1566907.66048  -1212661.27746  20775955.2274                   20775952.0594
        48.0004         39.0004
  -4584107.69948  -3557121.93447  21112425.4304                   21112423.3834
        48.5004         46.2504
   2525139.79748   1954240.76647  21945033.7274                   21945032.7544
        48.5004         46.5004
  -2057805.93446  -1593162.72744  24417522.0634                   24417523.1374
        36.5004         25.5004
 25  8  7 21 27  0.0000000  0  8G01G02G03G10G28G31G32G25
  -3967684.20747  -3072256.08645  21780854.7734                   21780853.3484
        46.0004         35.0004
   -927032.25847   -717742.29346  21246821.7344                   21246817.4774
        46.5004         39.5004
  -4318077.21146  -3428729.96145  23469475.3834                   23469477.7464
        37.7504         30.7504
   2316055.82047   1791227.06646  22558811.3914                   22558811.9454
        45.0004         41.0004
  -1590343.26247  -1230922.77046  20771495.2424                   20771492.6134
        47.5004         38.5004
  -4674596.78948  -3627632.82047  21095206.2664                   21095203.6644
        49.0004         46.0004
   2575721.99248   1993655.44547  21954658.8984                   21954658.1484
        48.0004         46.0004
  -2101325.81245  -1627074.34844  24409238.4454                   24409240.9964
        32.0004         24.0004
 25  8  7 21 27 30.0000000  0  8G01G02G03G10G28G31G32G25
  -4043538.51647  -3131363.28945  21766420.4144                   21766418.9144
        46.2504         35.0004
   -938323.30547   -726540.53546  21244673.2894                   21244668.5204
        46.7504         39.7504
  -4417568.86746  -3506255.82445  23450541.3754                   23450545.0044
        37.5004         31.5004
   2363987.81347   1828576.59446  22567932.4924                   22567933.6454
        44.5004         41.5004
  -1613279.11348  -1248794.83646  20767130.2344                   20767127.8524
        48.0004         38.7504
  -4764721.63748  -3697859.88747  21078055.4614                   21078053.3874
        48.0004         45.5004
   2626329.76647   2033090.05547  21964289.4924                   21964288.5594
        47.2504         46.0004
  -2144497.84845  -1660714.85943  24401022.9924                   24401026.5164
        32.0004         23.2504
 25  8  7 21 28  0.0000000  0  8G01G02G03G10G28G31G32G25
  -4119041.03547  -3190196.37145  21752053.1884                   21752051.1804
        45.5004         34.5004
   -949186.84447   -735005.64846  21242605.5164                   21242601.6484
        46.2504         39.2504
  -4517147.04746  -3583849.08645  23431591.9774                   23431596.1094
        36.7504         31.7504
   2412078.36347   1866049.67246  22577084.0164                   22577085.0784
        45.0004         41.7504
  -1635711.39547  -1266274.50446  20762862.1564                   20762859.3244
        47.7504         38.5004
  -4854476.31648  -3767798.50847  21060976.4844                   21060974.1024
        48.2504         45.7504
   2676965.57447   2072546.50847  21973924.9384                   21973924.2114
        47.5004         46.2504
  -2187316.36345  -1694079.89544  24392874.9304                   24392878.6134
        32.2504         24.5004
 25  8  7 21 28 30.0000000  0  8G01G02G03G10G28G31G32G25
  -4194180.93747  -3248746.89545  21737753.9224                   21737752.5704
        46.0004         35.5004
   -959614.14147   -743130.83646  21240621.3054                   21240617.3984
        46.7504         39.0004
  -4616802.39546  -3661502.47745  23412628.1094                   23412631.5944
        36.7504         33.0004
   2460336.02047   1903652.95346  22586267.4384                   22586268.4184
        44.7504         41.5004
  -1657631.47747  -1283355.07046  20758690.7194                   20758687.9064
        47.5004         39.0004
  -4943849.51248  -3837439.87147  21043969.0084                   21043966.7734
        48.0004         45.7504
   2727636.57048   2112030.37947  21983567.3674                   21983566.7074
        48.0004         46.2504
  -2229770.74245  -1727161.16443  24384795.9144                   24384799.1564
        31.7504         22.7504
 25  8  7 21 29  0.0000000  0  8G01G02G03G10G28G31G32G25
  -4268950.42647  -3307008.80145  21723525.9924                   21723524.3594
        45.5004         35.5004
   -969599.57847   -750911.72346  21238721.2034                   21238716.9964
        46.0004         39.0004
  -4716528.39546  -3739210.93445  23393652.0944                   23393654.7504
        39.0004         32.5004
   2508766.50847   1941390.93046  22595483.0234                   22595484.2114
        44.2504         41.5004
  -1679033.67647  -1300032.08646  20754617.6414                   20754615.2464
        47.5004         38.2504
  -5032833.19947  -3906777.73047  21027035.5634                   21027033.4224
        47.5004         46.5004
   2778347.03548   2151545.00447  21993217.2664                   21993216.9344
        48.5004         46.5004
  -2271853.41854  -1759952.81253  24376786.1804                   24376790.6134
        28.5004         21.5004
 25  8  7 21 29 30.0000000  0  8G01G02G03G10G28G31G32G25
  -4343337.84447  -3364972.98045  21709370.4534                   21709369.1094
        45.5004         35.5004
   -979133.91447   -758341.09046  21236907.2424                   21236902.8054
        45.5004         39.5004
  -4816314.68746  -3816966.35545  23374662.9774                   23374665.6454
        38.7504         34.5004
   2557379.40247   1979271.01246  22604733.9774                   22604734.8874
        43.7504         41.0004
  -1699908.46547  -1316298.12546  20750645.7194                   20750642.7504
        47.7504         39.0004
  -5121415.52348  -3975802.83247  21010179.4534                   21010176.8444
        49.2504         46.5004
   2829105.25448   2191096.84847  22002876.5394                   22002875.8134
        48.0004         46.5004
  -2313552.73045  -1792445.75444  24368852.3284                   24368856.5944
        32.0004         24.7504
 25  8  7 21 30  0.0000000  0  8G01G02G03G10G28G31G32G25
  -4417344.90247  -3422640.77346  21695287.1724                   21695285.9844
        46.0004         36.5004
   -988220.96547   -765421.94146  21235178.2814                   21235173.5864
        47.0004         39.0004
  -4916164.26246  -3894771.09445  23355661.5784                   23355664.7034
        38.2504         34.5004
   2606170.66047   2017290.08646  22614018.5554                   22614019.8364
        42.5004         41.5004
  -1720259.70347  -1332156.19546  20746772.6024                   20746770.3204
        47.7504         39.0004
  -5209597.74247  -4044516.17247  20993398.6094                   20993396.5004
        47.7504         46.7504
   2879905.89547   2230681.73847  22012543.4224                   22012542.9774
        47.0004         46.5004
  -2354870.74645  -1824641.54344  24360990.6254                   24360994.0634
        30.7504         24.7504
 25  8  7 21 30 30.0000000  0  8G01G02G03G10G28G31G32G25
  -4490961.81647  -3480004.55945  21681278.4224                   21681277.1764
        45.7504         35.7504
   -996853.01247   -772148.22746  21233535.2664                   21233530.8164
        47.0004         39.0004
  -5016068.54346  -3972618.47346  23336650.5784                   23336653.9064
        39.5004         36.2504
   2655148.09047   2055454.23446  22623339.0944                   22623339.8984
        44.5004         41.2504
  -1740079.73447  -1347600.35246  20743000.8284                   20742998.2234
        47.5004         39.2504
  -5297369.65648  -4112909.79347  20976695.9064                   20976693.8094
        48.7504         47.0004
   2930755.43447   2270304.72347  22022220.0394                   22022219.4534
        47.7504         46.5004
  -2395797.86755  -1856532.74254  24353202.1414                   24353204.6094
        30.5004         24.5004
 25  8  7 21 31  0.0000000  0  8G01G02G03G10G28G31G32G25
  -4564186.27747  -3537062.53946  21667343.7424                   21667342.7664
        45.5004         36.2504
  -1005029.96548   -778519.90646  21231979.4304                   21231974.7854
        48.2504         40.0004
  -5116026.49246  -4050507.64846  23317629.1884                   23317632.3324
        39.0004         36.0004
   2704311.86747   2093763.59046  22632694.6254                   22632695.6334
        44.0004         41.7504
  -1759368.45748  -1362630.50446  20739330.8284                   20739327.7424
        48.0004         40.0004
  -5384728.69148  -4180981.69147  20960071.8204                   20960069.7584
        49.0004         47.0004
   2981652.62547   2309964.85547  22031905.1724                   22031904.7034
        47.7504         46.2504
  -2436331.91845  -1888117.62544  24345488.7814                   24345491.9924
        33.5004         26.0004
 25  8  7 21 31 30.0000000  0  8G01G02G03G10G28G31G32G25
  -4637023.09447  -3593818.45745  21653483.7114                   21653482.2114
        45.5004         35.5004
  -1012759.14847   -784542.66846  21230508.6024                   21230503.7664
        45.7504         39.2504
  -5216044.01246  -4128443.23446  23298596.4224                   23298599.2304
        40.7504         37.2504
   2753655.05947   2132212.75446  22642084.2114                   22642085.5044
        44.5004         41.5004
  -1778132.85548  -1377252.07846  20735760.0234                   20735757.5314
        48.0004         39.2504
  -5471679.36348  -4248735.38747  20943525.9064                   20943523.5004
        48.7504         47.0004
   3032589.33247   2349655.76247  22041597.8834                   22041597.6174
        47.0004         45.7504
  -2476477.87945  -1919400.13344  24337849.7584                   24337852.2704
        33.5004         25.5004
 25  8  7 21 32  0.0000000  0  8G01G02G03G10G28G31G32G25
  -4709466.86347  -3650268.10545  21639698.0704                   21639696.7894
        45.0004         35.5004
  -1020037.34847   -790214.01246  21229123.4144                   21229119.0044
        46.7504         39.0004
  -5316117.05146  -4206422.09846  23279553.4224                   23279556.0204
        40.2504         37.5004
   2803180.87947   2170804.21547  22651508.2274                   22651509.9884
        43.5004         42.0004
  -1796369.72747  -1391462.60246  20732289.0554                   20732287.0314
        47.5004         39.7504
  -5558216.12548  -4316166.57047  20927058.3754                   20927056.0234
        49.2504         47.0004
   3083567.49647   2389378.98447  22051299.1564                   22051298.7814
