     2.11           OBSERVATION DATA    G (GPS)             RINEX VERSION / TYPE
teqc  2010Oct21     Michael A Floyd     20110221 00:03:41UTCPGM / RUN BY / DATE
OSX ker:9.8.0|G5|gcc 3.3|OSX ker:9.8.0+|G3+                 COMMENT
BIT 2 OF LLI FLAGS DATA COLLECTED UNDER A/S CONDITION       COMMENT
VERS                                                        MARKER NAME
                                                            MARKER NUMBER
Michael A Floyd     University of California, Riverside     OBSERVER / AGENCY
0220413522          TRIMBLE R7          NP 2.32 / SP 2.30   REC # / TYPE / VERS
60219588            TRM41249.00     NONE                    ANT # / TYPE
 -2430817.8898 -4704713.0649  3543695.1926                  APPROX POSITION XYZ
        0.8861        0.0000        0.0000                  ANTENNA: DELTA H/E/N
     1     1                                                WAVELENGTH FACT L1/2
     7    L1    L2    C1    P2    D1    S1    S2            # / TYPES OF OBSERV
    30.0000                                                 INTERVAL
    15                                                      LEAP SECONDS
 SNR is mapped to RINEX snr flag value [0-9]                COMMENT
  L1 & L2: min(max(int(snr_dBHz/6), 0), 9)                  COMMENT
  2010     5    26    22     6   30.0000000     GPS         TIME OF FIRST OBS
  2010     5    27     1    50    0.0000000     GPS         TIME OF LAST OBS
  2010     5    27     1    50    0.0000000     GPS         TIME OF LAST OBS
                                                            END OF HEADER
 10  5 26 22  6 30.0000000  0  9G03G06G07G08G10G16G19G20G23
    -20928.08657    -11834.63354  22352101.8204   22352101.0124
        44.5004         29.2504
     -3858.57457     -2120.78954  23116348.9454   23116348.5664
        42.5004         27.2504
    -18150.57858     -9944.40656  21457155.0164   21457152.6214
        48.0004         39.0004
    -38371.46557    -13309.20354  24034417.3914   24034417.0394
        42.0004         24.0004
    -39480.24656    -14368.96953  23891598.6024   23891597.4304
        41.2504         22.5004
     76884.82857     44634.39854  23476932.7344   23476930.8134
        42.0004         25.0004
    -43732.65257    -15819.28154  23733027.4224   23733025.6134
        42.0004         26.0004
     81069.44157     44008.39554  23232837.5634   23232837.3524
        43.7504         27.7504
     22613.60258     12013.53156  20206884.9534   20206880.5864
        51.0004         41.5004
 10  5 26 22  7  0.0000000  0 10G03G06G07G08G10G16G19G20G23G32
    -52531.98447    -36461.05144  22346087.8984   22346086.6724       1053.4634
        44.0004         28.5004
    -10062.43747     -6954.97744  23115168.8364   23115167.8954        206.7954
        44.0004         26.2504
    -45366.99248    -31152.00846  21451975.9774   21451973.3554        907.2144
        48.5004         38.2504
    -94998.11347    -57433.81644  24023641.2734   24023641.1174       1887.5554
        42.0004         25.0004
   -101636.60546    -62802.48443  23879770.9924   23879769.6094       2071.8794
        40.2504         22.7504
    187590.12947    130898.22744  23497999.3364   23497997.0944      -3690.1774
        42.0004         24.0004
   -109371.59046    -66966.41044  23720537.4534   23720535.0704       2187.9654
        41.2504         25.2504
    197747.15647    134925.96144  23255040.6174   23255040.4654      -3889.2574
        43.5004         27.0004
     54436.07448     36810.22746  20212940.6024   20212935.9304      -1060.7494
        50.5004         40.2504
    192431.20756    100594.20353  24769619.9694   24769624.0554
        39.7504         18.5004
 10  5 26 22  7 30.0000000  0 11G03G06G07G08G10G13G16G19G20G23G32
    -83943.12147    -60937.23044  22340111.2664   22340109.8404       1047.0384
        42.5004         28.0004
    -16080.61347    -11644.48044  23114023.4224   23114022.7774        200.6064
        43.5004         25.0004
    -72667.43748    -52425.07846  21446780.4694   21446778.4304        910.0154
        48.0004         37.7504
   -151796.73846   -101692.43043  24012832.5864   24012833.1684       1893.2874
        41.2504         22.7504
   -163665.48046   -111136.66043  23867967.0164   23867966.0984       2067.6294
        41.5004         22.0004
    -33861.79758    -24355.68756  20170281.8754   20170279.0664
        51.0004         41.2504
    298228.73046    217110.06343  23519053.5944   23519050.8634      -3687.9534
        41.0004         22.7504
   -175147.75047   -118220.46944  23708020.2034   23708018.3874       2192.5394
        42.5004         26.0004
    314248.44147    225706.04344  23277210.8674   23277209.8484      -3883.3764
        44.0004         26.0004
     86409.43848     61724.50046  20219025.0864   20219020.7424      -1065.7794
        51.5004         40.0004
    309379.44946    191722.38743  24791874.7814   24791878.6724      -3898.2754
        39.2504         18.5004
 10  5 26 22  8  0.0000000  0 11G03G06G07G08G10G13G16G19G20G23G32
   -114909.95347    -85067.21144  22334218.0004   22334216.9774       1032.2284
        44.0004         27.2504
    -21662.44147    -15993.94144  23112961.7194   23112960.9494        186.0614
        43.5004         27.2504
    -99803.24248    -73569.85546  21441616.8054   21441614.3874        904.5274
        50.0004         38.2504
   -208518.57047   -145891.22744  24002038.8754   24002038.8554       1890.7284
        42.7504         24.0004
   -225315.39846   -159175.54743  23856235.3444   23856234.2234       2054.9974
        41.5004         21.5004
    -46231.29748    -33994.28546  20167927.8984   20167925.2814        412.3174
        51.0004         40.7504
    409046.72747    303461.68044  23540141.1564   23540138.8634      -3693.9334
        42.5004         24.5004
   -240808.84846   -169384.86744  23695524.2814   23695523.7894       2188.7034
        41.5004         25.2504
    430819.78147    316540.71544  23299394.0474   23299392.6054      -3885.7114
        43.2504         26.5004
    118783.36348     86950.91046  20225185.6414   20225181.2664      -1079.1314
        51.7504         40.2504
    426285.08646    282817.36742  24814120.7344   24814125.4024      -3896.8554
        37.5004         17.2504
 10  5 26 22  8 30.0000000  0 11G03G06G07G08G10G13G16G19G20G23G32
   -145403.86747   -108828.72344  22328415.7034   22328414.4454       1016.4644
        43.7504         29.0004
    -26780.64547    -19982.14144  23111988.0234   23111987.0044        170.6074
        43.5004         27.2504
   -126748.93448    -94566.49646  21436489.4384   21436486.8594        898.1904
        48.7504         38.0004
   -265137.67647   -190009.96543  23991265.0314   23991264.6214       1887.3044
        42.5004         23.2504
   -286558.36746   -206897.30543  23844581.3594   23844579.6414       2041.4324
        41.2504         22.2504
    -58243.90248    -43354.77746  20165642.3054   20165639.1884        400.4204
        51.0004         40.7504
    520067.46146    389971.29343  23561267.9774   23561265.5634      -3700.6914
        41.7504         22.7504
   -306326.15247   -220437.21144  23683057.4924   23683056.0554       2183.9104
        42.2504         28.0004
    547484.02747    407447.77344  23321594.2034   23321593.3984      -3888.8084
        44.0004         26.5004
    151584.53548    112510.23046  20231427.6954   20231422.7704      -1093.3724
        51.7504         40.5004
    543171.68846    373897.53942  24836363.5944   24836368.6334      -3896.2204
        38.2504         17.7504
 10  5 26 22  9  0.0000000  0 11G03G06G07G08G10G13G16G19G20G23G32
   -175405.38347   -132206.50045  22322705.7664   22322704.9494       1000.0514
        43.7504         30.2504
    -31416.55947    -23594.55144  23111105.3754   23111104.3794        154.5304
        44.0004         26.2504
   -153487.53148   -115401.76246  21431401.0084   21431398.6054        891.2874
        49.5004         39.0004
   -321637.03947   -234035.37943  23980513.1254   23980513.1844       1883.3124
        43.5004         23.2504
   -347374.93046   -254286.82443  23833008.1414   23833007.1134       2027.2194
        40.5004         22.7504
    -69881.21148    -52422.82446  20163427.4144   20163424.7774        387.9104
        51.5004         41.2504
    631305.66447    476650.36343  23582435.9694   23582433.0864      -3707.9404
        42.2504         22.2504
   -371678.71947   -271361.18444  23670621.4774   23670619.7304       2178.4194
        42.5004         24.7504
    664255.73847    498438.57844  23343814.6334   23343814.3914      -3892.3904
        43.5004         25.7504
    184831.25048    138416.73046  20237754.2734   20237749.6844      -1108.2244
        51.5004         40.2504
    660054.19946    464974.48042  24858606.8524   24858610.3954      -3896.0844
        39.0004         17.7504
 10  5 26 22  9 30.0000000  0 11G03G06G07G08G10G13G16G19G20G23G32
   -204935.87947   -155217.25444  22317087.2034   22317085.8554        984.3504
        45.2504         29.2504
    -35592.05147    -26848.15644  23110310.6884   23110309.7774        139.1834
        44.5004         26.0004
   -180042.67648   -136094.06246  21426347.6804   21426345.0234        885.1714
        48.7504         38.0004
   -378039.97747   -277985.69944  23969780.6804   23969780.1604       1880.0984
        42.7504         24.0004
   -407785.86746   -301360.27743  23821512.2734   23821510.8714       2013.6984
        41.5004         22.2504
    -81164.26648    -61214.82846  20161280.4844   20161277.8364        376.1024
        51.0004         41.0004
    742734.88746    563478.27343  23603639.6724   23603637.7384      -3714.3074
        41.0004         22.7504
   -436886.69146   -322172.53944  23658212.8524   23658210.6884       2173.5994
        40.5004         24.5004
    781108.74647    589492.72744  23366051.1644   23366051.0044      -3895.1004
        43.2504         24.5004
    218500.75048    164652.67646  20244161.3054   20244156.2894      -1122.3174
        51.5004         40.7504
    776907.00046    556028.29343  24880842.0234   24880847.5314      -3895.0934
        38.5004         18.2504
 10  5 26 22 10  0.0000000  0 11G03G06G07G08G10G13G16G19G20G23G32
   -233998.13747   -177863.17644  22311556.2194   22311555.3674        968.7424
        42.5004         28.7504
    -39311.69547    -29746.57044  23109602.8834   23109602.1684        123.9884
        44.0004         27.0004
   -206420.27748   -156648.03546  21421328.1804   21421325.9964        879.2534
        48.0004         38.7504
   -434352.91847   -321865.83244  23959064.3524   23959063.8524       1877.0984
        43.5004         24.2504
   -467794.97746   -348120.59844  23810093.1484   23810092.0474       2000.3044
        41.0004         24.5004
    -92097.48848    -69734.23846  20159200.0944   20159197.1884        364.4414
        50.5004         41.0004
    854346.48446    650448.29343  23624879.4064   23624876.8014      -3720.3874
        41.5004         22.7504
   -501952.93046   -372873.43044  23645830.7504   23645829.2234       2168.8754
        41.7504         27.0004
    898034.35247    680603.44144  23388302.0004   23388301.0944      -3897.5204
        44.7504         26.5004
    252587.42248    191213.69146  20250647.7274   20250643.1564      -1136.2224
        52.5004         40.2504
    893721.59446    647052.30143  24903072.2504   24903076.8364      -3893.8204
        38.5004         18.2504
 10  5 26 22 10 30.0000000  0 11G03G06G07G08G10G13G16G19G20G23G32
   -262579.25847   -200134.17644  22306117.2814   22306116.2774        952.7044
        45.7504         29.7504
    -42563.23447    -32280.23443  23108984.7194   23108984.0434        108.3854
        42.5004         22.0004
   -232610.50048   -177055.98446  21416344.2814   21416342.0824        873.0074
        49.0004         38.2504
   -490565.14847   -365667.51644  23948367.6484   23948367.0434       1873.7414
        42.5004         25.5004
   -527389.43446   -394557.82043  23798752.4384   23798751.3204       1986.4824
        40.0004         22.5004
   -102668.37548    -77971.31646  20157188.6024   20157185.5474        352.3634
        51.2504         41.0004
    966149.05146    737567.16443  23646155.0314   23646152.4104      -3726.7524
        41.0004         21.5004
   -566863.32046   -423452.85944  23633478.5784   23633477.2304       2163.6804
        41.2504         27.5004
   1015040.57047    771776.98444  23410566.8284   23410566.9064      -3900.2074
        43.5004         26.0004
    287102.77748    218108.74646  20257215.9844   20257211.1724      -1150.5124
        51.0004         40.0004
   1010506.54746    738053.26642  24925296.6254   24925300.6604      -3892.8324
        39.5004         16.7504
 10  5 26 22 11  0.0000000  0 11G03G06G07G08G10G13G16G19G20G23G32
   -290678.01247   -222029.28544  22300770.8754   22300769.2194        936.6254
        42.0004         29.0004
    -45346.60547    -34449.09444  23108455.3594   23108453.6914         92.7794
        44.0004         26.5004
   -258614.33247   -197318.71146  21411396.1334   21411393.2464        866.7944
        47.5004         37.7504
   -546678.12146   -409391.87544  23937689.6254   23937689.5744       1870.4324
        41.0004         26.0004
   -586568.06646   -440671.04743  23787491.0234   23787489.8554       1972.6214
        40.0004         22.7504
   -112876.77348    -85925.92646  20155245.9384   20155242.9414        340.2804
        51.2504         41.0004
   1078138.51246    824831.59443  23667465.5394   23667462.8594      -3732.9824
        41.2504         22.2504
   -631616.29746   -473909.65644  23621156.7504   23621154.9804       2158.4334
        41.5004         25.5004
   1132123.36347    863010.18844  23432847.4144   23432847.1804      -3902.7604
        44.2504         25.7504
    322046.59448    245337.66046  20263865.2894   20263860.8164      -1164.7944
        51.0004         40.2504
   1127258.47356    829028.44553  24947513.7194   24947518.2734      -3891.8444
        40.7504         19.0004
 10  5 26 22 11 30.0000000  0 11G03G06G07G08G10G13G16G19G20G23G32
   -318288.49247   -243543.93044  22295516.4534   22295515.4734        920.3494
        44.2504         29.2504
    -47656.60547    -36249.07444  23108014.7664   23108014.0204         77.0004
        44.5004         26.7504
   -284428.90648   -217433.94546  21406483.3444   21406481.2034        860.4864
        48.7504         38.0004
   -602688.12946   -453035.99644  23927030.1334   23927030.1844       1867.0004
        41.2504         25.2504
   -645325.18746   -486455.78143  23776309.9534   23776308.7424       1958.5714
        40.0004         22.5004
   -122716.79748    -93593.48846  20153373.4384   20153370.5044        328.0014
        51.2504         40.7504
   1190315.77047    912242.41043  23688812.3674   23688809.6294      -3739.2424
        42.2504         23.5004
   -696204.57047   -524238.10544  23608865.8134   23608864.3754       2152.9424
        43.2504         27.0004
   1249283.62547    954303.73844  23455142.0554   23455141.8594      -3905.3424
        43.5004         25.7504
    357423.01648    272903.68046  20270597.2734   20270592.7194      -1179.2144
        51.5004         40.0004
   1243978.56646    919978.92642  24969724.4924   24969729.0944      -3890.6704
        39.0004         16.2504
 10  5 26 22 12  0.0000000  0 11G03G06G07G08G10G13G16G19G20G23G32
   -345409.68047   -264677.32444  22290355.2584   22290354.4104        904.0404
        44.7504         28.2504
    -49493.34447    -37680.30544  23107665.4454   23107664.2974         61.2254
        44.5004         26.5004
   -310055.44948   -237402.66846  21401607.0314   21401604.6294        854.2184
        49.5004         37.7504
   -658596.70747   -496601.07044  23916392.2894   23916391.6954       1863.6194
        42.0004         25.2504
   -703659.96946   -531911.45743  23765209.3134   23765207.4574       1944.4934
        40.7504         23.7504
   -132188.00448   -100973.66446  20151570.9224   20151568.0634        315.7074
        51.2504         41.5004
   1302676.92647    999796.51243  23710194.0164   23710191.2664      -3745.3724
        42.0004         23.5004
   -760626.00447   -574436.55944  23596606.5394   23596604.8094       2147.3814
        43.0004         28.0004
   1366517.27047   1045654.50444  23477451.2114   23477450.8674      -3907.7884
        43.2504         25.0004
    393231.28548    300806.19946  20277411.5004   20277406.8164      -1193.6094
        50.5004         40.5004
   1360663.39846   1010901.79742  24991929.6884   24991934.1954      -3889.4944
        38.2504         17.2504
 10  5 26 22 12 30.0000000  0 11G03G06G07G08G10G13G16G19G20G23G32
   -372037.87947   -285426.53144  22285288.1174   22285286.8134        887.6074
        44.5004         29.5004
    -50854.05947    -38740.59444  23107406.7504   23107405.9264         45.3574
        44.2504         26.5004
   -335493.13348   -257224.22746  21396766.3364   21396763.8484        847.9234
        48.5004         38.2504
   -714402.83646   -540086.32044  23905772.2664   23905772.3714       1860.2044
        40.7504         24.5004
   -761568.40646   -577034.88743  23754189.1954   23754188.6094       1930.2814
        39.5004         23.0004
   -141288.11748   -108064.67246  20149838.9534   20149836.5164        303.3374
        51.2504         41.2504
   1415220.62547   1087492.85543  23731610.5634   23731607.6134      -3751.4574
        42.5004         22.5004
   -824876.64147   -624501.91044  23584380.7114   23584378.4104       2141.6884
        44.0004         28.2504
   1483823.15647   1137061.54344  23499773.6804   23499773.6254      -3910.1964
        43.5004         24.5004
    429473.53548    329046.88346  20284308.1334   20284303.5314      -1208.0754
        51.2504         40.5004
   1477311.94546   1101796.42242  25014126.8674   25014131.6954      -3888.2854
        38.2504         16.2504
 10  5 26 22 13  0.0000000  0 11G03G06G07G08G10G13G16G19G20G23G32
   -398178.06647   -305795.50844  22280313.5234   22280312.5474        871.3404
        43.7504         29.5004
    -51744.72747    -39434.62544  23107236.8134   23107236.1844         29.6894
        44.5004         27.0004
   -360749.50448   -276904.51246  21391960.2274   21391957.6604        841.8794
        48.0004         37.7504
   -770114.11746   -583497.65644  23895170.7344   23895170.4104       1857.0434
        41.0004         24.5004
   -819055.75046   -621830.21543  23743250.1414   23743248.8874       1916.2454
        41.0004         23.7504
   -150022.47748   -114870.67646  20148177.1334   20148174.6174        291.1454
        51.5004         41.0004
   1527937.01247   1175323.74643  23753060.0164   23753056.7234      -3757.2134
        42.5004         22.7504
   -888960.34047   -674437.19144  23572185.7034   23572183.6334       2136.1234
        43.7504         29.5004
   1601190.98447   1228516.84044  23522108.7424   23522107.8094      -3912.2614
        43.5004         25.2504
    466142.99248    357620.46146  20291286.2814   20291281.4614      -1222.3154
        50.7504         40.0004
   1593914.64846   1192655.38342  25036315.9384   25036321.1174      -3886.7574
        36.5004         17.7504
 10  5 26 22 13 30.0000000  0 11G03G06G07G08G10G13G16G19G20G23G32
   -423823.64147   -325779.05944  22275433.8524   22275432.5394        854.8524
        43.5004         29.7504
    -52159.68447    -39757.94944  23107158.6254   23107157.2274         13.8324
        44.0004         26.7504
   -385820.66047   -296440.46946  21387189.2424   21387186.6134        835.7054
        46.7504         38.0004
   -825726.18446   -626831.69943  23884588.2584   23884587.4774       1853.7364
        41.0004         22.7504
   -876115.71146   -666292.51243  23732391.8054   23732390.5744       1901.9994
        40.5004         23.0004
   -158385.12148   -121387.03546  20146585.9304   20146582.7234        278.7554
        51.0004         41.2504
   1640827.68847   1263290.47744  23774542.3364   23774539.8674      -3763.0234
        42.5004         24.0004
   -952869.59047   -724236.54744  23560023.8204   23560021.4694       2130.3084
        43.5004         28.5004
   1718622.31347   1320021.62144  23544455.1094   23544454.8794      -3914.3784
        43.5004         27.0004
    503244.55148    386530.74246  20298346.3594   20298341.6294      -1236.7194
        50.0004         40.5004
   1710473.39146   1283480.05142  25058496.0234   25058501.3524      -3885.2914
        36.7504         16.7504
 10  5 26 22 14  0.0000000  0 12G03G06G07G08G10G13G16G19G20G23G32G28
   -448979.22347   -345380.79344  22270646.6174   22270644.9384        838.5194
        44.0004         29.2504
    -52104.99247    -39715.33644  23107168.6254   23107167.7504         -1.8234
        43.7504         27.0004
   -410714.12148   -315837.96146  21382452.5164   21382449.6334        829.7824
        48.5004         38.7504
   -881246.99246   -670094.61344  23874022.7114   23874022.4064       1850.6944
        41.5004         24.2504
   -932753.40646   -710425.77043  23721614.4844   23721613.2424       1887.9234
        41.0004         22.5004
   -166381.43048   -127617.93746  20145064.3984   20145061.2624        266.5444
        51.0004         41.0004
   1753883.02346   1351385.47343  23796055.2814   23796053.5234      -3768.5114
        41.2504         22.5004
  -1016608.30147   -773902.99644  23547895.2504   23547892.8284       2124.6244
        44.0004         29.5004
   1836107.34847   1411568.27044  23566811.5864   23566811.8164      -3916.1684
        43.0004         25.0004
    540771.64148    415772.60546  20305487.7504   20305483.0634      -1250.9034
        50.5004         40.5004
   1826978.99246   1374263.20342  25080666.3054   25080672.3524      -3883.5204
        36.2504         17.2504
   -130359.19556    -79740.65252  25010343.7974   25010346.7894
        37.7504         16.7504
 10  5 26 22 14 30.0000000  0 12G03G06G07G08G10G13G16G19G20G23G32G28
   -473637.30547   -364594.85244  22265955.0004   22265952.9344        821.9364
        44.0004         28.7504
    -51573.87947    -39301.48844  23107269.2274   23107268.6054        -17.7044
        44.5004         27.0004
   -435425.05148   -335093.23046  21377750.1804   21377747.5904        823.6984
        48.5004         38.5004
   -936671.37946   -713282.38344  23863475.6954   23863475.7854       1847.4804
        41.0004         25.0004
   -988961.19946   -754224.03143  23710918.3444   23710917.0354       1873.5934
        40.5004         22.5004
   -174004.50048   -133558.00846  20143613.5704   20143610.5634        254.1024
        51.5004         40.5004
   1867105.64547   1439610.83243  23817601.3754   23817599.1454      -3774.0874
        42.0004         23.0004
  -1080168.14547   -823430.07844  23535799.7194   23535798.1724       2118.6614
        43.5004         29.2504
   1953648.77047   1503158.82444  23589179.5394   23589179.2774      -3918.0474
        43.5004         25.5004
    578730.48848    445350.90246  20312710.9224   20312706.2664      -1265.2954
        50.5004         39.7504
   1943434.47346   1465007.36342  25102827.1804   25102834.2154      -3881.8494
        36.0004         16.7504
   -221633.39846   -150863.25042  24992974.3754   24992978.0984       3042.4734
        37.5004         17.2504
 10  5 26 22 15  0.0000000  0 12G03G06G07G08G10G13G16G19G20G23G32G28
   -497801.59447   -383424.17644  22261355.7194   22261354.8634        805.4764
        43.0004         29.0004
    -50571.04347    -38520.03144  23107460.1414   23107459.9304        -33.4284
        43.5004         26.5004
   -459959.37548   -354210.87146  21373081.3754   21373078.4804        817.8114
        48.0004         38.2504
   -992004.73046   -756399.23844  23852946.1174   23852945.9144       1844.4454
        41.7504         25.0004
  -1044742.89146   -797690.28143  23700302.9384   23700302.0704       1859.3904
        40.7504         22.5004
   -181258.59048   -139210.54746  20142233.3834   20142230.5004        241.8034
        51.2504         41.0004
   1980487.06647   1527959.97343  23839176.7344   23839174.6684      -3779.3814
        42.5004         22.7504
  -1143551.52347   -872819.66044  23523738.4144   23523736.1764       2112.7794
        43.0004         28.5004
   2071237.91847   1594786.59044  23611556.5634   23611555.9414      -3919.6384
        42.5004         26.2504
    617115.77748    475261.48446  20320015.3674   20320010.8484      -1279.5104
        50.5004         39.7504
   2059831.67645   1555706.16842  25124976.5554   25124984.2814      -3879.9074
        35.0004         15.5004
   -312826.14146   -221922.40243  24975620.8524   24975624.7894       3039.7584
        38.0004         19.0004
 10  5 26 22 15 30.0000000  0 12G03G06G07G08G10G13G16G19G20G23G32G28
   -521464.91847   -401863.09844  22256853.0864   22256852.1524        788.7774
        44.0004         29.5004
    -49090.21147    -37366.15644  23107741.8364   23107741.3134        -49.3614
        44.0004         26.5004
   -484312.11348   -373187.02046  21368447.3054   21368444.3284        811.7584
        48.5004         38.0004
  -1047242.09847   -799441.28544  23842434.8284   23842434.9264       1841.2464
        42.0004         25.2504
  -1100091.31646   -840818.89844  23689770.9304   23689769.6684       1844.9484
        40.5004         24.5004
   -188136.84048   -144570.23046  20140924.2814   20140921.2814        229.2754
        51.2504         41.2504
   2094029.80546   1616434.76644  23860783.3834   23860781.3754      -3784.7584
        41.7504         24.2504
  -1206750.15647   -922065.27044  23511711.8914   23511710.0864       2106.6214
        44.0004         28.5004
   2188877.05147   1686453.29344  23633942.2664   23633942.2774      -3921.3044
        42.5004         25.5004
    655932.52748    505508.27346  20327402.1564   20327397.5164      -1293.8924
        50.5004         39.7504
   2176173.43046   1646361.72742  25147116.7344   25147123.1954      -3878.0584
        36.0004         16.2504
   -403930.14546   -292912.37142  24958284.7114   24958288.0864       3036.8004
        38.2504         16.2504
 10  5 26 22 16  0.0000000  0 12G03G06G07G08G10G13G16G19G20G23G32G28
   -544618.12147   -419904.55144  22252447.5084   22252446.1374        771.7734
        44.5004         29.7504
    -47123.80147    -35833.87944  23108116.8364   23108115.5204        -65.5474
        44.0004         26.5004
   -508477.38748   -392017.09846  21363848.6644   21363845.9654        805.5094
        48.7504         38.7504
  -1102377.87947   -842404.18744  23831942.2894   23831942.5904       1837.8594
        42.0004         25.2504
  -1154997.90646   -883603.24643  23679321.7974   23679321.2934       1830.2204
        40.0004         22.5004
   -194631.51248   -149631.02046  20139688.4064   20139685.6094        216.4894
        51.2504         41.5004
   2207737.64847   1705038.23443  23882421.1094   23882418.9454      -3790.2614
        42.2504         22.0004
  -1269754.35947   -971159.37544  23499722.5314   23499720.5704       2100.1404
        43.5004         29.2504
   2306570.03947   1778161.95744  23656338.6174   23656338.6094      -3923.1004
        43.0004         24.2504
    695188.32048    536097.17646  20334872.0634   20334867.3014      -1308.5264
        50.7504         40.0004
   2292463.77346   1736977.20743  25169247.0704   25169252.9804      -3876.3454
        36.5004         18.2504
   -494937.21146   -363826.82042  24940966.1884   24940969.7384       3033.5694
        37.5004         16.2504
 10  5 26 22 16 30.0000000  0 12G03G06G07G08G10G13G16G19G20G23G32G28
   -567256.72347   -437544.99645  22248139.7114   22248138.1254        754.6204
        45.2504         30.0004
    -44668.10947    -33920.34444  23108583.5164   23108583.0354        -81.8564
        43.7504         27.2504
   -532453.06648   -410699.44146  21359286.3444   21359283.7384        799.1894
        49.2504         38.0004
  -1157409.32447   -885285.78544  23821470.7584   23821469.9654       1834.3824
        42.5004         25.2504
  -1209458.07446   -926039.70744  23668958.9144   23668957.8284       1815.3394
        41.0004         24.2504
   -200738.08248   -154389.39546  20138526.4534   20138523.2584        203.5524
        52.0004         41.2504
   2321610.50847   1793770.27043  23904090.7344   23904088.4614      -3795.7624
        42.0004         21.5004
  -1332558.26247  -1020097.42644  23487770.7274   23487769.4774       2093.4634
        43.2504         29.0004
   2424316.14547   1869912.01644  23678744.9694   23678744.9454      -3924.8704
        42.2504         25.5004
    734885.89548    567030.33246  20342426.4694   20342422.2074      -1323.2524
        50.0004         40.0004
   2408703.16045   1827552.98842  25191367.3674   25191372.5664      -3874.6464
        35.7504         16.7504
   -585842.64846   -434662.09443  24923666.8754   24923671.1994       3030.1814
        36.7504         18.5004
 10  5 26 22 17  0.0000000  0 11G03G06G07G08G10G13G16G19G20G23G28
   -589386.32447   -454788.84045  22243927.9844   22243926.9224        737.6534
        44.0004         30.2504
    -41729.55947    -31630.52344  23109143.1484   23109140.9884        -97.9524
        44.5004         27.0004
   -556246.82048   -429240.02046  21354758.3984   21354755.6454        793.1254
        49.5004         38.2504
  -1212344.59847   -928092.41044  23811016.9614   23811016.2194       1831.1764
        43.0004         25.2504
  -1263477.35247   -968132.64544  23658679.6414   23658677.9574       1800.6434
        42.0004         24.5004
   -206462.73448   -158850.18046  20137437.2584   20137434.4264        190.8224
        51.5004         41.0004
   2435638.17247   1882622.93044  23925790.1564   23925787.2624      -3800.9224
        42.0004         26.0004
  -1395166.57047  -1068883.05544  23475857.1254   23475855.1094       2086.9444
        42.7504         29.0004
   2542106.07847   1961696.21944  23701159.6094   23701159.6484      -3926.3314
        42.7504         24.5004
    775018.17648    598302.21146  20350063.0554   20350058.5944      -1337.7434
        52.0004         39.7504
   -676652.05146   -505422.53942  24906386.0944   24906389.5784       3026.9804
        38.0004         16.7504
 10  5 26 22 17 30.0000000  0 11G03G06G07G08G10G13G16G19G20G23G28
   -611001.90647   -471632.13745  22239814.3984   22239813.5354        720.5194
        43.5004         30.2504
    -38304.02747    -28961.29344  23109794.8674   23109793.3674       -114.1844
        42.5004         27.5004
   -579856.16848   -447636.90646  21350265.6484   21350262.7304        786.9784
        48.7504         38.2504
  -1267180.87947   -970821.94543  23800581.1564   23800581.4884       1827.8764
        42.0004         23.7504
  -1317050.45746  -1009877.87943  23648485.0634   23648483.6804       1785.7704
        40.7504         23.0004
   -211800.77748   -163009.69546  20136421.5234   20136418.4924        177.9354
        51.5004         41.2504
   2549820.98847   1971596.51243  23947518.2034   23947515.5434      -3806.0944
        42.7504         23.0004
  -1457572.82047  -1117511.22744  23463981.8134   23463979.6884       2080.2084
        43.7504         29.0004
   2659939.47746   2053514.29744  23723582.6644   23723583.1994      -3927.7804
        41.7504         26.0004
    815588.87548    629915.71546  20357783.5004   20357779.0164      -1352.3574
        50.2504         39.2504
   -767360.93446   -576104.67243  24889125.0474   24889128.6604       3023.6294
        37.0004         19.0004
 10  5 26 22 18  0.0000000  0 11G03G06G07G08G10G13G16G19G20G23G28
   -632108.80947   -488079.03544  22235798.5704   22235796.9694        703.5634
        43.2504         29.7504
    -34397.66847    -25917.37544  23110538.0784   23110537.1414       -130.2124
        42.7504         26.5004
   -603288.85948   -465896.14146  21345806.4534   21345803.6374        781.0904
        49.0004         38.5004
  -1321925.78547  -1013480.25044  23790164.2734   23790163.6134       1824.8304
        42.0004         24.2504
  -1370182.76646  -1051279.66843  23638373.3754   23638372.9144       1771.0774
        40.5004         23.2504
   -216757.94148   -166872.42246  20135478.1174   20135475.3594        165.2394
        51.5004         41.2504
   2664149.58647   2060683.66843  23969274.9774   23969271.7424      -3810.9534
        43.0004         22.5004
  -1519781.38747  -1165985.37944  23452144.0784   23452141.9774       2073.6194
        43.5004         29.2504
   2777806.30546   2145358.39844  23746012.3754   23746012.6454      -3928.8944
        41.0004         25.5004
    856590.86348    661865.29346  20365586.2344   20365581.6134      -1366.7334
        51.0004         39.2504
   -857974.01646   -646712.14543  24871881.3204   24871885.5044       3020.4364
        38.5004         18.2504
 10  5 26 22 18 30.0000000  0 11G03G06G07G08G10G13G16G19G20G23G28
   -652699.00447   -504123.34445  22231880.5084   22231879.2504        686.3404
        44.0004         30.0004
    -30004.36747    -22493.99644  23111374.3594   23111373.1644       -146.4434
        43.7504         26.0004
   -626539.72748   -484013.69546  21341381.9694   21341379.6134        775.0294
        48.5004         38.5004
  -1376574.13746  -1056063.32844  23779764.7894   23779764.4224       1821.6124
        41.2504         25.2504
  -1422867.01246  -1092332.28943  23628348.8914   23628346.9064       1756.1424
        39.5004         23.2504
   -221327.63748   -170433.23046  20134608.3834   20134605.3204        152.3234
        51.5004         40.7504
   2778625.90246   2149885.93843  23991058.2504   23991055.9734      -3815.8774
        41.2504         21.7504
  -1581783.92647  -1214298.96944  23440344.8984   23440342.6134       2066.7514
        44.2504         28.5004
   2895708.96946   2237230.43044  23768449.0864   23768449.2424      -3930.0894
        41.5004         26.0004
    898029.67648    694155.25046  20373471.8204   20373467.2664      -1381.2944
        50.2504         39.5004
   -948484.42246   -717239.52742  24854658.5784   24854661.8324       3017.0144
        38.5004         15.5004
 10  5 26 22 19  0.0000000  0 11G03G06G07G08G10G13G16G19G20G23G28
   -672771.74247   -519764.42245  22228060.3754   22228058.9024        669.0914
        43.7504         30.5004
    -25123.55947    -18690.77044  23112303.3594   23112301.7074       -162.6944
        42.7504         27.0004
   -649609.83248   -501990.39846  21336992.0084   21336989.5314        769.0044
        48.0004         38.5004
  -1431127.12546  -1098572.08644  23769383.9064   23769382.6954       1818.4334
        41.7504         25.2504
  -1475101.98846  -1133034.85943  23618408.3834   23618407.4694       1741.1664
        40.5004         22.2504
   -225508.64148   -173691.17246  20133812.9064   20133810.0044        139.3674
        51.5004         41.0004
   2893246.93047   2239200.96943  24012869.0554   24012867.7074      -3820.7014
        42.0004         23.7504
  -1643577.48047  -1262449.72344  23428586.1254   23428583.8914       2059.7854
        43.0004         29.0004
   3013644.10246   2329127.77044  23790892.0084   23790891.0314      -3931.1714
        41.5004         25.5004
    939905.50448    726785.73446  20381440.2894   20381435.7584      -1395.8614
        50.5004         39.7504
  -1038890.68046   -787685.80942  24837453.9924   24837458.0394       3013.5424
        38.2504         17.7504
 10  5 26 22 19 30.0000000  0 11G03G06G07G08G10G13G16G19G20G23G28
   -692322.89847   -534999.09044  22224339.7734   22224338.3984        651.7054
        43.2504         29.7504
    -19752.30946    -14505.37544  23113324.7034   23113323.3524       -179.0424
        41.5004         27.7504
   -672497.69948   -519825.09446  21332636.4384   21332633.9064        762.9294
        49.5004         38.5004
  -1485582.73847  -1141004.99644  23759020.8134   23759020.5274       1815.1874
        42.5004         25.2504
  -1526883.78146  -1173384.26244  23608554.9304   23608553.9064       1726.0604
        39.7504         25.7504
   -229297.57448   -176643.58646  20133092.0234   20133088.6414        126.2984
        51.0004         41.2504
   3008012.06346   2328628.29343  24034708.6884   24034706.5204      -3825.5044
        41.0004         22.5004
  -1705157.31247  -1310433.95344  23416867.6024   23416865.1884       2052.6614
        43.0004         29.0004
   3131611.16446   2421049.99644  23813339.5314   23813339.9184      -3932.2354
        41.0004         24.0004
    982220.16048    759758.17246  20389492.3594   20389488.0164      -1410.4894
        51.2504         40.5004
  -1129189.25046   -858048.17642  24820270.8674   24820274.5274       3009.9524
        37.5004         17.2504
 10  5 26 22 20  0.0000000  0 11G03G06G07G08G10G13G16G19G20G23G28
   -711358.37547   -549831.89845  22220717.1334   22220715.9694        634.5164
        44.0004         30.2504
    -13897.63747     -9943.27744  23114439.6644   23114438.4104       -195.1564
        42.5004         27.5004
   -695211.37548   -537524.06246  21328314.1804   21328311.7154        757.1234
        49.2504         38.5004
  -1539948.77047  -1183368.09444  23748675.4144   23748674.8164       1812.2014
        42.0004         26.0004
  -1578218.19546  -1213385.10944  23598785.8054   23598785.4654       1711.1474
        40.2504         25.2504
   -232700.79748   -179295.46146  20132444.0704   20132441.0554        113.4414
        51.2504         41.0004
   3122910.85246   2418159.78943  24056573.4534   24056571.1214      -3829.9604
        41.5004         22.7504
  -1766527.93047  -1358255.15644  23405189.0944   23405187.0634       2045.6874
        43.2504         28.5004
   3249599.64847   2512988.90643  23835791.7274   23835791.9454      -3932.9494
        42.2504         22.5004
   1024966.77748    793067.19546  20397627.1024   20397622.5514      -1424.8874
        51.0004         40.0004
  -1219385.80946   -928331.05543  24803106.9064   24803110.3554       3006.5524
        38.5004         18.2504
 10  5 26 22 20 30.0000000  0 11G03G06G07G08G10G13G16G19G20G23G28
   -729867.52047   -564254.59444  22217195.2734   22217193.9694        616.9714
        45.0004         29.5004
     -7550.10247     -4997.14544  23115646.8364   23115645.4414       -211.5854
        43.0004         26.5004
   -717742.35548   -555080.66046  21324026.7734   21324024.2584        751.0334
        49.5004         38.5004
  -1594217.52047  -1225655.37544  23738348.8754   23738348.1484       1808.9584
        43.0004         25.5004
  -1629094.98046  -1253029.32844  23589104.7974   23589103.1024       1695.8934
        40.0004         24.7504
   -235708.27748   -181638.95346  20131872.0084   20131868.9304        100.2494
        51.2504         40.7504
   3237949.24246   2507800.03943  24078465.1094   24078462.5824      -3834.6134
        41.0004         22.5004
  -1827677.85247  -1405904.37544  23393552.4454   23393550.4734       2038.3314
        42.7504         29.5004
   3367614.91047   2604948.66044  23858249.0554   23858249.7274      -3933.8424
        42.5004         24.5004
   1068153.84848    826719.43046  20405845.3674   20405840.8164      -1439.5694
        50.5004         39.5004
  -1309470.03946   -998526.35942  24785964.6254   24785967.0314       3002.8084
        39.5004         16.7504
 10  5 26 22 21  0.0000000  0 11G03G06G07G08G10G13G16G19G20G23G28
   -747858.09847   -578273.24245  22213771.6174   22213770.3444        599.6864
        43.2504         30.2504
      -718.17647       326.44544  23116947.2814   23116945.3954       -227.7314
        43.2504         27.5004
   -740100.94548   -572502.92646  21319771.8754   21319769.5044        745.2864
        49.5004         38.7504
  -1648398.88747  -1267874.55544  23728037.7424   23728037.7974       1806.0464
        42.7504         25.5004
  -1679521.73446  -1292322.87944  23579508.3754   23579507.5474       1680.8924
        40.5004         24.5004
   -238328.07848   -183680.36746  20131373.4304   20131370.0554         87.3274
        51.2504         41.2504
   3353115.03146   2597539.53143  24100380.2664   24100377.7304      -3838.8604
        40.2504         22.5004
  -1888613.25847  -1453386.45344  23381956.5234   23381954.6054       2031.1804
        44.0004         28.0004
   3485645.25046   2696920.17643  23880709.9534   23880710.9844      -3934.3454
        41.0004         23.5004
   1111772.50048    860707.96946  20414145.5704   20414141.2034      -1453.9554
        51.0004         40.0004
  -1399449.55146  -1068640.05543  24768841.6644   24768844.7074       2999.3174
        37.7504         18.5004
 10  5 26 22 21 30.0000000  0 11G03G06G07G08G10G13G16G19G20G23G28
   -765320.10547   -591879.96144  22210448.9924   22210447.4804        582.0674
        43.7504         29.7504
      6607.40247      6034.68444  23118340.8594   23118339.4454       -244.1864
        42.5004         26.0004
   -762279.26648   -589784.73046  21315551.5554   21315549.1414        739.2774
        49.5004         38.5004
  -1702484.51247  -1310019.15244  23717745.7894   23717745.1094       1802.8544
        42.5004         26.0004
  -1729488.44146  -1331257.95744  23569999.5234   23569999.4804       1665.5574
        40.0004         24.0004
   -240550.45348   -185412.10246  20130950.6644   20130947.5904         74.0794
        51.0004         41.0004
   3468413.93846   2687382.79743  24122320.1094   24122318.0274      -3843.2974
        41.0004         22.0004
  -1949322.73447  -1500692.47344  23370405.0784   23370402.2034       2023.6494
        43.2504         28.7504
   3603695.80147   2788907.43843  23903174.9384   23903175.3794      -3935.0184
        42.0004         22.0004
   1155831.16448    895039.36746  20422529.5234   20422524.9924      -1468.6224
        50.5004         38.7504
  -1489314.19546  -1138664.32042  24751740.7974   24751743.6994       2995.4884
        37.7504         17.7504
 10  5 26 22 22  0.0000000  0 11G03G06G07G08G10G13G16G19G20G23G28
   -782256.12947   -605076.86345  22207226.0164   22207224.8404        564.5344
        44.5004         30.5004
     14422.41047     12124.30944  23119827.7114   23119827.0824       -260.5004
        43.7504         25.7504
   -784282.58648   -606930.16446  21311364.7274   21311362.0124        733.4444
        48.2504         38.7504
  -1756479.73047  -1352093.28944  23707470.5474   23707470.1214       1799.8414
        43.0004         26.0004
  -1778997.97746  -1369836.78943  23560578.8054   23560577.9224       1650.3184
        40.5004         23.7504
   -242378.87148   -186836.84846  20130602.6884   20130599.8714         60.9474
        50.2504         41.2504
   3583838.50846   2777323.94943  24144285.1954   24144282.8674      -3847.4864
        40.7504         22.5004
  -2009808.12547  -1547823.88744  23358894.7194   23358892.1724       2016.1804
        43.7504         28.7504
   3721759.03147   2880904.58243  23925641.3364   23925642.1054      -3935.4414
        42.5004         22.5004
   1200325.10948    929709.94546  20430996.6644   20430992.4344      -1483.1324
        50.0004         39.5004
  -1579067.21946  -1208601.53543  24734661.1724   24734664.3164       2991.7674
        38.2504         18.2504
 10  5 26 22 22 30.0000000  0 11G03G06G07G08G10G13G16G19G20G23G28
   -798659.34847   -617858.58245  22204104.8444   22204103.2154        546.7744
        44.5004         30.0004
     22732.61747     18599.82444  23121409.8134   23121408.0744       -277.0074
        42.2504         26.7504
   -806106.14148   -623935.52046  21307211.7344   21307209.1054        727.4524
        49.0004         39.2504
  -1810379.77047  -1394093.27344  23697213.7504   23697213.3794       1796.6684
        42.0004         25.5004
  -1828043.34446  -1408053.94544  23551245.9924   23551244.8794       1634.8464
        40.7504         26.0004
   -243806.67648   -187949.43046  20130331.0474   20130327.8404         47.5934
        51.2504         41.2504
   3699390.96146   2867364.79343  24166274.0944   24166271.7034      -3851.7484
        41.0004         21.5004
  -2070061.22347  -1594774.29344  23347428.5164   23347426.5084       2008.4374
        42.7504         27.5004
   3839836.88346   2972913.10943  23948111.1954   23948111.8554      -3935.9284
        41.7504         22.7504
   1245259.62548    964723.81646  20439547.4224   20439543.1134      -1497.8174
        50.7504         39.5004
  -1668701.41446  -1278446.19143  24717604.6334   24717607.0944       2987.8074
        39.5004         18.5004
 10  5 26 22 23  0.0000000  0 11G03G06G07G08G10G13G16G19G20G23G28
   -814533.61347   -630228.10545  22201084.0634   22201082.2194        529.1424
        44.0004         30.0004
     31533.78947     25457.87944  23123084.5704   23123082.9574       -293.3724
        42.5004         25.5004
   -827755.70348   -640805.30146  21303092.2344   21303089.3914        721.6524
        49.5004         39.2504
  -1864190.91047  -1436023.98044  23686974.2114   23686973.4924       1793.7054
        42.5004         26.0004
  -1876627.97746  -1445912.09044  23542000.1724   23541998.9614       1619.4884
        41.5004         25.0004
   -244837.89548   -188752.99646  20130134.5944   20130131.7194         34.3744
        51.7504         41.0004
   3815063.60546   2957499.26243  24188286.1804   24188284.1644      -3855.7554
        39.2504         21.2504
  -2130084.39547  -1641545.54744  23336005.7424   23336003.9614       2000.7724
        44.5004         28.7504
   3957921.62546   3064926.99243  23970582.9694   23970582.5354      -3936.1584
        41.7504         22.7504
   1290629.63348   1000077.03946  20448180.9844   20448176.1884      -1512.3344
        50.5004         40.5004
  -1758220.29746  -1348200.98443  24700569.0704   24700572.2664       2983.9634
        37.7504         18.5004
 10  5 26 22 23 30.0000000  0 11G03G06G07G08G10G13G16G19G20G23G28
   -829872.25447   -642180.29345  22198164.7344   22198163.5164        511.2884
        45.0004         31.0004
     40831.27746     32702.68044  23124853.2734   23124852.6334       -309.9164
        41.2504         27.2504
   -849226.58248   -657535.84846  21299006.2974   21299003.3244        715.6964
        48.7504         39.0004
  -1917907.74646  -1477881.22344  23676751.8284   23676751.4344       1790.5614
        41.5004         26.7504
  -1924745.55146  -1483406.28944  23532844.0784   23532843.1644       1603.9194
        40.5004         24.5004
   -245466.00848   -189242.44146  20130014.9924   20130011.9304         20.9374
        51.0004         41.5004
   3930858.52346   3047729.02743  24210320.6564   24210318.9844      -3859.8314
        40.2504         21.2504
  -2189869.73447  -1688131.45344  23324629.9454   23324627.2034       1992.8454
        44.2504         28.5004
   4076015.18846   3156947.77743  23993055.5234   23993055.2344      -3936.4524
        41.0004         22.5004
   1336440.18048   1035773.53946  20456898.3674   20456894.1684      -1527.0184
        51.2504         39.7504
  -1847616.93046  -1417860.52042  24683558.0784   24683560.3874       2979.8884
        38.7504         17.7504
 10  5 26 22 24  0.0000000  0 11G03G06G07G08G10G13G16G19G20G23G28
   -844672.20347   -653712.70745  22195348.3914   22195347.2114        493.3324
        45.7504         30.2504
     50627.06646     40335.77744  23126717.6804   23126716.5554       -326.5264
        41.2504         28.2504
   -870518.16448   -674126.67646  21294954.3524   21294951.5744        709.7194
        49.2504         38.7504
  -1971529.79746  -1519664.60244  23666548.4534   23666547.4264       1787.4024
        41.7504         26.2504
  -1972393.02346  -1520534.17244  23523776.9384   23523775.7074       1588.2494
        40.7504         25.7504
   -245688.95748   -189416.17646  20129972.6254   20129969.5234          7.4324
        51.0004         41.0004
   4046774.53946   3138053.17243  24232379.3054   24232376.6884      -3863.8674
        40.7504         21.2504
  -2249412.64847  -1734528.47344  23313299.3054   23313296.1764       1984.7644
        45.0004         28.0004
   4194116.18046   3248974.34843  24015528.6644   24015529.2384      -3936.7004
        40.2504         22.5004
   1382692.49248   1071814.27046  20465699.8364   20465695.5864      -1541.7444
        51.0004         39.7504
  -1936888.93046  -1487422.87143  24666569.3444   24666572.2934       2975.7334
        39.2504         18.5004
 10  5 26 22 24 30.0000000  0 11G03G06G07G08G10G13G16G19G20G23G28
   -858928.30947   -664821.34845  22192636.0234   22192634.5594        475.2044
        45.5004         31.7504
     60925.85247     48360.80544  23128677.8054   23128676.7734       -343.2934
        43.7504         27.0004
   -891626.85948   -690574.99646  21290937.3914   21290934.7114        703.6234
        48.7504         39.2504
  -2025053.07447  -1561371.01644  23656362.8054   23656362.4184       1784.1094
        43.0004         26.5004
  -2019564.47746  -1557291.14143  23514800.7974   23514799.3914       1572.3824
        41.0004         23.5004
   -245500.88348   -189269.63346  20130008.5004   20130005.7194         -6.2694
        51.5004         40.7504
   4162812.76246   3228472.49643  24254460.1644   24254458.4574      -3867.9414
        41.0004         21.5004
  -2308706.59447  -1780731.49244  23302015.8984   23302013.3554       1976.4654
        44.2504         28.5004
   4312225.68846   3341007.52343  24038004.7424   24038004.3794      -3936.9844
        40.5004         22.7504
   1429391.13748   1108202.79746  20474586.6564   20474582.3634      -1556.6214
        51.7504         39.7504
  -2026030.15246  -1556883.39843  24649606.4144   24649609.2424       2971.3744
        39.5004         19.2504
 10  5 26 22 25  0.0000000  0 11G03G06G07G08G10G13G16G19G20G23G28
   -872643.57847   -675508.54745  22190026.0234   22190024.7114        457.1764
        45.5004         30.7504
     71722.81646     56774.05144  23130732.1884   23130730.9924       -359.8994
        41.5004         26.2504
   -912558.67648   -706885.49646  21286954.5004   21286951.6524        697.7274
        48.7504         38.7504
  -2078483.94147  -1603005.42244  23646195.1254   23646194.6724       1781.0294
        42.5004         25.2504
  -2066264.07446  -1593680.42244  23505914.3444   23505912.6214       1556.6534
        41.7504         25.2504
   -244906.29348   -188806.32046  20130121.1174   20130118.4924        -19.8204
        51.5004         41.7504
   4278965.17246   3318980.80943  24276563.0004   24276561.5124      -3871.7474
        38.7504         20.7504
  -2367753.85547  -1826742.28944  23290779.3524   23290776.7974       1968.2424
        44.5004         27.0004
   4430335.47746   3433040.96143  24060479.8914   24060480.4694      -3936.9934
        38.5004         22.5004
   1476530.37148   1144934.63746  20483556.7734   20483552.6214      -1571.3084
        51.0004         39.2504
  -2115044.42646  -1626244.95343  24632667.7814   24632670.0704       2967.1424
        40.0004         18.5004
 10  5 26 22 25 30.0000000  0 11G03G06G07G08G10G13G16G19G20G23G28
   -885811.77047   -685769.45345  22187520.0704   22187518.9534        438.9404
        45.5004         31.0004
     83023.28946     65579.59844  23132882.5944   23132880.9224       -376.6824
        41.2504         27.0004
   -933309.21948   -723054.74246  21283005.6414   21283003.0554        691.6854
        49.7504         38.2504
  -2131817.89847  -1644564.32444  23636046.4064   23636045.4384       1777.7994
        42.7504         27.5004
  -2112485.31646  -1629696.97744  23497117.8444   23497117.0704       1540.7084
        41.2504         26.0004
   -243898.95748   -188021.39146  20130313.2584   20130310.3834        -33.5784
        51.5004         41.5004
   4395233.96146   3409579.81343  24298689.1414   24298686.8634      -3875.6264
        39.0004         20.2504
  -2426546.52047  -1872554.69944  23279591.5864   23279589.3164       1959.7554
        44.2504         28.0004
   4548447.47346   3525076.07843  24082955.6724   24082956.8014      -3937.0674
        41.2504         22.5004
   1524115.07848   1182013.59846  20492611.7894   20492607.5004      -1586.1574
        51.7504         39.7504
  -2203925.06646  -1695502.39143  24615754.0784   24615755.8714       2962.6884
        40.7504         19.5004
 10  5 26 22 26  0.0000000  0 11G03G06G07G08G10G13G16G19G20G23G28
   -898437.16847   -695607.43045  22185117.0944   22185116.1994        420.8474
        45.0004         31.7504
     94821.99647     74773.41044  23135127.7584   23135126.6724       -393.2904
        42.7504         27.5004
   -953884.86748   -739087.70746  21279090.4614   21279087.4344        685.8554
        48.5004         39.0004
  -2185061.26647  -1686052.62144  23625913.8524   23625913.7734       1774.7794
        43.2504         26.5004
  -2158232.43446  -1665344.07044  23488413.6414   23488411.9494       1524.9044
        41.7504         26.0004
   -242483.48048   -186918.41846  20130582.3524   20130579.5904        -47.1834
        51.2504         41.0004
   4511610.31646   3500262.63743  24320834.5474   24320832.4694      -3879.2124
        41.2504         21.7504
  -2485087.68047  -1918171.12144  23268451.1254   23268449.1644       1951.3724
        44.0004         28.5004
   4666552.73446   3617105.93843  24105430.9614   24105431.1604      -3936.8424
        41.7504         22.2504
   1572139.54748   1219435.23446  20501750.8364   20501746.4414      -1600.8164
        51.5004         39.2504
  -2292676.62546  -1764659.21143  24598864.9144   24598867.0944       2958.3854
        40.5004         20.0004
 10  5 26 22 26 30.0000000  0 11G03G06G07G08G10G13G16G19G20G23G28
   -910513.82047   -705017.78945  22182819.4384   22182817.8984        402.5554
        46.5004         30.5004
    107124.21147     84359.56344  23137468.4924   23137467.4694       -410.0744
        43.0004         26.7504
   -974281.25448   -754980.99646  21275209.1254   21275206.2854        679.8804
        48.7504         39.0004
  -2238209.71947  -1727466.96144  23615800.0314   23615799.5784       1771.6154
        42.5004         26.7504
  -2203498.93747  -1700616.65644  23479799.0634   23479797.6764       1508.8834
        42.2504         25.0004
   -240653.89148   -185492.77346  20130930.8364   20130927.9574        -60.9864
        51.0004         41.5004
   4628096.62146   3591031.12543  24343000.7664   24342998.9384      -3882.8774
        39.7504         19.2504
  -2543369.49247  -1963585.46144  23257360.2344   23257357.8094       1942.7274
        45.0004         28.2504
   4784653.53546   3709132.36743  24127904.8834   24127905.3874      -3936.6934
        40.5004         22.0004
   1620608.67248   1257203.35246  20510973.9384   20510969.5394      -1615.6374
        52.0004         39.5004
  -2381292.58646  -1833710.40643  24582001.2814   24582003.9224       2953.8654
        40.2504         20.0004
 10  5 26 22 27  0.0000000  0 11G03G06G07G08G10G13G16G19G20G23G28
   -922045.00847   -714003.13345  22180624.5784   22180623.7504        384.3734
        46.2504         31.5004
    119925.73846     94334.79744  23139904.7114   23139903.3874       -426.7184
        41.7504         25.5004
   -994503.40248   -770738.50846  21271360.7894   21271357.9264        674.0724
        49.7504         39.0004
  -2291268.37147  -1768811.32844  23605703.5634   23605703.1414       1768.6224
        42.0004         27.5004
  -2248288.24247  -1735517.41044  23471275.8914   23471274.3714       1492.9774
        42.2504         25.2504
   -238413.68048   -183747.17246  20131357.0944   20131354.2504        -74.6744
        51.5004         41.5004
   4744685.34846   3681879.43843  24365187.9924   24365184.5984      -3886.2914
        41.0004         20.7504
  -2601393.61347  -2008798.98444  23246319.1954   23246316.6684       1934.1374
        45.0004         28.0004
   4902742.52346   3801149.54343  24150377.1334   24150377.6254      -3936.3004
        41.2504         21.7504
   1669517.50448   1295314.09846  20520281.1804   20520276.6604      -1630.2944
        52.0004         39.0004
  -2469775.38746  -1902657.82043  24565163.6644   24565165.4844       2949.4274
        39.7504         19.7504
 10  5 26 22 27 30.0000000  0 11G03G06G07G08G10G13G16G19G20G23G28
   -933022.20347   -722556.75845  22178536.5394   22178534.7154        365.9074
        46.7504         31.2504
    133233.74646    104704.68844  23142437.0944   23142435.8594       -443.6004
        41.2504         27.0004
  -1014545.44548   -786355.68046  21267546.9774   21267543.9454        668.0684
        49.7504         39.0004
  -2344231.30947  -1810081.11744  23595624.3914   23595624.2624       1765.4314
        43.2504         26.7504
  -2292592.09847  -1770039.88344  23462844.8284   23462843.7504       1476.7954
        42.5004         26.2504
   -235754.87948   -181675.39146  20131863.1644   20131859.9574        -88.6274
        51.0004         41.7504
   4861380.52346   3772810.69943  24387393.0944   24387391.5204      -3889.8394
        40.5004         21.0004
  -2659150.69147  -2053804.45744  23235327.4304   23235325.7734       1925.2364
        43.5004         28.0004
   5020823.03946   3893160.14543  24172846.4454   24172847.4774      -3936.0174
        41.0004         21.7504
   1718872.68048   1333772.64546  20529673.3524   20529668.7774      -1645.1734
        51.5004         39.5004
  -2558117.12546  -1971495.30543  24548352.9844   24548354.7894       2944.7254
        40.2504         19.0004
 10  5 26 22 28  0.0000000  0 11G03G06G07G08G10G13G16G19G20G23G28
   -943451.57047   -730683.53145  22176550.5554   22176549.8834        347.6464
        45.0004         31.5004
    147041.33646    115463.85244  23145064.2194   23145063.4104       -460.2534
        41.0004         27.2504
  -1034414.95748   -801838.41046  21263765.9614   21263762.7344        662.3174
        49.5004         38.7504
  -2397105.76647  -1851281.96144  23585563.5394   23585562.6764       1762.4824
        42.7504         26.5004
  -2336416.37947  -1804188.66844  23454505.6564   23454504.0204       1460.8094
        42.2504         26.0004
   -232683.46548   -179282.09446  20132447.6094   20132444.4774       -102.3804
        50.7504         41.5004
   4978171.94946   3863816.94943  24409618.0554   24409617.3014      -3893.0484
        40.7504         20.7504
  -2716645.04347  -2098605.17644  23224387.5084   23224385.0164       1916.4784
        43.7504         27.7504
   5138885.04347   3985156.28143  24195314.1414   24195314.3634      -3935.4004
        42.2504         22.5004
   1768666.90648   1372573.30146  20539148.6644   20539144.1844      -1659.8084
        51.5004         39.5004
  -2646323.54746  -2040227.37943  24531567.3834   24531569.6294       2940.2144
        39.7504         21.0004
 10  5 26 22 28 30.0000000  0 11G03G06G07G08G10G13G16G19G20G23G28
   -953327.48447   -738379.02045  22174672.3754   22174670.6804        329.1974
        46.0004         30.5004
    161353.11347    126615.90244  23147787.6024   23147786.6764       -477.0594
        43.5004         27.2504
  -1054108.38348   -817183.92646  21260018.2974   21260015.7934        656.4484
        49.5004         39.0004
  -2449888.52046  -1892411.37544  23575519.1804   23575518.2504       1759.4254
        41.7504         26.5004
  -2379755.53147  -1837959.42644  23446258.2734   23446257.0784       1444.6384
        43.0004         25.5004
   -229194.42248   -176563.37546  20133111.6024   20133108.5434       -116.3014
        50.7504         41.2504
   5095061.49646   3954899.65643  24431861.4384   24431859.8554      -3896.3184
        40.2504         20.0004
  -2773869.66447  -2143195.73444  23213497.7274   23213494.8954       1907.4874
        45.0004         28.5004
   5256929.75846   4077139.00843  24217776.6254   24217777.5704      -3934.8244
        41.5004         21.5004
   1818904.13748   1411719.16446  20548708.4064   20548704.3914      -1674.5744
