     2.11           OBSERVATION DATA    G (GPS)             RINEX VERSION / TYPE
teqc  2011Oct11     Joshua D Weyandt    20120316 19:31:14UTCPGM / RUN BY / DATE
Linux 2.4.21-27.ELsmp|Opteron|gcc|Linux x86_64|=+           COMMENT
BIT 2 OF LLI FLAGS DATA COLLECTED UNDER A/S CONDITION       COMMENT
vers                                                        MARKER NAME
                                                            MARKER NUMBER
Erika Noll/Jennifer University of California, Riverside     OBSERVER / AGENCY
0220413532          TRIMBLE R7          2.32                REC # / TYPE / VERS
60219588            TRM41249.00     NONE                    ANT # / TYPE
 -2430820.4574 -4704715.9438  3543698.2376                  APPROX POSITION XYZ
        1.0507        0.0000        0.0000                  ANTENNA: DELTA H/E/N
     1     1                                                WAVELENGTH FACT L1/2
     7    L1    L2    C1    P2    D1    S1    S2            # / TYPES OF OBSERV
    30.0000                                                 INTERVAL
    15                                                      LEAP SECONDS
 SNR is mapped to RINEX snr flag value [0-9]                COMMENT
  L1 & L2: min(max(int(snr_dBHz/6), 0), 9)                  COMMENT
  2011    11    21    18    23   30.0000000     GPS         TIME OF FIRST OBS
  2011    11    22    19    22    0.0000000     GPS         TIME OF LAST OBS
  2011    11    22    19    22    0.0000000     GPS         TIME OF LAST OBS
                                                            END OF HEADER
 11 11 21 18 23 30.0000000  0  4G02G09G12G29
   -321767.28958   -178031.97756  20756552.0554   20756550.1254
        51.5004         41.5004
   -192398.63757   -109019.28554  23933749.3364   23933754.6414
        43.5004         25.0004
   -408551.98858   -225886.38757  20382720.0394   20382719.3094
        51.2504         44.2504
   -503268.52357   -246924.69154  23635162.2814   23635165.3134
        42.0004         27.5004
 11 11 21 18 24  0.0000000  0  8G02G04G05G09G10G12G29G25
   -496637.58248   -314294.57846  20723275.3984   20723273.5474       5829.0104
        51.0004         41.2504
   -316923.18457   -201395.14854  23314790.4614   23314794.5434
        42.0004         26.5004
   -817588.27057   -526169.19955  22227619.4304   22227621.7154
        47.2504         35.5004
   -299803.41047   -192711.55944  23913310.8754   23913315.5004       3580.1594
        44.0004         25.0004
   -537095.61357   -345599.64555  22349693.7034   22349696.3754
        45.2504         31.0004
   -630302.14848   -398678.74247  20340522.1254   20340521.4344       7391.6724
        50.5004         44.0004
   -783115.83246   -464987.46944  23581908.2194   23581911.8444       9328.2444
        41.7504         28.5004
   -796206.64858   -503764.80156  21512657.7034   21512660.1454
        50.5004         40.5004
 11 11 21 18 24 30.0000000  0  8G02G04G05G09G10G12G29G25
   -671213.78548   -450328.03547  20690054.6884   20690052.5704       5819.2074
        52.0004         42.5004
   -428745.34447   -288529.50044  23293511.2114   23293515.7774       3727.4054
        43.5004         24.5004
  -1109177.77047   -753381.69945  22172131.7424   22172133.9344       9719.6504
        47.7504         35.0004
   -407220.80916                  23892869.852                        7160.318
        37.500
   -728072.84047   -494413.17645  22313351.9774   22313354.4024       6365.9084
        46.7504         33.0004
   -851588.85248   -571109.98047  20298412.3754   20298412.1294       7376.2234
        52.7504         43.7504
  -1062966.77346   -683053.04343  23528654.3984   23528657.8754       9328.3654
        41.2504         22.7504
  -1076133.60548   -721889.70746  21459389.4844   21459392.0514       9330.8994
        50.0004         36.7504
 11 11 21 18 25  0.0000000  0  8G02G04G05G09G10G12G29G25
   -845352.11748   -586020.27747  20656917.1644   20656914.7464       5804.6114
        52.2504         42.5004
   -540374.15647   -375513.18744  23272269.8134   23272274.2704       3720.9604
        43.2504         26.0004
  -1400332.10247   -980255.17645  22116726.6254   22116728.9844       9705.1444
        47.2504         34.7504
   -514510.87547   -270851.27754  23872453.2734   23872457.6054       3576.3364
        43.2504         27.2504
   -918341.95747   -642674.91445  22277144.8674   22277147.6524       6342.3044
        47.2504         32.0004
  -1072265.43448   -743065.78147  20256419.0784   20256418.3524       7355.8864
        52.5004         44.5004
  -1342676.06246   -901008.28544  23475428.1414   23475431.1604       9323.6434
        41.5004         25.0004
  -1355594.11348   -939651.12146  21406210.0634   21406212.2194       9315.3504
        49.7504         37.5004
 11 11 21 18 25 30.0000000  0  8G02G04G05G09G10G12G29G25
  -1019196.31248   -721483.32847  20623835.7504   20623834.3634       5794.8074
        51.5004         42.7504
   -651953.98447   -462458.69944  23251037.0084   23251040.7074       3719.3284
        42.5004         25.0004
  -1691190.31647  -1206897.86745  22061378.0474   22061380.4064       9695.2744
        46.2504         33.5004
   -621817.77747   -354467.29344  23852033.8674   23852039.6454       3576.8974
        43.2504         26.0004
  -1108045.52347   -790495.93445  22241045.5634   22241047.9494       6323.4524
        47.2504         32.7504
  -1292472.91048   -914656.04747  20214515.0474   20214514.2624       7340.2494
        52.0004         43.7504
  -1622386.14147  -1118964.12143  23422199.9844   23422203.8324       9323.6694
        42.0004         23.7504
  -1634727.93748  -1157157.98846  21353092.5864   21353094.6524       9304.4614
        49.5004         38.2504
 11 11 21 18 26  0.0000000  0  8G02G04G05G09G10G12G29G25
  -1192716.57848   -856693.94547  20590816.1094   20590814.2194       5784.0094
        50.2504         42.2504
   -763455.40647   -549343.13743  23229818.9614   23229823.3364       3716.7144
        42.5004         22.5004
  -1981718.28947  -1433283.22745  22006092.6724   22006094.6484       9684.2664
        47.2504         35.5004
   -729113.31647   -438074.43044  23831615.7194   23831621.2624       3576.5184
        42.2504         25.7504
  -1297152.53147   -937852.13345  22205059.9454   22205062.1524       6303.5674
        47.0004         34.5004
  -1512179.18748  -1085855.75847  20172706.4614   20172705.4694       7323.5434
        52.0004         44.7504
  -1902065.39547  -1336895.94144  23368978.8134   23368982.8954       9322.6424
        45.0004         24.5004
  -1913501.16048  -1374383.88346  21300043.4534   21300046.1294       9292.4414
        50.2504         37.2504
 11 11 21 18 26 30.0000000  0  8G02G04G05G09G10G12G29G25
  -1365893.28948   -991636.84846  20557861.8524   20557859.7074       5772.5574
        49.7504         39.0004
   -874858.93045   -636151.23443  23208618.6254   23208623.8094       3713.4514
        34.0004         21.2504
  -2271891.55148  -1659392.24246  21950874.7974   21950876.6484       9672.4424
        49.7504         36.0004
   -836379.33246   -521658.57443  23811203.1884   23811209.3094       3575.5344
        40.2504         21.0004
  -1485641.86347  -1084727.02045  22169191.2114   22169193.9494       6282.9784
        46.0004         32.5004
  -1731361.62548  -1256647.30147  20130997.5394   20130996.8594       7306.0814
        52.5004         44.0004
  -2181692.13747  -1554786.80144  23315768.1174   23315771.3054       9320.8914
        45.0004         29.0004
  -2191889.78548  -1591310.05146  21247067.8914   21247070.7074       9279.6214
        51.5004         39.7504
 11 11 21 18 27  0.0000000  0  8G02G04G05G09G10G12G29G25
     36709.25848    101300.10547  20824768.1174   20824765.9384       5760.5824
        52.0004         43.0004
    589267.94947    504726.66444  23487233.4064   23487238.6024       3709.7714
        43.0004         25.2504
   -986265.65647   -657605.79345  22195520.8444   22195523.1374       9659.8044
        47.7504         34.2504
    631815.87946    622389.39143  24090592.7344   24090598.6374       3574.1604
        40.0004         22.7504
    -98076.46947     -3507.25445  22433235.9774   22433238.9184       6261.8204
        45.0004         32.2504
   -374580.32448   -199415.13747  20389184.5634   20389183.2234       7287.9574
        50.5004         44.0004
   -885825.73047   -545020.74244  23562363.0084   23562366.4494       9318.4534
        43.5004         28.5004
   -894450.85548   -580318.68746  21493962.3984   21493965.0314       9266.0364
        52.5004         41.2504
 11 11 21 18 27 30.0000000  0  8G02G04G05G09G10G12G29G25
   -135764.92648    -33095.40247  20791947.1254   20791945.2704       5749.1394
        51.7504         42.2504
    478073.38347    418081.37144  23466074.2114   23466078.6644       3706.4864
        42.5004         24.5004
  -1275699.99247   -883138.98045  22140443.2894   22140445.7274       9647.8114
        46.5004         34.0004
    524619.79747    538859.73844  24070194.9144   24070199.8874       3573.2034
        43.0004         25.0004
   -285312.16847   -149405.25845  22397606.2734   22397609.5554       6241.1904
        45.5004         32.7504
   -592691.44148   -369371.87947  20347679.2114   20347678.4694       7270.3714
        52.2504         44.7504
  -1165327.58647   -762814.32844  23509176.1484   23509179.1294       9316.7294
        43.2504         29.2504
  -1172043.02048   -796624.27046  21441138.2894   21441140.8524       9253.0724
        53.7504         41.0004
 11 11 21 18 28  0.0000000  0  8G02G04G05G09G10G12G29G25
   -307898.91848   -167225.80946  20759191.3524   20759189.3914       5737.8004
        51.5004         40.5004
    366972.05947    331508.67244  23444932.5394   23444937.2194       3703.3774
        42.5004         25.0004
  -1564769.03547  -1108387.50445  22085435.3054   22085437.4454       9635.6354
        46.2504         33.2504
    417445.23447    455346.89844  24049800.0554   24049805.3874       3572.4854
        43.0004         24.0004
   -471930.08247   -294821.88345  22362094.4064   22362097.3524       6220.5974
        45.7504         31.7504
   -810273.73048   -538916.53947  20306274.6954   20306273.5274       7252.7434
        52.0004         45.0004
  -1444775.49647   -980565.82845  23455997.9694   23456001.8014       9314.9304
        43.0004         30.5004
  -1449241.60548  -1012623.16846  21388389.1484   21388391.7934       9239.9534
        52.5004         40.5004
 11 11 21 18 28 30.0000000  0  8G02G04G05G09G10G12G29G25
   -479687.99648   -301087.46546  20726501.1414   20726498.5704       5726.3034
        50.0004         38.5004
    255967.699 7                  23423808.953                        3700.145
        42.750
  -1853463.49648  -1333344.15646  22030498.8524   22030500.8404       9623.1494
        50.0004         38.5004
    310295.33647    371853.19543  24029410.4534   24029415.8874       3571.6634
        43.0004         22.7504
   -657924.59847   -439752.72744  22326701.2504   22326703.4454       6199.8174
        42.0004         28.0004
  -1027319.83648   -708043.37547  20264971.8524   20264971.2274       7234.8704
        50.2504         43.7504
  -1724163.05947  -1198270.31244  23402832.7194   23402835.4224       9312.9194
        42.7504         26.5004
  -1726037.98048  -1228308.64146  21335716.4224   21335718.9104       9226.5464
        52.0004         40.2504
 11 11 21 18 29  0.0000000  0  8G02G04G05G09G10G12G29G25
   -651128.58248   -434677.59046  20693876.9064   20693874.9104       5714.6864
        50.7504         39.0004
    145063.72746    184532.70753  23402704.7114   23402709.2234       3696.7994
        39.5004         21.7504
  -2141775.51648  -1558002.78946  21975634.9304   21975636.5004       9610.4014
        49.7504         37.5004
    203172.28147    288380.46944  24009025.0704   24009031.4024       3570.7684
        44.5004         28.0004
   -843290.77747   -584193.91844  22291426.8834   22291429.3634       6178.8734
        43.5004         28.7504
  -1243823.64148   -876747.64547  20223773.0314   20223772.0164       7216.7934
        51.5004         43.2504
  -2003485.02347  -1415923.71944  23349679.6414   23349682.6454       9310.7324
        43.0004         26.5004
  -2002424.55548  -1443674.79746  21283122.1724   21283124.4804       9212.8864
        51.0004         39.7504
 11 11 21 18 29 30.0000000  0  8G02G04G05G09G10G12G29G25
   -822221.96548   -567997.14546  20661318.8134   20661316.8794       5703.1134
        49.7504         39.7504
     34258.44547     98190.78143  23381619.3204   23381624.5164       3693.5094
        42.0004         21.5004
  -2429701.27048  -1782360.46546  21920844.3594   21920846.2304       9597.5254
        49.7504         37.5004
     96073.26646    204926.50843  23988645.3054   23988650.6804       3569.9674
        41.5004         23.5004
  -1028029.29747   -728146.03544  22256272.5164   22256275.1294       6157.9514
        42.5004         27.5004
  -1459783.81648  -1045028.31247  20182676.8054   20182675.7074       7198.6734
        51.5004         43.5004
  -2282740.81647  -1633525.58644  23296539.0554   23296541.5704       9308.5264
        45.0004         28.2504
  -2278398.26248  -1658719.25846  21230605.7274   21230607.8834       9199.1244
        51.7504         39.5004
 11 11 21 18 30  0.0000000  0  8G02G04G05G09G10G12G29G25
   -992970.76648   -701048.21146  20628826.4694   20628824.6484       5691.6274
        52.0004         41.7504
    -76451.10256     11923.42253  23360552.4774   23360557.2074       3690.2204
        40.2504         20.5004
  -2717238.75048  -2006415.56646  21866127.7344   21866129.1524       9584.5834
        48.5004         37.0004
    -11005.60546    121488.16843  23968268.6254   23968274.6024       3569.2964
        41.5004         21.7504
  -1212141.60246   -871610.13744  22221236.5164   22221239.5124       6137.0774
        41.7504         27.7504
  -1675200.06248  -1212885.14547  20141684.9144   20141683.6954       7180.5424
        53.0004         44.5004
  -2561931.36747  -1851076.60944  23243410.5314   23243413.3984       9306.3524
        43.7504         29.0004
  -2553957.62148  -1873440.82846  21178168.8054   21178171.0044       9185.3124
        51.7504         40.0004
 11 11 21 18 30 30.0000000  0  8G02G04G05G09G10G12G29G25
    412051.79348    393774.52046  20896193.6954   20896191.7274       5679.9154
        50.7504         40.5004
   1388359.44547   1153334.03144  23639296.2504   23639301.3364       3686.9824
        44.0004         26.0004
  -1428952.73448  -1002556.26246  22111280.2034   22111282.0744       9571.1334
        49.2504         37.0004
   1457359.01246   1265668.18043  24247689.3054   24247695.1054       3568.5134
        41.5004         22.0004
    179801.00047    213020.45745  22486115.1484   22486117.3634       6115.9134
        43.7504         31.7504
   -314641.62948   -152709.76247  20400590.4924   20400589.2344       7162.0524
        52.5004         44.0004
  -1265624.39847   -840967.20344  23490089.6094   23490092.5634       9303.7684
        44.5004         28.7504
  -1253668.22348   -860228.30146  21425605.6094   21425607.8554       9171.0204
        51.0004         40.5004
 11 11 21 18 31  0.0000000  0  8G02G04G05G09G10G12G29G25
    241984.91448    261254.80946  20863830.7894   20863828.9064       5668.8964
        51.2504         41.0004
   1277832.98847   1067209.34043  23618263.9924   23618269.1524       3684.2154
        43.2504         22.7504
  -1715707.13748  -1226001.14546  22056712.7424   22056714.2664       9558.4804
        49.7504         37.7504
   1350308.94146   1182252.31643  24227318.2894   24227324.7074       3568.3364
        40.5004         22.2504
     -3062.67647     70529.28545  22451317.0944   22451319.5124       6095.4564
        43.5004         31.2504
   -528969.66448   -319718.62547  20359805.2194   20359804.4414       7144.2684
        52.0004         43.5004
  -1544686.33247  -1058417.98444  23436985.5314   23436988.6524       9302.0644
        45.2504         28.5004
  -1528393.78948  -1074300.16846  21373326.7504   21373329.4104       9157.5194
        50.5004         40.0004
 11 11 21 18 31 30.0000000  0  8G02G04G05G09G10G12G29G25
     72250.66848    128994.30946  20831531.1644   20831529.7814       5657.8084
        50.2504         40.0004
   1167389.04347    981148.91444  23597247.4924   23597252.7854       3681.4654
        42.7504         24.5004
  -2002071.90248  -1449142.41446  22002218.8674   22002220.6764       9545.4924
        49.5004         37.7504
   1243262.73046   1098839.45343  24206948.8134   24206954.6054       3568.2074
        40.7504         22.5004
   -185309.15247    -71480.94545  22416636.6174   22416638.8524       6074.8834
        44.5004         31.7504
   -742758.15248   -486307.07047  20319122.5554   20319121.8054       7126.2834
        51.0004         44.7504
  -1823689.80947  -1275823.21144  23383892.9844   23383895.8094       9300.1164
        44.2504         28.2504
  -1802704.78948  -1288048.98846  21321127.3754   21321129.6024       9143.7004
        50.5004         40.5004
 11 11 21 18 32  0.0000000  0  8G02G04G05G09G10G12G29G25
    -97152.21548     -3008.00446  20799295.3134   20799293.4964       5646.7634
        50.5004         41.0004
   1057026.39847    895151.86344  23576246.6884   23576251.1994       3678.7554
        43.7504         24.5004
  -2288043.31648  -1671977.16846  21947800.5164   21947802.2424       9532.3804
        49.2504         37.5004
   1136218.05546   1015427.78944  24186579.0084   24186584.9414       3568.1564
        40.7504         24.0004
   -366938.37147   -213010.18745  22382073.6804   22382076.2384       6054.3074
        43.5004         30.2504
   -956005.19148   -652473.60247  20278543.0784   20278542.1094       7108.2354
        50.5004         44.5004
  -2102634.07047  -1493182.32444  23330811.8444   23330814.8834       9298.1424
        45.5004         28.7504
  -2076598.08648  -1501472.33246  21269006.9384   21269009.4454       9129.7774
        49.7504         40.5004
 11 11 21 18 32 30.0000000  0  8G02G04G05G09G10G12G29G25
   -266224.02048   -134752.33246  20767122.2734   20767119.8834       5635.7274
        50.5004         41.0004
    946744.18447    809217.44543  23555261.0084   23555265.4924       3676.0744
        43.0004         22.5004
  -2573617.25848  -1894502.19946  21893457.1024   21893458.9414       9519.1314
        48.5004         38.0004
   1029172.37946    932015.34843  24166208.8134   24166214.9964       3568.1894
        39.2504         22.5004
   -547950.32447   -354058.45745  22347627.8594   22347630.7234       6033.7324
        43.2504         31.2504
  -1168709.30548   -818217.07847  20238066.5164   20238065.7544       7090.1374
        49.7504         44.0004
  -2381518.05947  -1710494.46144  23277742.0634   23277744.6254       9296.1334
        46.5004         28.0004
  -2350070.27048  -1714567.53146  21216967.0704   21216969.4104       9115.7394
        51.0004         40.7504
 11 11 21 18 33  0.0000000  0  8G02G04G05G09G10G12G29G25
   -434967.40248   -266240.75446  20735010.9534   20735009.5164       5624.7794
        50.5004         40.5004
    836539.30947    723343.27043  23534289.4694   23534294.3134       3673.4964
        42.5004         22.7504
  -2858791.87148  -2116716.04746  21839190.2274   21839192.0354       9505.8204
        48.7504         38.0004
    922121.95746    848599.19943  24145837.9384   24145844.5204       3568.3474
        41.2504         22.7504
   -728346.53147   -494626.91845  22313300.2504   22313302.5234       6013.2074
        43.0004         30.7504
  -1380870.37948   -983537.40647  20197694.1414   20197692.9024       7072.0364
        50.7504         44.0004
  -2660342.48847  -1927760.21944  23224682.9454   23224686.0164       9294.1484
        45.0004         29.7504
  -2623119.78148  -1927333.37946  21165007.6804   21165009.7194       9101.6504
        49.5004         40.7504
 11 11 21 18 33 30.0000000  0  8G02G04G05G09G10G12G29G25
   -603382.41048   -397473.29346  20702963.1804   20702961.1954       5613.8344
        51.0004         41.0004
    726411.69947    637529.36744  23513332.9534   23513338.4614       3670.9204
        42.2504         24.2504
  -3143562.68748  -2338615.26246  21784999.9924   21785001.5704       9492.3614
        49.0004         37.5004
    815065.37546    765178.25443  24125466.6644   24125472.1724       3568.5534
        41.5004         22.5004
   -908126.05947   -634714.85945  22279089.0004   22279092.0664       5992.6514
        43.5004         31.5004
  -1592485.81648  -1148432.56647  20157424.9144   20157423.7464       7053.8484
        50.5004         44.5004
  -2939105.62147  -2144978.19144  23171636.6414   23171639.1374       9292.1044
        45.5004         29.5004
  -2895742.50448  -2139766.65246  21113128.9614   21113131.3984       9087.4244
        52.0004         40.5004
 11 11 21 18 34  0.0000000  0  8G02G04G05G09G10G12G29G25
    803955.55548    699153.62546  20970770.6804   20970768.5124       5602.7354
        51.0004         40.5004
   2191783.23046   1779377.05144  23792183.8364   23792189.1994       3668.2824
        41.5004         25.2504
  -1852496.87148  -1332589.81646  22030681.8914   22030683.0394       9478.4734
        49.2504         37.5004
   2283423.64546   1909353.31343  24404885.3134   24404891.3914       3568.7244
        41.5004         22.7504
    488136.71547    453282.09045  22544788.9534   22544791.6334       5971.9084
        43.2504         31.5004
   -228127.32848    -85296.09047  20417053.5634   20417052.5864       7035.3844
        49.5004         44.2504
  -1642377.28147  -1134540.47344  23418395.7664   23418397.9414       9289.7224
        45.0004         29.5004
  -1592506.62148  -1124258.16446  21361126.4454   21361129.0474       9072.8044
        51.2504         40.5004
 11 11 21 18 34 30.0000000  0  8G02G04G05G09G10G12G29G25
    636188.57048    568426.03146  20938845.5704   20938844.0474       5592.2334
        51.0004         41.0004
   2081800.28947   1693675.81644  23771255.8754   23771260.9614       3666.0984
        42.0004         24.5004
  -2136455.25448  -1553855.96146  21976646.1884   21976647.8244       9465.2794
        49.2504         37.2504
   2176342.28147   1825913.01643  24384509.2034   24384515.2194       3569.3794
        42.5004         22.2504
    309584.25047    314150.28145  22510812.2274   22510814.3874       5951.7494
        43.5004         31.0004
   -438652.78548   -249341.91847  20376991.9144   20376991.3794       7017.5154
        51.7504         44.0004
  -1921021.00847  -1351665.38345  23365371.9224   23365374.1564       9288.1244
        45.2504         30.5004
  -1864272.40648  -1336023.68446  21309410.9534   21309413.4494       9058.8604
        51.5004         41.0004
 11 11 21 18 35  0.0000000  0  8G02G04G05G09G10G12G29G25
    468741.58248    437947.78946  20906981.7504   20906980.0004       5581.5664
        50.7504         40.0004
   1971885.51646   1608027.68043  23750339.8444   23750344.8554       3663.8264
        40.0004         23.7504
  -2420004.05548  -1774802.94946  21922688.4384   21922690.1604       9451.6274
        49.0004         37.2504
   2069242.80547   1742458.66843  24364129.1484   24364135.0124       3569.9834
        42.0004         22.0004
    131642.44947    175494.29345  22476950.7734   22476953.0124       5931.3934
        43.7504         31.0004
   -648633.42648   -412963.21547  20337033.9844   20337033.2154       6999.3554
        49.2504         44.5004
  -2199605.97347  -1568744.52044  23312358.0944   23312361.5274       9286.1654
        44.7504         29.7504
  -2135607.31648  -1547453.46946  21257778.1094   21257780.5944       9044.4974
        50.0004         40.5004
 11 11 21 18 35 30.0000000  0  8G02G04G05G09G10G12G29G25
    301616.78948    307720.59846  20875179.0234   20875176.9144       5570.8264
        51.0004         40.7504
   1862040.59046   1522433.97743  23729437.1804   23729442.0554       3661.4984
        41.7504         22.5004
  -2703137.37548  -1995426.19546  21868809.7664   21868811.4774       9437.7774
        49.2504         37.5004
   1962125.47347   1658990.37143  24343744.6024   24343751.4064       3570.5784
        42.5004         22.7504
    -45685.71147     37316.46145  22443205.3284   22443208.8524       5910.9394
        44.5004         31.2504
   -858064.43748   -576156.22347  20297180.5554   20297179.5314       6981.0344
        51.7504         44.5004
  -2478128.94547  -1785775.33645  23259357.6334   23259359.9774       9284.0994
        45.0004         30.5004
  -2406505.44148  -1758542.89146  21206227.5704   21206229.9884       9029.9384
        51.0004         41.5004
 11 11 21 18 36  0.0000000  0  8G02G04G05G09G10G12G29G25
    134820.21548    177749.18046  20843438.9384   20843436.9534       5559.8864
        51.2504         40.5004
   1752271.32446   1436899.23444  23708548.6024   23708554.0824       3658.9764
        41.2504         24.7504
  -2985844.35548  -2215717.23446  21815012.0474   21815014.0314       9423.5664
        50.0004         37.0004
   1854994.89147   1575511.74643  24323359.5234   24323365.3404       3571.0194
        42.0004         22.7504
   -222393.39147   -100377.88745  22409579.7424   22409582.4064       5890.2564
        44.2504         30.2504
  -1066937.64148   -738914.57447  20257433.0784   20257431.8834       6962.4404
        51.2504         44.2504
  -2756581.47747  -2002751.27345  23206368.9924   23206372.4024       9281.7514
        44.5004         31.2504
  -2676956.64848  -1969284.07846  21154762.3524   21154764.9024       9015.0404
        50.0004         41.0004
 11 11 21 18 36 30.0000000  0  8G02G04G05G09G10G12G29G25
    -31653.47748     48029.34446  20811759.8674   20811758.1804       5549.1234
        51.2504         41.0004
   1642572.36347   1351419.25443  23687674.3754   23687679.3164       3656.6324
        43.0004         22.7504
  -3268125.67648  -2435676.60246  21761295.7114   21761297.5904       9409.3774
        49.7504         36.7504
   1747844.77047   1492017.91443  24302968.6644   24302975.9734       3571.6714
        42.0004         22.0004
   -398485.02047   -237592.21945  22376070.6564   22376073.4414       5869.7214
        44.5004         30.7504
  -1275255.84048   -901240.45747  20217791.8914   20217790.8674       6943.9404
        51.5004         44.5004
  -3034967.36347  -2219675.26645  23153394.0004   23153396.7234       9279.5304
        45.2504         30.2504
  -2946962.04748  -2179677.87546  21103382.1884   21103384.4454       9000.1804
        51.7504         41.0004
 11 11 21 18 37  0.0000000  0  8G02G04G05G09G10G12G29G25
   -197804.82848    -81439.30946  20780142.3134   20780140.6484       5538.3784
        52.0004         40.5004
   1532942.77747   1265993.34843  23666811.7274   23666817.4384       3654.3204
        42.2504         22.7504
  -3549977.71948  -2655301.47346  21707661.6094   21707662.7734       9395.0684
        48.2504         37.2504
   1640672.88346   1408507.08643  24282575.8594   24282581.9534       3572.3964
        41.5004         22.2504
   -573960.85247   -374326.70345  22342678.6024   22342681.6254       5849.1944
        44.5004         31.2504
  -1483017.52348  -1063132.69947  20178256.0234   20178255.0004       6925.3894
        50.0004         44.2504
  -3313285.36347  -2436546.35945  23100431.9844   23100434.5274       9277.2674
        43.7504         31.7504
  -3216518.48448  -2389721.83646  21052087.1724   21052089.6214       8985.2154
        50.5004         40.7504
 11 11 21 18 37 30.0000000  0  8G02G04G05G09G10G12G29G25
   -363635.84048   -210658.33646  20748585.7734   20748583.9534       5527.7004
        51.0004         40.2504
   1423380.34846   1180619.77343  23645963.0004   23645968.9104       3652.0814
        41.5004         22.7504
  -3831397.98048  -2874589.90246  21654108.8054   21654110.2664       9380.6754
        49.7504         37.2504
   1533476.22346   1324976.95343  24262176.0234   24262183.3674       3573.2224
        40.7504         22.5004
   -748821.99647   -510582.23845  22309403.8364   22309406.6334       5828.7054
        45.5004         30.5004
  -1690221.94548  -1224590.70347  20138826.1804   20138825.3754       6906.8144
        50.7504         44.2504
  -3591535.68747  -2653364.72745  23047482.1094   23047485.6254       9275.0114
        44.5004         30.0004
  -3485623.71548  -2599414.19946  21000878.1334   21000880.5164       8970.1744
        50.2504         41.0004
 11 11 21 18 38  0.0000000  0  8G02G04G05G09G10G12G29G25
   1046274.06348    887972.69546  21016882.6414   21016881.0274       5517.0034
        51.5004         40.0004
   2889303.65247   2322897.41843  23924919.2194   23924925.5394       3649.8904
        42.0004         22.7504
  -2536957.65248  -1865935.02746  21900432.3984   21900434.2194       9365.9894
        49.7504         37.2504
   3001672.12546   2469025.46143  24541564.8674   24541572.0084       3574.1374
        39.0004         21.2504
    652352.99647    581242.33245  22576038.4844   22576041.5084       5808.1674
        44.7504         30.0004
   -321445.02348   -158011.29747  20399295.5394   20399294.9534       6888.1034
        51.0004         44.2504
  -2294292.05147  -1642525.44945  23294339.7424   23294342.1954       9272.5454
        44.5004         30.7504
  -2178849.71948  -1581148.72346  21249549.0084   21249551.2894       8954.8674
        50.5004         41.2504
 11 11 21 18 38 30.0000000  0  8G02G04G05G09G10G12G29G25
    881067.81648    759240.51246  20985445.0394   20985443.2464       5506.8754
        51.5004         40.0004
   2779859.14847   2237615.76243  23904092.1024   23904099.2304       3648.1504
        42.0004         22.0004
  -2817516.90648  -2084552.55546  21847043.7274   21847045.1254       9351.9754
        50.2504         37.5004
   2894405.94946   2385441.14143  24521153.5004   24521159.7734       3575.5394
        40.0004         22.0004
    478706.76247    445933.45345  22542994.7814   22542997.8204       5788.2084
        45.0004         30.2504
   -527544.00848   -318607.92647  20360076.4614   20360075.4734       6869.9664
        49.5004         44.2504
  -2572416.94947  -1859246.06645  23241413.8204   23241417.5704       9270.8304
        45.5004         30.5004
  -2447056.43448  -1790140.94146  21198510.9454   21198513.4304       8940.2244
        49.7504         41.5004
 11 11 21 18 39  0.0000000  0  8G02G04G05G09G10G12G29G25
    716168.77748    630747.70346  20954065.8674   20954064.0744       5496.6354
        51.7504         40.5004
   2670468.30547   2152375.88743  23883276.8834   23883282.6604       3646.3614
        43.0004         22.5004
  -3097643.94548  -2302833.30146  21793736.9384   21793738.7774       9337.5684
        48.2504         37.5004
   2787098.00446   2301824.29343  24500734.5164   24500739.6804       3576.9324
        40.5004         21.5004
    305663.84847    311094.69545  22510066.2034   22510068.7034       5768.0974
        43.0004         30.7504
   -733092.05148   -478775.25447  20320962.0314   20320961.1994       6851.6014
        49.2504         44.0004
  -2850482.08247  -2075920.13745  23188500.3134   23188502.7974       9268.8384
        43.7504         31.5004
  -2714812.98848  -1998782.39146  21147558.7114   21147560.9384       8925.2184
        50.5004         41.5004
 11 11 21 18 39 30.0000000  0  8G02G04G05G09G10G12G29G25
    551575.42248    502493.10546  20922744.9844   20922743.1644       5486.4454
        52.0004         40.5004
   2561129.27047   2067176.39544  23862469.9144   23862476.2774       3644.6354
        42.5004         24.7504
  -3377335.93448  -2520775.04346  21740513.3754   21740514.8054       9323.0664
        50.0004         37.2504
   2679745.48046   2218172.69143  24480305.2274   24480312.3524       3578.4174
        40.5004         22.2504
    133223.61347    176725.55945  22477252.1334   22477254.7234       5748.0084
        43.5004         31.2504
   -938088.28948   -638512.60547  20281952.5394   20281951.8244       6833.2084
        51.0004         44.7504
  -3128486.50847  -2292546.89145  23135597.5944   23135600.4804       9266.8144
        46.2504         30.2504
  -2982116.91848  -2207071.15246  21096692.3914   21096694.7544       8910.1314
        52.0004         41.7504
 11 11 21 18 40  0.0000000  0  8G02G04G05G09G10G12G29G25
    387280.99248    374471.44146  20891480.8594   20891479.0124       5476.4814
        52.2504         39.2504
   2451835.03947   1982011.81343  23841672.0164   23841678.7974       3643.1414
        42.2504         22.7504
  -3656595.34048  -2738379.71146  21687372.3984   21687373.4654       9308.6474
        49.7504         37.2504
   2572340.48046   2134480.19943  24459866.4304   24459874.2464       3580.1674
        41.0004         22.0004
    -38620.15247     42821.20745  22444551.0314   22444553.7584       5728.1264
        43.2504         30.5004
  -1142537.23848   -797823.50047  20243047.5234   20243046.2504       6814.9654
        50.2504         44.5004
  -3406435.33647  -2509130.32845  23082706.1024   23082708.3954       9264.9614
        46.7504         31.5004
  -3248971.06648  -2415009.43046  21045911.6564   21045914.2774       8895.1384
        51.5004         41.5004
 11 11 21 18 40 30.0000000  0  8G02G04G05G09G10G12G29G25
    223283.99648    246681.54346  20860273.1094   20860271.4844       5466.5674
        51.5004         39.2504
   2342584.25846   1896881.09843  23820883.3754   23820888.8404       3641.6934
        41.2504         22.5004
  -3935419.39148  -2955645.14546  21634313.7114   21634314.9694       9294.1354
        50.2504         37.5004
   2464880.21546   2050744.64143  24439417.2814   24439425.0634       3582.0094
        39.5004         22.2504
   -209868.60947    -90619.28944  22411963.4534   22411966.5704       5708.2824
        44.2504         29.7504
  -1346437.75048   -956707.05147  20204246.4774   20204245.3674       6796.6844
        51.0004         44.2504
  -3684328.10947  -2725670.09045  23029824.4924   23029827.2504       9263.0924
        47.0004         31.0004
  -3515372.75048  -2622595.14846  20995217.4064   20995219.5984       8880.0564
        52.5004         41.7504
 11 11 21 18 41  0.0000000  0  8G02G04G05G09G10G12G29G25
     59584.52748    119123.48846  20829122.5004   20829120.4304       5456.6494
        52.2504         40.2504
   2233376.86746   1811784.18443  23800101.7424   23800107.9104       3640.2464
        41.0004         22.5004
  -4213802.91448  -3172567.31646  21581339.2034   21581340.3244       9279.4514
        50.0004         37.7504
   2357363.65646   1966965.18043  24418958.8674   24418965.9964       3583.8854
        40.2504         22.0004
   -380521.34047   -223595.56645  22379490.0234   22379492.6764       5688.4244
        44.0004         30.5004
  -1549787.80548  -1115161.66847  20165550.1644   20165549.1844       6778.3354
        50.0004         44.2504
  -3962162.66447  -2942164.49645  22976954.2424   22976957.0944       9261.1524
        46.5004         31.0004
  -3781317.93748  -2829825.15646  20944609.6024   20944611.8874       8864.8404
        51.5004         41.7504
 11 11 21 18 41 30.0000000  0  8G02G04G05G09G10G12G29G25
   1471604.21548   1219398.53946  21097820.4224   21097818.5594       5446.6774
        51.7504         39.0004
   3699632.28946   2954320.64843  24079120.5864   24079127.4614       3638.8194
        40.5004         22.7504
  -2916316.76248  -2161539.07846  21828242.5784   21828243.4614       9264.4624
        50.7504         37.7504
   3825208.94946   3110740.44543  24698280.1804   24698287.9964       3585.8244
        40.0004         22.0004
   1024843.89847    871494.10544  22646922.2194   22646925.1054       5668.4924
        43.0004         29.7504
   -177162.49648    -45583.53947  20426752.1334   20426751.4454       6759.8234
        50.5004         45.2504
  -2664511.97747  -1931008.05545  23223889.1724   23223892.0634       9258.9774
        45.7504         31.7504
  -2471377.93748  -1809092.68446  21193882.6954   21193885.4694       8849.3334
        52.5004         41.2504
 11 11 21 18 42  0.0000000  0  8G02G04G05G09G10G12G29G25
   1308490.93048   1092297.25846  21066781.2814   21066779.3794       5437.1104
        52.0004         39.7504
   3590502.19946   2869283.95743  24058354.9064   24058360.7774       3637.6704
        40.5004         22.2504
  -3193816.13748  -2377772.30146  21775435.6414   21775437.3204       9249.9794
        50.7504         38.2504
   3717566.75846   3026863.11343  24677795.9304   24677804.2344       3588.0734
        39.5004         22.0004
    855375.05947    739440.35945  22614673.3594   22614676.0784       5648.9614
        44.5004         30.0004
   -379414.25048   -203182.35247  20388265.0004   20388263.9064       6741.7254
        50.2504         44.7504
  -2942233.87547  -2147414.67245  23171040.2274   23171042.5434       9257.3974
        46.2504         31.5004
  -2736407.49648  -2015609.21546  21143449.2734   21143451.8954       8834.3194
        52.2504         41.7504
 11 11 21 18 42 30.0000000  0  8G02G04G05G09G10G12G29G25
   1145666.85948    965421.33246  21035796.8284   21035794.8554       5427.4694
        52.5004         40.2504
   3481406.87946   2784274.37943  24037594.4064   24037601.1134       3636.5114
        40.5004         22.5004
  -3470870.79748  -2593658.99646  21722714.4064   21722715.7894       9235.1554
        51.0004         38.5004
   3609856.14546   2942932.44143  24657300.3284   24657307.7704       3590.3544
        40.0004         21.0004
    686495.17647    607845.54345  22582536.6884   22582539.2034       5629.3294
        43.5004         30.0004
   -581117.17648   -360353.50447  20349881.9144   20349880.8014       6723.4314
        50.0004         44.5004
  -3219900.39847  -2363778.14845  23118201.8444   23118204.4614       9255.5514
        46.5004         31.2504
  -3000976.93048  -2221767.20346  21093103.2894   21093105.7854       8818.9814
        52.0004         41.5004
 11 11 21 18 43  0.0000000  0  8G02G04G05G09G10G12G29G25
    983125.80148    838765.93446  21004866.0944   21004864.5274       5418.0354
        51.5004         39.7504
   3372339.98446   2699286.92243  24016840.2344   24016846.2544       3635.5634
        39.7504         22.5004
  -3747482.47748  -2809200.50446  21670077.0234   21670077.8094       9220.3894
        50.5004         38.0004
   3502069.57846   2858942.53943  24636790.4924   24636797.2034       3592.8864
        39.7504         21.5004
    518198.27047    476705.01645  22550510.2344   22550513.8444       5609.8974
        45.2504         30.0004
   -782275.27748   -517100.11347  20311603.0234   20311602.0944       6705.2704
        50.0004         44.2504
  -3497515.96147  -2580101.90645  23065373.8134   23065375.8134       9253.8524
        46.7504         30.2504
  -3265088.67248  -2427568.55946  21042844.7974   21042846.8484       8803.7254
        50.5004         41.7504
 11 11 21 18 43 30.0000000  0  8G02G04G05G09G10G12G29G25
    820873.02048    712335.16846  20973990.8754   20973989.0234       5408.4264
        52.0004         39.2504
   3263306.61346   2614325.63343  23996091.8984   23996098.5084       3634.4464
        40.2504         21.5004
  -4023641.65648  -3024389.40646  21617525.6724   21617526.3984       9205.3064
        50.7504         38.5004
   3394211.12546   2774896.69943  24616265.4454   24616272.1294       3595.2824
        40.0004         20.7504
    350490.29747    346023.40645  22518597.4064   22518599.9614       5590.2664
        44.5004         30.0004
   -982881.19148   -673416.45347  20273429.2664   20273428.3984       6686.8644
        51.5004         44.0004
  -3775073.21547  -2796380.23445  23012555.9924   23012558.5594       9251.9084
        46.0004         31.2504
  -3528733.47348  -2633006.06246  20992674.8054   20992676.9734       8788.1604
        53.0004         41.5004
 11 11 21 18 44  0.0000000  0  8G02G04G05G09G10G12G29G25
    658901.30548    586123.40646  20943168.3914   20943166.6764       5399.0574
        51.2504         39.5004
   3154299.62946   2529384.87143  23975348.5084   23975355.6134       3633.5664
        40.5004         23.0004
  -4299350.93748  -3239227.75446  21565059.7194   21565060.5164       9190.3094
        49.0004         38.7504
   3286272.59846   2690788.41043  24595726.2274   24595732.8094       3597.9514
        39.0004         20.0004
    183364.42247    215795.38345  22486793.8914   22486797.2814       5570.8634
        45.5004         30.0004
  -1182940.32048   -829306.72347  20235358.9614   20235358.3364       6668.6384
        50.7504         43.7504
  -4052577.50447  -3012617.29345  22959748.5474   22959751.2304       9250.1434
        42.7504         31.2504
  -3791914.56648  -2838082.23846  20942592.8524   20942595.0514       8772.7034
        52.7504         41.2504
 11 11 21 18 44 30.0000000  0  8G02G04G05G09G10G12G29G25
    497210.81648    460130.77346  20912400.2504   20912398.3914       5389.6834
        51.5004         39.7504
   3045319.12946   2444464.73443  23954609.9304   23954616.9534       3632.6834
        40.5004         21.7504
  -4574606.23048  -3453712.34046  21512680.4844   21512681.3014       9175.1764
        50.2504         38.7504
   3178252.91046   2606616.90243  24575170.3134   24575178.0004       3600.6564
        37.7504         20.7504
     16821.02347     86021.24645  22455101.9224   22455105.1454       5551.4474
        44.2504         30.0004
  -1382449.99648   -984768.85247  20197393.5634   20197392.7384       6650.3234
        50.7504         44.0004
  -4330026.71947  -3228811.44145  22906951.8984   22906954.2584       9248.3074
        45.5004         31.0004
  -4054627.94548  -3042793.96146  20892600.1804   20892602.7734       8757.1134
        51.2504         41.0004
 11 11 21 18 45  0.0000000  0  8G02G04G05G09G10G12G29G25
    335801.84848    334357.50446  20881684.6334   20881683.4064       5380.2994
        51.7504         39.7504
   2936365.39846   2359565.47343  23933877.2344   23933884.3484       3631.7914
        39.5004         22.2504
  -4849402.72748  -3667839.42646  21460388.1254   21460389.2854       9159.8834
        49.2504         39.0004
   3070151.28146   2522381.50043  24554599.5944   24554606.8714       3603.3884
        38.0004         21.5004
   -149139.17647    -43298.44145  22423521.3524   22423524.2934       5532.0074
        45.0004         30.2504
  -1581407.79748  -1139800.94947  20159533.4844   20159532.5514       6631.9274
        51.2504         44.0004
  -4607418.45747  -3444960.79745  22854165.7504   22854168.2734       9246.3914
        45.5004         31.0004
  -4316869.34848  -3247137.91446  20842697.3524   20842699.9144       8741.3804
        53.0004         41.5004
 11 11 21 18 45 30.0000000  0  8G02G04G05G09G10G12G29G25
   1750096.37548   1436405.13746  21150815.9844   21150814.6414       5370.8494
        51.5004         40.0004
   4402858.32046   3502286.98043  24212941.9064   24212948.6484       3630.9034
        39.0004         21.0004
  -3548310.93048  -2654001.60246  21707977.4694   21707979.0904       9144.2734
        49.7504         39.0004
   4537386.51246   3665681.32043  24833805.3674   24833813.1374       3606.1594
        38.7504         20.0004
   1260905.69947   1055437.77745  22691843.7504   22691846.5164       5512.5044
        43.2504         30.2504
   -204388.92248    -66799.27347  20421571.2814   20421570.1724       6613.3714
        51.5004         44.0004
  -3309325.72347  -2433459.90645  23101184.7194   23101187.5314       9244.2424
        44.5004         30.7504
  -3003209.88348  -2223507.15246  21092678.3594   21092680.5904       8725.3514
        52.2504         41.7504
 11 11 21 18 46  0.0000000  0  8G02G04G05G09G10G12G29G25
   1589240.18048   1311062.58646  21120206.2584   21120204.3594       5361.8734
        51.0004         39.7504
   4293947.35246   3417421.03943  24192216.6334   24192223.9884       3630.3664
        37.7504         22.0004
  -3822187.82048  -2867412.12146  21655860.2734   21655861.5474       9129.2304
        48.0004         39.0004
   4429107.09846   3581307.39543  24813200.6414   24813208.8634       3609.3144
        37.2504         20.2504
   1096101.72347    927019.05544  22660482.6414   22660485.5554       5493.4664
        43.5004         29.5004
   -402247.93448   -220975.16447  20383919.7424   20383918.9264       6595.3004
        50.5004         43.7504
  -3586607.82047  -2649523.83645  23048419.5784   23048421.9804       9242.7374
        43.5004         31.5004
  -3264506.30948  -2427114.76646  21042955.1884   21042957.9694       8709.8814
        51.5004         41.5004
 11 11 21 18 46 30.0000000  0  8G02G04G05G09G10G12G29G25
   1428654.44948   1185930.78146  21089647.7974   21089645.8674       5352.8584
        51.2504         40.2504
   4185052.02746   3332567.29343  24171494.8674   24171502.2344       3629.8444
        37.5004         21.7504
  -4095604.32448  -3080463.87946  21603830.8594   21603832.6844       9113.8834
        49.0004         39.0004
   4320731.18046   3496858.22743  24792577.9224   24792585.8284       3612.5314
        37.0004         20.5004
    931870.25847    799046.44545  22629229.9694   22629233.3164       5474.3824
        43.5004         30.0004
   -599560.42648   -374725.20347  20346372.5704   20346371.7664       6577.0834
        51.7504         44.5004
  -3863837.71547  -2865547.07445  22995665.1024   22995666.7584       9240.9964
        44.7504         31.5004
  -3525330.27348  -2630354.21146  20993322.0864   20993324.3834       8694.1324
        52.2504         41.5004
 11 11 21 18 47  0.0000000  0  8G02G04G05G09G10G12G29G25
   1268342.83648   1061012.57446  21059141.6884   21059139.9184       5343.7204
        51.5004         39.7504
   4076175.87546   3247728.49643  24150777.1884   24150783.6564       3629.2054
        39.0004         21.0004
  -4368552.54748  -3293150.75446  21551890.4614   21551892.1454       9098.2744
        49.2504         39.0004
   4212261.34446   3412335.87543  24771937.8914   24771945.0274       3615.6614
        38.2504         20.5004
    768215.60247    671523.27744  22598088.1954   22598090.9454       5455.1554
        44.7504         29.5004
   -796320.57448   -528044.84447  20308930.6174   20308929.6174       6558.6724
        49.5004         43.7504
  -4141010.24647  -3081525.62945  22942920.3674   22942922.6454       9239.0844
        45.0004         31.0004
  -3785674.33248  -2833219.71147  20943780.4144   20943782.8284       8678.1354
        52.0004         42.0004
 11 11 21 18 47 30.0000000  0  8G02G04G05G09G10G12G29G25
   1108301.41048    936304.90246  21028686.5944   21028685.0474       5334.7144
        51.0004         39.5004
   3967315.08246   3162901.64143  24130060.6254   24130068.5204       3628.6934
        38.7504         21.5004
  -4641032.28148  -3505472.57046  21500039.6884   21500040.9144       9082.6584
        50.0004         39.5004
   4103692.73046   3327736.63743  24751276.6414   24751285.2034       3618.9544
        37.5004         20.5004
    605133.88747    544446.57444  22567054.1884   22567057.4384       5436.0574
        43.5004         29.7504
   -992530.18448   -680935.48447  20271593.1414   20271592.3094       6540.3204
        51.0004         44.0004
  -4418127.01647  -3297460.73445  22890186.6484   22890188.6604       9237.2264
        45.0004         31.0004
  -4045538.39548  -3035711.18446  20894329.8754   20894332.4614       8662.1354
        52.2504         41.2504
 11 11 21 18 48  0.0000000  0  8G02G04G05G09G10G12G29G25
    948526.51248    811804.90646  20998282.7734   20998281.2384       5325.8304
        50.7504         39.2504
   3858465.82446   3078083.79343  24109348.1024   24109355.7704       3628.3094
        40.0004         21.2504
  -4913042.99248  -3717428.91446  21448277.0234   21448278.5664       9067.0244
        50.0004         39.2504
   3995020.34846   3243056.44943  24730598.6174   24730606.4804       3622.4134
        40.2504         20.2504
    442621.41447    417813.42644  22536129.3284   22536132.2304       5417.0824
        45.0004         29.5004
  -1188191.28548   -833398.72347  20234360.0314   20234359.2234       6522.0374
        51.5004         44.0004
  -4695190.11347  -3513354.02745  22837463.4694   22837465.4304       9235.4374
        45.0004         31.5004
  -4304922.45748  -3237828.63346  20844970.7974   20844973.2734       8646.1354
        53.0004         41.5004
 11 11 21 18 48 30.0000000  0  8G02G04G05G09G10G12G29G25
    789016.58248    687511.37546  20967929.0704   20967927.2424       5316.9984
        50.5004         39.2504
   3749626.82446   2993273.92643  24088637.1884   24088644.2424       3627.9674
        41.2504         20.0004
  -5184581.94948  -3929017.65646  21396605.5554   21396606.5394       9051.2994
        50.5004         39.0004
   3886241.77346   3158293.55543  24709898.0084   24709906.9184       3625.9524
        41.0004         21.0004
    280676.84047    291622.78944  22505312.3204   22505315.6054       5398.1524
        44.2504         29.7504
  -1383303.31648   -985434.10947  20197231.5864   20197230.7504       6503.7344
        51.7504         44.5004
  -4972198.74247  -3729204.87945  22784749.7664   22784752.4064       9233.6214
        44.5004         31.5004
  -4563824.19548  -3439570.23847  20795703.4384   20795706.0084       8630.0584
        52.2504         42.2504
 11 11 21 18 49  0.0000000  0  8G02G04G05G09G10G12G29G25
   2205195.76248   1791027.54346  21237418.9614   21237417.4694       5308.0274
        49.5004         39.5004
   5216220.54746   4136073.98843  24367721.2974   24367727.7854       3627.5434
        40.7504         21.5004
  -3880217.16448  -2912629.46146  21644817.7814   21644818.9844       9035.1744
        49.5004         39.2504
   5352778.11846   4301048.75243  24988971.5004   24988979.8094       3629.4554
        38.7504         21.2504
   1694724.55547   1393478.07845  22774396.8284   22774399.7854       5379.0764
        42.2504         30.5004
     -2438.85948     90564.13347  20460001.5234   20460000.7194       6485.1854
        52.2504         44.2504
  -3673722.84447  -2717405.44945  23031842.4774   23031844.4064       9231.4704
        45.0004         30.7504
  -3246812.36748  -2413327.25047  21046322.1414   21046325.0004       8613.6064
        53.0004         42.0004
 11 11 21 18 49 30.0000000  0  8G02G04G05G09G10G12G29G25
   2046210.66448   1667142.97346  21207165.3204   21207163.4694       5299.5034
        50.0004         39.5004
   5107396.96546   4051276.14543  24347012.8834   24347019.9454       3627.4534
        39.2504         21.5004
  -4150805.37548  -3123477.37946  21593326.3444   21593327.6604       9019.6074
        49.7504         39.0004
   5243778.34046   4216113.48843  24968228.9144   24968238.4104       3633.3264
        39.0004         19.7504
   1533911.28547   1268168.97744  22743794.9774   22743799.0904       5360.4424
        44.2504         29.0004
   -196452.33648    -60615.23447  20423081.8834   20423080.9844       6467.1164
        51.7504         44.5004
  -3950621.84847  -2933170.88345  22979149.5784   22979152.1174       9229.9674
        44.5004         31.5004
  -3504743.27048  -2614312.35947  20997239.5004   20997242.1294       8597.6974
        52.5004         42.2504
 11 11 21 18 50  0.0000000  0  8G02G04G05G09G10G12G29G25
   1887484.53148   1543460.19546  21176960.8754   21176958.9924       5290.8714
        49.5004         39.5004
   4998577.39846   3966481.43443  24326305.5944   24326312.1024       3627.3194
        40.7504         21.5004
  -4420916.09848  -3333953.22346  21541925.9304   21541927.1764       9003.6914
        49.0004         38.5004
   5134662.51646   4131087.72743  24947466.3284   24947474.5784       3637.1944
        39.2504         20.0004
   1373660.08647   1143297.83244  22713300.1564   22713303.6214       5341.7074
        42.2504         28.5004
   -389917.45748   -211367.31247  20386266.4774   20386266.0204       6448.8374
        52.5004         44.7504
  -4227466.93447  -3148894.30545  22926468.1254   22926470.2544       9228.1704
        44.7504         32.0004
  -3762186.69948  -2814917.62947  20948249.6024   20948252.0354       8581.4484
        52.7504         42.2504
 11 11 21 18 50 30.0000000  0  8G02G04G05G09G10G12G29G25
   1729015.93448   1419978.09046  21146805.3134   21146803.3914       5282.2874
        50.2504         39.0004
   4889760.61346   3881688.88743  24305598.1254   24305605.1804       3627.2264
        39.2504         21.5004
  -4690546.07848  -3544054.45346  21490617.0704   21490618.2464       8987.6664
        48.2504         38.5004
   5025428.35546   4045969.79343  24926679.6094   24926688.1884       3641.1394
        38.7504         19.7504
   1213969.53547   1018863.56344  22682912.2194   22682915.6374       5323.0184
        43.7504         29.7504
   -582833.69148   -361691.68047  20349555.7274   20349555.1954       6430.5414
        51.5004         44.2504
  -4504257.24247  -3364575.04745  22873796.7274   22873798.5744       9226.3444
        45.0004         31.5004
  -4019140.28948  -3015141.20747  20899353.1024   20899355.7114       8565.1204
        53.0004         42.0004
 11 11 21 18 51  0.0000000  0  8G02G04G05G09G10G12G29G25
   1570801.82048   1296694.28546  21116698.0634   21116696.4384       5273.8044
        50.0004         39.0004
   4780943.72746   3796896.25443  24284891.0004   24284898.6294       3627.2304
        38.2504         21.2504
  -4959694.15248  -3753780.18046  21439399.8284   21439400.9964       8971.6024
        48.7504         39.2504
   4916072.24246   3960756.80543  24905870.3524   24905878.8054       3645.2044
        39.7504         19.7504
   1054836.78547    894863.92644  22652630.8134   22652634.0554       5304.4254
        42.0004         28.7504
   -775202.25448   -511589.28947  20312949.4064   20312948.7074       6412.2854
        51.2504         43.5004
  -4780993.70347  -3580213.82445  22821135.5554   22821137.6454       9224.5494
        45.7504         32.2504
  -4275603.15648  -3214982.40646  20850549.7894   20850552.6054       8548.7624
        52.2504         41.7504
 11 11 21 18 51 30.0000000  0  8G02G04G05G09G10G12G29G25
   1412841.75848   1173608.44146  21086639.2814   21086638.0164       5265.3354
        49.5004         39.0004
   4672126.23046   3712103.14143  24264183.5704   24264191.4614       3627.2504
        39.7504         21.5004
  -5228357.07048  -3963127.85946  21388274.8914   21388276.2814       8955.4314
        48.7504         38.7504
   4806592.38746   3875447.43843  24885037.2194   24885045.9844       3649.3294
        39.0004         19.7504
    896261.16047    771298.42245  22622454.4384   22622457.8674       5285.8544
        42.2504         30.2504
   -967021.76648   -661059.06247  20276447.3834   20276446.8444       6393.9844
        51.5004         44.0004
  -5057675.05947  -3795809.66045  22768484.8834   22768486.6684       9222.7124
        45.0004         32.7504
  -4531572.19148  -3414438.80146  20801840.6094   20801843.5474       8532.3014
        53.2504         41.7504
 11 11 21 18 52  0.0000000  0  8G02G04G05G09G10G12G29G25
   1255134.54748   1050719.62946  21056628.8524   21056627.3244       5256.9074
        49.2504         38.5004
   4563307.43446   3627309.01243  24243477.2034   24243484.7154       3627.2934
        39.2504         20.7504
  -5496531.82048  -4172095.16446  21337243.2504   21337244.0634       8939.1584
        48.5004         38.5004
   4696986.50046   3790039.82443  24864180.4144   24864188.6884       3653.5304
        40.0004         18.5004
    738241.75047    648166.33244  22592384.2344   22592388.2544       5267.3144
        43.0004         29.5004
  -1158291.58648   -810100.50847  20240049.6884   20240049.4454       6375.6614
        51.5004         44.2504
  -5334300.34447  -4011361.80545  22715844.0554   22715846.7194       9220.8434
        45.5004         32.2504
  -4787044.78948  -3613508.35547  20753226.0084   20753228.2464       8515.7534
        53.2504         42.2504
 11 11 21 18 52 30.0000000  0  8G02G04G05G09G10G12G29G25
   1097678.08248    928026.21146  21026665.8284   21026664.7504       5248.5494
        49.2504         39.5004
   4454484.97746   3542512.06343  24222768.5084   24222776.3404       3627.4154
        40.2504         20.7504
  -5764216.39848  -4380680.51646  21286304.4924   21286305.4574       8922.8194
        50.2504         38.5004
   4587251.44946   3704531.60243  24843297.5234   24843307.2544       3657.8354
        39.5004         19.0004
    580776.24247    525465.84844  22562419.5554   22562423.3524       5248.8504
        43.5004         29.0004
  -1349012.44148   -958714.18447  20203757.0634   20203756.1884       6357.3624
        50.7504         44.0004
  -5610869.74647  -4226870.39845  22663214.8204   22663217.4534       9218.9804
        45.0004         31.7504
  -5042019.41448  -3812189.88347  20704705.7344   20704708.5044       8499.1544
        53.5004         42.7504
 11 11 21 18 53  0.0000000  0  8G02G04G05G09G10G12G29G25
   2515896.58648   2033131.47346  21296543.6884   21296542.4454       5240.0504
        49.0004         38.5004
   5921081.44946   4685314.24643  24501853.9454   24501860.7424       3627.4514
        40.5004         20.7504
  -4455979.16048  -3361274.84846  21535253.4384   21535254.6564       8906.0924
        49.2504         39.0004
   6052808.79746   4846523.87143  25122185.4534   25122194.3324       3662.0884
        40.2504         20.2504
   1999288.64547   1630800.09045  22832353.4774   22832356.9694       5230.2534
        42.0004         30.0004
     36242.71948    120705.40647  20467362.5784   20467361.8914       6338.8284
        50.7504         43.7504
  -4311953.11747  -3214727.52745  22910391.2344   22910393.1334       9216.7794
        45.5004         32.5004
  -3721065.10949  -2782874.84447  20956075.1024   20956077.7774       8482.1904
        54.5004         42.7504
 11 11 21 18 53 30.0000000  0  8G02G04G05G09G10G12G29G25
   2358940.23448   1910827.75046  21266676.3524   21266674.8594       5231.8784
        48.7504         38.7504
   5812250.73446   4600510.84043  24481143.7424   24481150.8244       3627.6904
        41.2504         20.0004
  -4722673.07448  -3569088.25046  21484503.2114   21484504.4494       8889.7974
        50.0004         39.2504
   5942811.06346   4760810.96143  25101254.1094   25101262.3594       3666.5914
        41.2504         19.7504
   1842929.51646   1508961.71144  22802599.5554   22802602.9024       5211.9714
        41.5004         29.5004
   -153375.97748    -27049.43747  20431278.9774   20431278.4304       6320.6234
        50.7504         43.7504
  -4588405.90247  -3430145.24245  22857782.9534   22857785.9534       9215.0934
        45.0004         32.5004
  -3975034.19949  -2980772.83247  20907746.3674   20907748.9064       8465.6364
        54.2504         43.0004
 11 11 21 18 54  0.0000000  0  8G02G04G05G09G10G12G29G25
   2202227.85548   1788714.14546  21236854.7034   21236853.3674       5223.7464
        49.0004         39.2504
   5703409.91847   4515699.57443  24460432.1024   24460439.5124       3628.0274
        42.5004         21.2504
  -4988871.94948  -3776515.91446  21433847.5474   21433848.6564       8873.2964
        50.5004         39.7504
   5832674.32846   4674989.70743  25080295.5704   25080305.1564       3671.2244
        40.0004         20.5004
   1687117.07847   1387549.32444  22772949.8204   22772952.9224       5193.7484
        43.5004         29.7504
   -342447.08648   -174377.59447  20395300.2664   20395299.3914       6302.3704
        51.0004         43.7504
  -4864803.47747  -3645519.91445  22805186.5314   22805188.8754       9213.2524
        44.5004         33.0004
