     2.11           OBSERVATION DATA    G (GPS)             RINEX VERSION / TYPE
teqc  2011Oct11     David Guenaga       20150713 20:32:20UTCPGM / RUN BY / DATE
Linux 2.4.21-27.ELsmp|Opteron|gcc|Linux x86_64|=+           COMMENT
BIT 2 OF LLI FLAGS DATA COLLECTED UNDER A/S CONDITION       COMMENT
vers                                                        MARKER NAME
1870                                                        MARKER NUMBER
G Funning/D Guenaga University of California, Riverside     OBSERVER / AGENCY
0220413522          TRIMBLE R7          2.32                REC # / TYPE / VERS
1441045101          TRM57971.00                             ANT # / TYPE
 -2430818.1367 -4704712.6452  3543694.1461                  APPROX POSITION XYZ
        0.9533        0.0000        0.0000                  ANTENNA: DELTA H/E/N
     1     1                                                WAVELENGTH FACT L1/2
     7    L1    L2    C1    P2    D1    S1    S2            # / TYPES OF OBSERV
    30.0000                                                 INTERVAL
    16                                                      LEAP SECONDS
 SNR is mapped to RINEX snr flag value [0-9]                COMMENT
  L1 & L2: min(max(int(snr_dBHz/6), 0), 9)                  COMMENT
  2015     7     6    18    24    0.0000000     GPS         TIME OF FIRST OBS
  2015     7     7     9    26    0.0000000     GPS         TIME OF LAST OBS
  2015     7     7     9    26    0.0000000     GPS         TIME OF LAST OBS
                                                            END OF HEADER
 15  7  6 18 24  0.0000000  0  7G11G13G15G17G28G30G07
     25828.22357     13040.31355  22754300.3754   22754297.1454
        46.2504         30.0004
    -50790.66858    -27589.00456  21614473.6644   21614470.2074
        48.5004         36.7504
   -103968.77056    -46526.50054  24190349.3834   24190347.5084
        41.2504         27.5004
   -112658.01258    -68533.81256  21558972.3204   21558969.4884
        49.0004         39.7504
     27379.10958     16238.63756  21127324.0234   21127319.4574
        50.0004         39.5004
     38501.04758     23182.87557  20613174.5164   20613172.6294
        51.0004         43.0004
    116404.26257     70434.15255  21979820.8284   21979818.9024
        47.5004         35.0004
 15  7  6 18 24 30.0000000  0  9G11G01G13G15G17G28G30G04G07
     44317.03147     27447.13745  22757818.4384   22757815.5594       -616.2944
        44.0004         30.5004
    -44153.56256    -27773.74254  23431717.2584   23431718.4494
        41.5004         27.2504
    -82593.76648    -52370.66046  21608421.7974   21608418.2664       1060.1034
        48.2504         36.7504
   -168068.70746    -96474.49244  24178151.2894   24178149.6804       2136.6654
        39.0004         27.0004
   -179912.69148   -120940.01246  21546174.7194   21546171.6374       2241.8234
        49.0004         39.0004
     42632.23848     28124.15646  21130226.3524   21130221.9184       -508.4384
        50.2504         40.0004
     60813.14848     40568.88747  20617420.0864   20617418.2504       -743.7374
        50.0004         42.7504
     12464.22357      7625.97353  23980140.0084   23980138.3794
        42.5004         23.7504
    184833.64848    123755.62146  21992843.0944   21992840.3594      -2280.9804
        48.2504         36.0004
 15  7  6 18 25  0.0000000  0  9G11G01G13G15G17G28G30G04G07
     63072.16847     42061.50445  22761387.8204   22761384.5904       -625.1714
        44.2504         30.0004
    -76219.28946    -52759.96944  23425615.3524   23425617.0744       1068.8584
        40.2504         28.0004
   -114114.41848    -76932.23046  21602423.5314   21602420.1214       1050.6884
        48.0004         36.2504
   -232068.53146   -137031.48854  24165973.1644   24165971.2234       2133.3274
        41.0004         26.0004
   -247070.50048   -173270.72346  21533394.8204   21533392.3094       2238.5944
        49.0004         40.7504
     57705.29748     39869.37546  21133094.5004   21133090.1684       -502.4354
        49.5004         39.7504
     83188.86748     58004.46947  20621678.3834   20621677.0084       -745.8574
        51.5004         43.0004
     21661.08647     14792.30543  23981889.5784   23981888.8444       -306.5624
        43.5004         22.0004
    253281.66047    177091.60945  22005868.2974   22005865.4184      -2281.6004
        47.0004         35.2504
 15  7  6 18 25 30.0000000  0  9G11G01G13G15G17G28G30G04G07
     82146.10947     56924.28145  22765017.6564   22765014.5204       -635.7984
        44.5004         30.0004
   -108088.37147    -77592.98044  23419550.1484   23419552.2344       1062.3034
        42.5004         27.5004
   -145298.70348   -101231.68446  21596489.2114   21596485.8364       1039.4764
        49.0004         36.7504
   -295913.67246   -186780.89843  24153823.7424   24153821.8444       2128.1714
        38.5004         22.5004
   -314077.46548   -225483.89846  21520643.9144   21520640.6374       2233.5654
        48.2504         40.2504
     72650.19948     51514.71946  21135938.3984   21135933.8134       -498.1634
        50.0004         39.7504
    105681.33248     75531.02747  20625958.5784   20625956.8324       -749.7494
        51.0004         43.0004
     31145.99647     22183.07843  23983694.5784   23983694.1994       -316.1644
        43.5004         23.0004
    321801.05147    230483.23446  22018907.1564   22018904.6334      -2283.9804
        47.2504         36.0004
 15  7  6 18 26  0.0000000  0  9G11G01G13G15G17G28G30G04G07
    101574.78547     72063.50444  22768714.7424   22768711.1054       -647.6234
        46.0004         29.0004
   -139722.61747   -102242.94144  23413531.1644   23413532.7624       1054.4754
        42.5004         28.7504
   -176109.53547   -125240.15645  21590626.4694   21590622.7274       1027.0284
        47.5004         34.0004
                                  24141710.281
        30.250
   -380896.05948   -277550.28946  21507928.3204   21507925.8404       2227.2864
        48.5004         39.7504
     87502.21148     63087.68846  21138765.1174   21138760.2624       -495.0674
        50.7504         40.7504
    128327.32848     93177.19147  20630268.2424   20630266.4804       -754.8674
        52.2504         43.0004
     40955.45747     29826.74243  23985561.7664   23985560.6414       -326.9824
        42.2504         22.7504
    390427.25048    283958.08245  22031965.8834   22031963.7504      -2287.5404
        48.0004         35.5004
 15  7  6 18 26 30.0000000  0  9G11G01G13G15G17G28G30G04G07
    121382.79347     87498.25445  22772484.7734   22772480.5664       -660.2674
        46.2504         30.0004
   -171095.45747   -126689.27044  23407560.8444   23407561.9224       1045.7614
        42.0004         27.7504
   -206521.41448   -148937.75845  21584839.1564   21584835.7624       1013.7294
        48.0004         33.7504
   -422999.75455   -245528.35552  24129639.9304   24129637.8594
        35.0004         17.2504
   -447500.46548   -329449.78546  21495254.4924   21495251.1764       2220.1474
        49.5004         40.5004
    102284.69948     74606.49646  21141577.7114   21141573.1564       -492.7504
        50.2504         39.2504
    151151.83248    110962.48447  20634611.4064   20634609.8484       -760.8174
        51.2504         42.7504
     51114.19947     37742.60244  23987494.7894   23987493.4534       -338.6254
        43.2504         25.5004
    459184.04747    337534.68445  22045050.0634   22045047.6804      -2291.8934
        46.5004         35.0004
 15  7  6 18 27  0.0000000  0  9G11G01G13G15G17G28G30G04G07
    141593.91057    103246.94155  22776330.3754   22776327.1954       -672.9114
        45.7504         30.2504
   -202179.96156   -150910.99654  23401645.9224   23401647.9024       1037.0484
        41.5004         26.0004
   -236507.25448   -172303.35546  21579133.0634   21579129.5004        999.5284
        49.2504         37.0004
   -486186.42246   -294764.68744  24117616.0004   24117614.3284       2106.2224
        41.5004         26.5004
   -513863.71948   -381161.37546  21482625.9384   21482622.5784       2212.1084
        48.0004         39.2504
    117021.85248     86089.95746  21144382.5944   21144377.4924       -491.2384
        49.5004         39.2504
    174180.99648    128907.25847  20638993.8204   20638992.1564       -767.6394
        50.2504         42.7504
     61647.94956     45950.65653  23989499.8754   23989498.1094       -350.2674
        41.5004         21.0004
    528096.53948    391232.59846  22058164.1094   22058161.7034      -2297.0834
        48.5004         37.2504
 15  7  6 18 27 30.0000000  0  9G11G01G13G15G17G28G30G04G07
    162262.52347    119352.35944  22780262.7584   22780259.8364       -688.9544
        45.2504         29.5004
   -232920.15257   -174864.27055  23395796.1174   23395797.8324       1028.3344
        42.0004         30.0004
   -266014.03148   -195295.68046  21573517.8834   21573514.3714        983.5594
        49.0004         36.7504
   -549072.34446   -343766.69544  24105649.1254   24105647.2854       2096.1974
        41.0004         26.0004
   -579931.86348   -432642.98046  21470053.1804   21470050.4924       2202.2714
        48.0004         40.0004
    131765.27748     97578.30946  21147187.6884   21147183.3914       -491.4484
        50.0004         39.2504
    197467.77748    147052.75447  20643425.2734   20643423.4614       -776.2264
        52.0004         43.5004
     72609.57847     54492.12543  23991585.9064   23991583.9534       -365.3884
        42.0004         22.7504
    597216.84048    445092.44146  22071317.6484   22071314.7304      -2304.0104
        48.7504         36.7504
 15  7  6 18 28  0.0000000  0  9G11G01G13G15G17G28G30G04G07
    183533.62547    135927.21145  22784311.0474   22784307.7424       -709.0374
        46.5004         30.7504
   -263169.21156   -198434.94954  23390040.1024   23390040.6804       1019.6214
        41.5004         27.7504
   -294894.35948   -217799.85246  21568021.7034   21568018.4454        962.6784
        49.5004         37.2504
   -611509.59846   -392419.12544  24093767.8054   24093765.8714       2081.2424
        39.5004         27.0004
   -645557.19948   -483779.58646  21457565.3524   21457561.9694       2187.5114
        48.5004         40.0004
    146660.32448    109184.80546  21150022.2894   21150017.8874       -496.5024
        50.0004         39.2504
    221159.03548    165513.44547  20647933.6414   20647931.7344       -789.7094
        51.0004         43.2504
     84145.63356     63481.19153  23993780.5234   23993779.4104       -380.5084
        41.7504         23.2504
    666690.50048    499227.65645  22084537.6644   22084535.5354      -2315.7894
        48.5004         35.0004
 15  7  6 18 28 30.0000000  0  9G11G01G13G15G17G28G30G04G07
    205657.73447    153166.77345  22788520.7504   22788517.5664       -737.4704
        45.0004         30.0004
   -292673.88747   -221425.56644  23384425.1954   23384426.2464        983.4894
        42.0004         28.5004
   -322896.32848   -239619.58246  21562693.7274   21562690.3324        933.3994
        48.2504         37.2504
   -673245.63746   -440525.09043  24082019.5784   24082017.9884       2057.8684
        40.2504         22.7504
   -710487.74647   -534374.76246  21445209.1644   21445206.1294       2164.3524
        47.7504         39.7504
    161956.71948    121104.06346  21152933.2734   21152928.0864       -509.8804
        50.0004         39.2504
    245506.14148    184485.17647  20652566.5394   20652564.9064       -811.5704
        50.5004         42.5004
     96507.29747     73113.59444  23996133.1414   23996132.1914       -412.0554
        42.5004         25.0004
    736767.62147    553833.07445  22097873.3134   22097870.9224      -2335.9044
        47.2504         34.5004
 15  7  6 18 29  0.0000000  0  9G11G01G13G15G17G28G30G04G07
    228713.91447    171132.60245  22792908.0704   22792905.1884       -768.5394
        45.2504         30.0004
   -321352.80946   -243772.71944  23378967.5474   23378968.9144        955.9644
        41.2504         28.0004
   -349939.46147   -260692.16446  21557547.8204   21557543.9344        901.4384
        47.5004         36.5004
   -734199.10546   -488021.33244  24070420.4144   24070418.8954       2031.7824
        39.5004         27.5004
   -774642.57047   -584365.48046  21433000.5234   21432998.0314       2138.4944
        47.5004         39.5004
    177732.68848    133396.98846  21155935.2504   21155930.2074       -525.8664
        50.0004         40.0004
    270589.07448    204030.27047  20657339.5784   20657338.1914       -836.0984
        50.5004         42.7504
    109774.17647     83451.37144  23998657.1094   23998656.9964       -442.2294
        42.7504         24.0004
    807527.36348    608970.41445  22111338.5554   22111336.0354      -2358.6584
        48.2504         35.2504
 15  7  6 18 29 30.0000000  0  9G11G01G13G15G17G28G30G04G07
    252505.00847    189671.10945  22797436.1024   22797432.9264       -793.0364
        43.0004         30.0004
   -349400.98446   -265628.41444  23373630.9694   23373630.9614        934.9394
        40.0004         27.5004
   -376219.56247   -281170.18746  21552546.2664   21552543.1764        876.0034
        47.5004         36.0004
   -794565.28547   -535059.89844  24058933.4064   24058931.7304       2012.2064
        42.2504         28.2504
   -838217.36748   -633904.24246  21420902.9534   21420899.7194       2119.1604
        49.2504         40.2504
    193790.32448    145909.41846  21158991.0084   21158986.3164       -535.2554
        49.5004         40.2504
    296211.41848    223995.68847  20662215.5634   20662213.9024       -854.0784
        49.5004         43.2504
    123749.43446     94341.10943  24001316.8134   24001315.5824       -465.8424
        38.5004         22.7504
    878772.08648    664485.67645  22124896.1724   22124893.3914      -2374.8244
        48.0004         34.7504
 15  7  6 18 30  0.0000000  0  9G11G01G13G15G17G28G30G04G07
    276854.13347    208644.43044  22802068.7664   22802065.8484       -811.6374
        42.0004         29.5004
   -376992.89547   -287128.58644  23368379.7504   23368381.1334        919.7304
        42.0004         28.5004
   -401912.44548   -301190.62946  21547657.4304   21547654.0554        856.4294
        48.5004         36.5004
   -854519.16446   -581777.21944  24047524.6804   24047522.6684       1998.4634
        40.7504         27.2504
   -901387.06248   -683127.34046  21408881.9384   21408879.0904       2105.6574
        48.7504         40.0004
    209952.59048    158503.37146  21162066.8524   21162061.4414       -538.7424
        51.0004         39.5004
    322197.27048    244244.36347  20667160.3834   20667158.8094       -866.1954
        48.2504         42.5004
    138256.98847    105645.67644  24004077.8674   24004076.5984       -483.5854
        43.0004         24.2504
    950324.83647    720240.94145  22138511.9304   22138509.5744      -2385.0924
        46.7504         34.7504
 15  7  6 18 30 30.0000000  0  9G11G01G13G15G17G28G30G04G07
    301703.74247    228007.74245  22806797.7664   22806794.7734       -828.3204
        44.7504         30.7504
   -404183.50447   -308316.05145  23363205.8054   23363206.9574        906.3544
        43.5004         30.0004
   -427074.00848   -320797.07446  21542869.3134   21542866.0084        838.7194
        49.0004         36.5004
   -914115.56646   -628215.96144  24036183.7664   24036181.8754       1986.5474
        41.5004         28.2504
   -964207.45348   -732078.24246  21396927.6174   21396924.4184       2094.0134
        48.7504         40.5004
    226161.68048    171133.80146  21165150.8054   21165146.1484       -540.3034
        49.5004         39.7504
    348490.34848    264732.41847  20672164.1334   20672162.3014       -876.4364
        50.7504         43.0004
    153239.98446    117320.70743  24006928.7504   24006928.3094       -499.4334
        38.7504         20.2504
   1022128.31347    776191.58245  22152176.0164   22152173.0394      -2393.4494
        47.5004         35.5004
 15  7  6 18 31  0.0000000  0  9G11G01G13G15G17G28G30G04G07
    327046.00047    247754.93444  22811620.8364   22811617.2304       -844.7424
        44.0004         29.2504
   -430978.77747   -329195.45344  23358106.9534   23358107.6844        893.1764
        42.2504         28.5004
   -451711.21548   -339994.91446  21538181.2344   21538177.7734        821.2404
        49.5004         37.0004
   -973360.59846   -674380.91044  24024909.7894   24024907.8244       1974.8344
        41.5004         28.2504
  -1026684.98447   -780761.98846  21385038.3284   21385035.5044       2082.5844
        47.2504         41.0004
    242408.37948    183793.54346  21168242.3594   21168237.7704       -541.5574
        50.0004         39.2504
    375083.22748    285454.09847  20677224.5394   20677222.9844       -886.4294
        51.2504         43.2504
    168691.00047    129360.41443  24009869.2504   24009868.0434       -515.0344
        42.5004         22.5004
   1094173.85248    832330.84845  22165885.8754   22165883.3594      -2401.5184
        48.5004         35.0004
 15  7  6 18 31 30.0000000  0  9G11G01G13G15G17G28G30G04G07
    352888.80947    267892.17244  22816538.5234   22816534.9924       -861.4274
        44.5004         29.0004
   -457368.14547   -349758.58244  23353084.8054   23353085.7074        879.6464
        43.0004         28.2504
   -475814.49248   -358776.71146  21533594.4454   21533590.7424        803.4434
        49.7504         36.2504
  -1032244.00847   -720264.09044  24013704.8914   24013703.0394       1962.7804
        43.0004         28.5004
  -1088809.79748   -829170.88346  21373216.8444   21373213.6254       2070.8274
        48.5004         40.2504
    258700.68448    196488.82446  21171343.4064   21171338.2114       -543.0774
        50.0004         39.7504
    401985.11748    306416.57847  20682343.5004   20682342.2274       -896.7304
        49.7504         43.0004
    184618.35946    141771.31643  24012900.2034   24012898.4694       -530.9124
        41.7504         22.0004
   1166469.53547    888665.03945  22179642.9224   22179640.6174      -2409.8564
        46.7504         34.5004
 15  7  6 18 32  0.0000000  0  9G11G01G13G15G17G28G30G04G07
    379239.84047    288425.41444  22821552.4774   22821549.5634       -878.3684
        43.5004         29.5004
   -483341.68747   -369997.67244  23348141.8914   23348143.4064        865.7854
        42.0004         27.5004
   -499374.84848   -377135.45346  21529111.1484   21529107.2814        785.3454
        49.7504         36.5004
  -1090755.74646   -765857.64544  24002570.0234   24002568.3164       1950.3914
        41.5004         28.0004
  -1150572.18748   -877297.38746  21361463.8444   21361460.1454       2058.7464
        48.0004         40.7504
    275045.82448    209225.27746  21174453.7194   21174448.6884       -544.8384
        50.0004         40.0004
    429204.72348    327626.61347  20687523.3674   20687521.8674       -907.3204
        49.0004         43.2504
    201030.64847    154560.09043  24016023.2034   24016021.6914       -547.0764
        42.2504         22.7504
   1239023.03547    945200.08645  22193449.9614   22193447.5124      -2418.4504
        47.0004         34.5004
 15  7  6 18 32 30.0000000  0  9G11G01G13G15G17G28G30G04G07
    406111.36347    309364.24244  22826666.6484   22826662.9414       -895.7174
        42.7504         29.2504
   -508884.91446   -389901.46544  23343281.4454   23343282.7624        851.4414
        41.2504         28.5004
   -522379.09048   -395060.86746  21524733.5164   21524729.9494        766.8084
        49.7504         37.5004
  -1148881.83647   -811150.70344  23991509.2734   23991507.4804       1937.5364
        42.0004         27.7504
  -1211958.43047   -925130.78546  21349782.1724   21349779.0704       2046.2084
        47.2504         40.2504
    291455.21548    222011.79746  21177576.1804   21177571.2274       -546.9804
        50.0004         40.2504
    456754.96548    349094.28547  20692765.7504   20692764.3714       -918.3414
        50.0004         43.2504
    217940.61346    167736.64143  24019241.5394   24019240.3364       -563.6654
        41.7504         22.2504
   1311846.23047   1001945.31345  22207306.8524   22207305.3674      -2427.4404
        46.7504         35.0004
 15  7  6 18 33  0.0000000  0  9G11G01G13G15G17G28G30G04G07
    433513.63347    330716.63344  22831880.4064   22831877.4574       -913.4094
        42.2504         28.7504
   -533985.20347   -409460.10944  23338504.9844   23338505.7894        836.6764
        42.7504         28.2504
   -544815.21148   -412543.58246  21520464.3524   21520460.7424        747.8714
        49.0004         36.7504
  -1206609.76647   -856133.50044  23980523.5234   23980522.4654       1924.2644
        42.5004         27.5004
  -1272956.23847   -972661.49646  21338174.3834   21338171.1374       2033.2604
        47.0004         41.0004
    307938.97748    234856.25846  21180712.8364   21180708.0744       -549.4594
        49.5004         39.5004
    484647.27748    370828.50047  20698073.6414   20698072.0984       -929.7444
        49.0004         43.0004
    235358.78546    181309.21143  24022555.7114   24022554.5634       -580.6064
        41.0004         22.2504
   1384949.80547   1058908.98845  22221218.8134   22221216.6724      -2436.7864
        47.0004         34.5004
 15  7  6 18 33 30.0000000  0  9G11G01G13G15G17G28G30G04G07
    461454.80147    352488.93844  22837197.4534   22837193.9494       -931.3724
        42.7504         29.0004
   -558631.89547   -428665.33644  23333814.7894   23333815.7154        821.5564
        43.5004         28.5004
   -566673.64548   -429576.16046  21516304.7814   21516300.8524        728.6144
        49.0004         37.2504
  -1263928.89146   -900797.75044  23969616.1954   23969614.4344       1910.6384
        40.7504         27.0004
  -1333555.94547  -1019882.00846  21326643.0704   21326639.7384       2019.9904
        47.5004         40.0004
    324504.89148    247764.73046  21183865.4614   21183860.4104       -552.1974
        50.0004         40.2504
    512890.92248    392836.48447  20703448.5164   20703446.9494       -941.4554
        50.0004         43.0004
    253294.19547    195284.83643  24025968.4534   24025967.1764       -597.8474
        42.0004         22.0004
   1458341.34847   1116097.07845  22235185.4304   22235182.7774      -2446.3854
        46.5004         34.0004
 15  7  6 18 34  0.0000000  0  9G11G01G13G15G17G28G30G04G07
    489939.32047    374684.63745  22842618.1644   22842615.2934       -949.4844
        42.0004         30.0004
   -582818.24247   -447511.81644  23329212.4144   23329213.4344        806.2124
        42.7504         28.0004
   -587948.93048   -446154.31646  21512256.0554   21512252.3954        709.1764
        49.0004         37.7504
  -1320832.70746   -945138.37544  23958787.4774   23958786.0084       1896.7944
        40.0004         28.2504
  -1393750.93047  -1066787.14546  21315188.4774   21315184.9024       2006.4994
        47.7504         40.7504
    341157.06648    260740.43446  21187034.0784   21187029.5864       -555.0734
        49.2504         39.5004
    541491.38748    415122.51247  20708890.8984   20708889.3324       -953.3494
        49.7504         42.7504
    271751.99246    209667.51243  24029481.4694   24029480.5474       -615.2604
        39.2504         22.5004
   1532025.18847   1173512.92645  22249206.5864   22249204.3754      -2456.1284
        47.0004         34.0004
 15  7  6 18 34 30.0000000  0  9G11G01G13G15G17G28G30G04G07
    518968.78547    397304.95745  22848142.7974   22848139.1724       -967.6494
        43.5004         30.0004
   -606540.52347   -465996.69944  23324698.4064   23324699.2774        790.7434
        43.7504         28.7504
   -608638.13348   -462275.78946  21508318.9384   21508315.3834        689.6404
        49.7504         37.2504
  -1377317.52347   -989152.49644  23948039.7584   23948037.6134       1882.8274
        42.2504         28.7504
  -1453538.58247  -1113374.89546  21303810.9534   21303807.2774       1992.9224
        47.5004         40.7504
    357896.80148    273784.35546  21190219.3674   21190214.6604       -557.9914
        49.0004         39.7504
    570451.03948    437688.43047  20714401.7424   20714400.2974       -965.3224
        48.2504         42.5004
    290733.84847    224458.54343  24033093.5084   24033091.7894       -632.7294
        42.2504         22.7504
   1606002.83647   1231157.71545  22263284.3444   22263282.1454      -2465.9224
        45.0004         34.0004
 15  7  6 18 35  0.0000000  0  9G11G01G13G15G17G28G30G04G07
    548545.24647    420351.51245  22853770.5314   22853767.1414       -985.8824
        43.2504         30.2504
   -629793.90247   -484116.19544  23320273.2274   23320274.5314        775.1134
        43.0004         27.5004
   -628737.49248   -477937.64146  21504494.2274   21504490.3324        669.9794
        49.0004         36.7504
  -1433378.82846  -1032836.60544  23937371.1024   23937369.2704       1868.7104
        41.5004         27.5004
  -1512914.36748  -1159641.70346  21292511.7274   21292508.3364       1979.1934
        48.2504         40.7504
    374725.87548    286897.89546  21193421.6484   21193417.1134       -560.9694
        49.7504         39.7504
    599773.47748    460537.03547  20719981.7584   20719980.2034       -977.4154
        49.0004         43.0004
    310243.02346    239660.49243  24036806.1644   24036804.3404       -650.3064
        41.0004         23.0004
   1680276.74247   1289033.34445  22277417.9534   22277415.8524      -2475.7974
        46.2504         33.5004
 15  7  6 18 35 30.0000000  0  9G11G01G13G15G17G28G30G04G07
    578673.38747    443827.95744  22859503.7344   22859500.6804      -1004.2714
        43.0004         29.2504
   -652571.91447   -501865.27744  23315938.4454   23315939.6374        759.2674
        43.5004         28.2504
   -648241.99248   -493135.97346  21500782.6804   21500778.8444        650.1504
        49.5004         36.2504
  -1489009.95747  -1076185.50844  23926784.3444   23926782.9064       1854.3714
        42.2504         28.2504
  -1571871.23047  -1205582.07446  21281292.8754   21281289.5124       1965.2294
        47.7504         40.7504
    391648.83248    300084.59846  21196642.3524   21196637.4884       -564.0994
        50.0004         39.7504
    629463.82848    483672.32847  20725632.0394   20725630.1094       -989.6784
        49.0004         43.0004
    330284.05147    255276.84843  24040619.7194   24040618.4144       -668.0344
        42.0004         21.5004
   1754851.28147   1347143.23845  22291609.3984   22291607.3134      -2485.8184
        46.0004         34.2504
 15  7  6 18 36  0.0000000  0  9G11G01G13G15G17G28G30G04G07
    609353.07847    467734.17644  22865342.1644   22865338.3954      -1022.6564
        42.7504         28.5004
   -674871.99647   -519241.95744  23311694.7974   23311696.0004        743.3364
        43.2504         27.7504
   -667149.66048   -507869.23046  21497185.0234   21497181.0314        630.2564
        50.2504         37.0004
  -1544208.71547  -1119197.50044  23916280.6414   23916279.1254       1839.9594
        42.5004         28.5004
  -1630409.21147  -1251196.04746  21270153.6954   21270150.2894       1951.2664
        47.7504         40.5004
    408665.14848    313344.05146  21199880.5864   21199875.6484       -567.2114
        49.2504         39.5004
    659523.37148    507095.31347  20731352.0394   20731350.1914      -1001.9854
        49.5004         43.0004
    350857.76246    271308.30143  24044534.8594   24044533.3244       -685.7904
        41.5004         21.5004
   1829726.23047   1405487.20345  22305858.0234   22305855.4884      -2495.8324
        45.7504         34.5004
 15  7  6 18 36 30.0000000  0  9G11G01G13G15G17G28G30G04G07
    640585.96547    492071.44144  22871285.5394   22871281.8954      -1041.0964
        43.7504         29.0004
   -696690.24246   -536243.16844  23307543.3284   23307544.3674        727.2754
        41.5004         28.2504
   -685457.63348   -522135.20746  21493700.7344   21493697.3524        610.2664
        48.7504         37.0004
  -1598971.00047  -1161869.38344  23905859.7114   23905858.0744       1825.4104
        42.0004         29.2504
  -1688524.05547  -1296480.29746  21259094.4384   21259091.4534       1937.1614
        47.0004         40.7504
    425776.21148    326677.32846  21203136.7114   21203131.8484       -570.3694
        50.2504         40.0004
    689954.74248    530808.03147  20737142.7814   20737141.4304      -1014.3794
        50.0004         43.0004
    371966.21146    287756.41843  24048551.1884   24048550.4104       -703.6154
        39.0004         20.5004
   1904903.02047   1464066.39145  22320163.1174   22320161.0514      -2505.8934
        45.7504         34.0004
 15  7  6 18 37  0.0000000  0  9G11G01G13G15G17G28G30G04G07
    672372.49247    516840.14144  22877334.3444   22877330.9614      -1059.5514
        44.7504         28.7504
   -718023.50047   -552866.46944  23303483.3054   23303484.3204        711.1094
        42.5004         29.0004
   -703164.16448   -535932.51646  21490331.4384   21490327.8244        590.2184
        49.2504         36.5004
  -1653294.19146  -1204199.11344  23895522.7194   23895520.6174       1810.7734
        41.0004         28.2504
  -1746212.85547  -1341432.56646  21248116.9064   21248113.3364       1922.9604
        47.7504         41.2504
    442982.77748    340085.02346  21206410.8914   21206405.9774       -573.5524
        49.7504         40.0004
    720759.81348    554811.94147  20743004.6954   20743003.3324      -1026.8364
        49.7504         43.2504
    393610.82847    304622.35943  24052669.9694   24052668.5474       -721.4874
        42.0004         20.7504
   1980382.64847   1522881.59045  22334526.4614   22334524.7384      -2515.9884
        46.2504         33.5004
 15  7  6 18 37 30.0000000  0  9G11G01G13G15G17G28G30G04G07
    704712.84447    542040.36345  22883488.4534   22883485.0984      -1078.0124
        44.0004         30.0004
   -738869.79347   -569110.32044  23299516.0084   23299517.5434        694.8764
        42.7504         29.0004
   -720268.27748   -549260.41846  21487076.5554   21487072.9024        570.1374
        49.0004         36.2504
  -1707176.12147  -1246185.02044  23885268.7424   23885267.2464       1796.0644
        43.2504         28.7504
  -1803474.55147  -1386052.03546  21237220.0474   21237216.8404       1908.7234
        46.5004         41.0004
    460284.10548    353566.56346  21209703.1954   21209698.5514       -576.7114
        48.5004         40.0004
    751939.31648    579107.62947  20748938.4304   20748936.4924      -1039.3174
        49.7504         42.5004
    415791.63346    321906.10243  24056891.0084   24056890.0634       -739.3604
        41.5004         21.7504
   2056164.85547   1581932.51645  22348947.8674   22348945.2114      -2526.0744
        44.7504         33.0004
 15  7  6 18 38  0.0000000  0  9G11G01G13G15G17G28G30G04G07
    737608.87547    567673.59844  22889748.1804   22889745.2154      -1096.5344
        42.0004         29.2504
   -759224.48447   -584971.10544  23295643.1254   23295643.8794        678.4904
        43.0004         28.5004
   -736766.13348   -562115.90646  21483937.0784   21483933.5084        549.9294
        48.7504         36.2504
  -1760612.25446  -1287823.54744  23875100.3594   23875098.6844       1781.2044
        40.7504         28.7504
  -1860304.53147  -1430335.09846  21226405.8134   21226402.3244       1894.3334
        46.2504         41.5004
    477682.60548    367123.81346  21213013.9774   21213009.1844       -579.9504
        48.5004         40.2504
    783496.73848    603697.79347  20754943.6804   20754941.6294      -1051.9144
        49.5004         43.0004
    438511.58646    339609.92243  24061214.4924   24061213.2154       -757.3324
        41.7504         21.5004
   2132251.79347   1641220.89845  22363426.8914   22363424.4614      -2536.2314
        45.2504         34.0004
 15  7  6 18 38 30.0000000  0  9G11G01G13G15G17G28G30G04G07
    771062.28547    593741.14844  22896114.5164   22896111.1094      -1115.1144
        42.0004         29.0004
   -779083.23447   -600445.45744  23291863.7734   23291865.3244        661.9584
        42.2504         28.7504
   -752654.66848   -574496.60246  21480913.6564   21480909.8014        529.6184
        49.5004         36.5004
  -1813598.69147  -1329111.67644  23865017.1564   23865015.6214       1766.2154
        43.5004         29.5004
  -1916699.33648  -1474279.06646  21215673.8204   21215670.6334       1879.8274
        48.5004         41.5004
    495180.00448    380758.13346  21216343.8524   21216339.0394       -583.2474
        49.0004         40.2504
    815435.07048    628584.77747  20761021.2734   20761019.4264      -1064.6114
        48.7504         42.2504
    461772.97746    357735.67243  24065641.2274   24065639.5904       -775.3804
        41.5004         21.7504
   2208645.29347   1700748.16445  22377964.0084   22377962.1024      -2546.4504
        45.0004         33.7504
 15  7  6 18 39  0.0000000  0  9G11G01G13G15G17G28G30G04G07
    805075.13747    620244.63744  22902586.8834   22902583.2424      -1133.7624
        43.5004         29.0004
   -798442.03147   -615530.21144  23288179.7664   23288180.8984        645.2934
        43.0004         29.0004
   -767930.94948   -586400.20346  21478006.4774   21478002.9184        509.2094
        48.2504         36.5004
  -1866131.30947  -1370046.17644  23855021.4304   23855019.0944       1751.0874
        42.7504         29.0004
  -1972655.56247  -1517881.29346  21205026.0084   21205022.5594       1865.2084
        47.5004         41.2504
    512778.05147    394470.88346  21219692.4384   21219687.7774       -586.6024
        47.7504         39.5004
    847757.20748    653770.82047  20767171.5704   20767170.1644      -1077.4054
        49.2504         43.0004
    485578.41046    376285.34443  24070171.0394   24070169.4184       -793.5144
        41.5004         21.2504
   2285347.00847   1760515.60245  22392560.0084   22392558.1134      -2556.7244
        45.7504         33.2504
 15  7  6 18 39 30.0000000  0  9G11G01G13G15G17G28G30G04G07
    839645.94947    647182.90244  22909165.0704   22909162.7154      -1152.3604
        44.5004         29.2504
   -817300.08247   -630224.79344  23284592.4614   23284592.9574        628.6024
        44.2504         28.7504
   -782595.43448   -597827.09046  21475216.1174   21475212.5984        488.8164
        49.0004         36.7504
  -1918209.26647  -1410626.40644  23845110.8984   23845109.0394       1735.9324
        43.7504         29.2504
  -2028172.32448  -1561141.07446  21194461.1484   21194458.1644       1850.5594
        48.0004         40.7504
    530475.39148    408261.00446  21223060.1024   21223055.4344       -589.9114
        50.0004         39.7504
    880462.61748    679255.52347  20773395.4304   20773394.0354      -1090.1804
        50.0004         42.5004
    509926.50446    395257.87143  24074804.1884   24074802.9694       -811.6034
        41.5004         21.5004
   2362355.96947   1820522.44545  22407214.2114   22407212.6454      -2566.9654
        45.7504         33.2504
 15  7  6 18 40  0.0000000  0  9G11G01G13G15G17G28G30G04G07
    874773.88347    674555.27744  22915850.2734   22915847.0514      -1170.9314
        44.7504         28.7504
   -835655.73047   -644527.89144  23281098.3594   23281099.5904        611.8554
        44.0004         28.5004
   -796647.47747   -608776.74646  21472542.3594   21472538.4024        468.4014
        47.2504         37.0004
  -1969830.90246  -1450851.05944  23835287.4064   23835285.7074       1720.7214
        41.2504         28.7504
  -2083248.94947  -1604057.89146  21183980.6484   21183977.1524       1835.8884
        47.5004         41.0004
    548271.27047    422127.90646  21226446.5164   21226441.8754       -593.1964
        47.7504         39.5004
    913551.81348    705039.27347  20779691.8364   20779690.8134      -1102.9734
        49.2504         42.5004
    534817.27046    414653.26643  24079540.8754   24079539.7034       -829.6924
        41.5004         20.0004
   2439671.11347   1880767.87545  22421927.3524   22421925.1454      -2577.1714
        46.2504         34.0004
 15  7  6 18 40 30.0000000  0  9G11G01G13G15G17G28G30G04G07
    910457.63347    702360.76244  22922640.2034   22922637.2544      -1189.4584
        45.0004         28.2504
   -853507.86347   -658438.64144  23277701.6484   23277702.4924        595.0714
        43.0004         29.5004
   -810086.92648   -619249.06246  21469984.9534   21469981.0044        447.9824
        49.2504         37.2504
  -2020995.27047  -1490719.39544  23825551.5164   23825548.9264       1705.4794
        43.7504         28.7504
  -2137884.80547  -1646631.25846  21173583.6884   21173580.1844       1821.1954
        47.5004         41.0004
    566164.20348    436070.44146  21229851.3674   21229846.5234       -596.4314
        49.5004         39.7504
    947024.73848    731122.03947  20786061.7584   20786060.4694      -1115.7644
        48.0004         42.7504
    560249.88346    434470.86343  24084381.7344   24084379.0554       -847.7544
        41.0004         20.0004
   2517291.19147   1941250.91045  22436697.4844   22436695.9144      -2587.3364
        46.7504         33.0004
 15  7  6 18 41  0.0000000  0  9G11G01G13G15G17G28G30G04G07
    946699.69147    730601.28944  22929537.3284   22929533.9384      -1208.0694
        44.7504         28.2504
   -870851.38747   -671953.08244  23274401.4144   23274402.3754        578.1174
        44.2504         29.2504
   -822910.08648   -629241.16046  21467544.4534   21467540.8164        427.4394
        50.2504         36.7504
  -2071697.39547  -1530227.56244  23815902.5474   23815900.4884       1690.0714
        43.5004         29.2504
  -2192075.23448  -1688857.53546  21163271.8204   21163268.0234       1806.3484
        48.0004         40.7504
    584157.02748    450090.80546  21233275.3284   21233270.7544       -599.7614
        50.0004         39.7504
    980885.26248    757506.82047  20792505.3754   20792503.6094      -1128.6844
        48.7504         42.7504
    586227.62146    454713.25443  24089324.1414   24089322.8324       -865.9254
        41.7504         21.7504
   2595219.17247   2001973.86345  22451526.4844   22451524.9304      -2597.5994
        45.7504         33.0004
 15  7  6 18 41 30.0000000  0  9G11G01G13G15G17G28G30G04G07
    983498.79747    759275.87944  22936540.0234   22936536.7704      -1226.6374
        44.7504         28.5004
   -887685.15247   -685070.28544  23271198.2584   23271198.8324        561.1264
        42.7504         28.7504
   -835116.69548   -638752.82046  21465221.5084   21465218.0474        406.8874
        49.7504         37.0004
  -2121936.22747  -1569374.68444  23806342.6414   23806340.3554       1674.6284
        43.0004         28.7504
  -2245819.59848  -1730736.23446  21153044.6724   21153040.7424       1791.4794
        48.7504         41.0004
    602248.85548    464188.32046  21236718.2344   21236713.2894       -603.0614
        50.5004         39.5004
   1015133.37548    784193.62947  20799022.9694   20799021.3984      -1141.6044
        49.5004         42.2504
    612749.84046    475379.91843  24094370.7424   24094369.6484       -884.0744
        41.2504         20.2504
   2673453.60947   2062935.60545  22466414.3914   22466412.9964      -2607.8154
        45.7504         32.5004
 15  7  6 18 42  0.0000000  0  9G11G01G13G15G17G28G30G04G07
   1020856.83247    788385.99644  22943648.9224   22943645.4534      -1245.2684
        44.2504         29.2504
   -904005.03947   -697787.08244  23268092.2974   23268093.2584        543.9964
        43.0004         28.5004
   -846703.89548   -647781.83246  21463016.5944   21463012.6844        386.2404
        50.0004         37.0004
  -2171707.63747  -1608157.61345  23796871.5394   23796869.9224       1659.0474
        43.7504         30.0004
  -2299114.63348  -1772264.80546  21142902.4614   21142898.8054       1776.5014
        48.0004         40.7504
    620441.23448    478364.19146  21240180.1024   21240175.4454       -606.4134
        50.5004         39.7504
   1049772.02048    811184.74647  20805614.1094   20805612.5634      -1154.6214
        49.0004         42.2504
    639819.09046    496472.82043  24099522.3524   24099520.6644       -902.3084
        39.7504         21.0004
   2751996.79347   2124137.94145  22481361.3674   22481359.0164      -2618.1064
        46.2504         33.0004
 15  7  6 18 42 30.0000000  0  9G11G01G13G15G17G28G30G04G07
   1058770.40647    817929.01644  22950863.1414   22950860.3324      -1263.7864
        42.0004         29.2504
   -919812.20347   -710104.32444  23265084.4844   23265084.9184        526.9054
        42.7504         28.0004
   -857673.96548   -656329.95746  21460929.1254   21460925.6604        365.6694
        49.7504         36.7504
  -2221012.78147  -1646577.19944  23787489.4064   23787487.5274       1643.5054
        44.5004         29.5004
  -2351961.57847  -1813444.21946  21132846.3054   21132842.8444       1761.5654
        47.2504         41.2504
    638730.97348    492615.91846  21243660.7974   21243655.9614       -609.6584
        49.2504         40.2504
   1084798.95748    838478.42247  20812279.6564   20812278.0784      -1167.5654
        49.0004         42.2504
    667431.79346    517989.17643  24104776.8914   24104775.1414       -920.4234
        41.0004         21.0004
   2830845.17247   2185578.09045  22496365.7974   22496363.9614      -2628.2794
        45.7504         33.2504
 15  7  6 18 43  0.0000000  0  9G11G01G13G15G17G28G30G04G07
   1097238.96147    847904.48844  22958183.7424   22958180.8874      -1282.2854
        42.5004         29.0004
   -935104.57447   -722020.44944  23262174.1954   23262175.4964        509.7464
        42.0004         28.2504
   -868025.97748   -664396.48046  21458959.0474   21458955.4924        345.0674
        50.0004         37.0004
  -2269849.76647  -1684631.98444  23778195.7034   23778194.0704       1627.8994
        43.7504         29.7504
  -2404359.00448  -1854273.35246  21122875.6884   21122871.7344       1746.5814
        48.2504         41.0004
    657118.08248    506943.53146  21247159.1954   21247155.0984       -612.9044
        49.7504         40.0004
   1120215.07048    866075.35547  20819018.6564   20819016.9494      -1180.5374
        49.5004         42.2504
    695588.57846    539929.49243  24110134.4224   24110133.9264       -938.5604
        41.0004         21.7504
   2909998.42647   2247255.80945  22511428.0394   22511426.6214      -2638.4424
        46.2504         33.2504
 15  7  6 18 43 30.0000000  0  9G11G01G13G15G17G28G30G04G07
   1136263.69947    878313.34444  22965610.3444   22965606.9614      -1300.8254
        44.5004         28.7504
   -949878.66447   -733532.71944  23259362.5004   23259363.2034        492.4704
        43.7504         28.2504
   -877757.59448   -671979.57446  21457107.5004   21457103.6414        324.3874
        48.5004         37.5004
  -2318215.05146  -1722319.21945  23768992.9614   23768990.4844       1612.1764
        41.5004         30.5004
  -2456303.77347  -1894749.76246  21112990.4144   21112987.1604       1731.4924
        47.5004         41.0004
    675603.85948    521348.03146  21250677.4924   21250672.6414       -616.1934
        49.0004         39.7504
   1156022.70748    893977.37147  20825832.9454   20825831.2304      -1193.5884
        49.7504         42.5004
    724290.93446    562294.93843  24115596.5784   24115595.4184       -956.7454
        39.0004         21.0004
   2989457.87147   2309172.10945  22526548.4614   22526547.0704      -2648.6484
        46.0004         33.2504
 15  7  6 18 44  0.0000000  0  9G11G01G13G15G17G28G30G04G07
   1175841.53947    909153.17244  22973141.8524   22973138.2384      -1319.2614
        42.0004         28.5004
   -964134.84847   -744641.39844  23256650.2274   23256650.4184        475.2064
        43.7504         29.2504
   -886870.27348   -679080.38346  21455372.9384   21455369.3484        303.7564
        49.2504         37.2504
  -2366109.18747  -1759639.31244  23759878.4304   23759876.4304       1596.4714
        43.2504         29.5004
  -2507796.77748  -1934874.16046  21103192.0234   21103188.3834       1716.4334
        48.7504         41.2504
    694185.47348    535827.19946  21254213.0864   21254208.4344       -619.3874
        49.2504         39.5004
   1192220.43848    922183.35247  20832721.0864   20832720.0004      -1206.5914
        50.2504         43.0004
    753536.68846    585083.81343  24121161.8984   24121161.1094       -974.8584
        41.0004         21.5004
   3069220.82847   2371324.90645  22541726.9774   22541725.9964      -2658.7654
        44.5004         32.7504
 15  7  6 18 44 30.0000000  0  9G11G01G13G15G17G28G30G04G07
   1215972.37947    940423.93044  22980777.9694   22980774.6844      -1337.6954
        44.0004         28.5004
   -977871.59047   -755345.32444  23254035.9454   23254036.5904        457.8914
        43.7504         29.0004
   -895363.69148   -685698.65646  21453757.2664   21453753.4224        283.1144
        48.0004         37.0004
  -2413530.36747  -1796590.87544  23750853.8204   23750852.4264       1580.7064
        44.2504         29.7504
  -2558836.73448  -1974645.53146  21093479.0864   21093475.5124       1701.3324
        48.0004         41.7504
    712863.14548    550381.22746  21257767.3134   21257762.6764       -622.5894
        48.2504         40.0004
   1228808.65248    950693.60947  20839683.7504   20839682.2664      -1219.6074
        50.0004         42.2504
    783325.66046    608295.97743  24126831.6254   24126828.8834       -992.9664
        41.5004         21.5004
   3149286.86747   2433713.84845  22556963.3984   22556961.9654      -2668.8684
        45.0004         33.0004
 15  7  6 18 45  0.0000000  0  9G11G01G13G15G17G28G30G04G07
   1256656.73447    972125.98844  22988520.3834   22988516.8984      -1356.1454
        43.5004         28.5004
   -991085.20747   -765641.62144  23251521.7194   23251522.4064        440.4544
        42.5004         28.7504
   -903235.35948   -691832.43746  21452259.1024   21452255.6484        262.3894
        48.5004         37.0004
  -2460475.01647  -1833171.09844  23741920.9384   23741918.7194       1564.8224
        44.2504         29.5004
  -2609420.29748  -2014061.26646  21083853.5394   21083849.5204       1686.1194
        48.0004         41.7504
    731638.20748    565011.13746  21261340.2664   21261335.5044       -625.8354
        49.0004         39.7504
   1265789.89848    979510.11746  20846721.2584   20846719.6294      -1232.7084
        49.5004         41.7504
    813659.58246    631932.73843  24132603.4844   24132601.8954      -1011.1314
        41.0004         20.5004
   3229657.44947   2496340.11345  22572257.7814   22572256.1414      -2679.0194
        45.0004         33.0004
 15  7  6 18 45 30.0000000  0  9G11G01G13G15G17G28G30G04G07
   1297891.63747   1004257.04744  22996367.2034   22996363.4804      -1374.4974
        43.7504         29.5004
  -1003776.46947   -775530.90644  23249106.0314   23249106.9614        423.0424
        43.0004         28.5004
   -910487.11748   -697483.17646  21450879.1724   21450875.6094        241.7254
        49.7504         37.5004
  -2506944.07047  -1869380.73044  23733078.4144   23733076.1684       1548.9684
        44.0004         29.7504
  -2659549.18748  -2053122.71546  21074313.9774   21074310.0984       1670.9634
        48.5004         41.2504
    750508.07448    579714.92246  21264930.7194   21264926.1954       -628.9964
        48.7504         39.7504
   1303162.37548   1008631.48846  20853832.8754   20853831.3364      -1245.7494
        50.0004         41.7504
    844535.81646    655992.15243  24138478.8834   24138476.7114      -1029.2084
        41.2504         21.2504
   3310329.56347   2559201.35245  22587609.3594   22587607.5234      -2689.0704
        44.5004         33.2504
 15  7  6 18 46  0.0000000  0  9G11G01G13G15G17G28G30G04G07
   1339678.82047   1036818.45744  23004319.0554   23004315.8594      -1392.9064
        44.5004         27.7504
  -1015941.49647   -785010.11344  23246791.6254   23246792.3134        405.5014
        42.7504         29.0004
   -917116.33248   -702648.81246  21449617.8914   21449613.9924        220.9744
        48.7504         37.2504
  -2552933.51647  -1905216.63745  23724326.8444   23724324.6454       1532.9824
        44.7504         30.2504
  -2709220.01247  -2091827.23046  21064862.0474   21064858.5434       1655.6944
        47.7504         41.7504
    769474.02748    594493.57446  21268540.3284   21268535.1484       -632.1984
        49.0004         39.5004
   1340928.88348   1038059.89846  20861019.7274   20861018.1374      -1258.8844
        49.2504         41.7504
    875956.27046    680475.61343  24144457.1254   24144456.2274      -1047.3484
        40.0004         21.2504
   3391304.82847   2622298.80145  22603018.1884   22603017.1254      -2699.1764
        44.2504         33.0004
 15  7  6 18 46 30.0000000  0  9G11G01G13G15G17G28G30G04G07
   1382016.79347   1069809.05144  23012375.6174   23012372.3594      -1411.2664
        43.5004         28.7504
  -1027579.03147   -794078.28944  23244576.4384   23244577.4804        387.9184
        42.2504         29.2504
   -923122.89548   -707329.26646  21448475.0944   21448471.2034        200.2194
        49.0004         37.2504
  -2598441.86347  -1940677.67244  23715667.2734   23715664.8404       1516.9454
        44.5004         29.5004
  -2758431.72747  -2130173.99646  21055497.4064   21055493.5664       1640.3904
        47.5004         41.5004
    788535.77748    609346.88346  21272167.8984   21272162.6484       -635.3924
        50.0004         40.0004
   1379089.63748   1067795.51247  20868281.4844   20868279.8484      -1272.0254
        48.5004         42.2504
    907920.50046    705382.75443  24150540.1954   24150539.0704      -1065.4744
        40.0004         20.7504
   3472582.49247   2685631.89545  22618484.9774   22618483.6764      -2709.2554
        45.0004         33.5004
 15  7  6 18 47  0.0000000  0  9G11G01G13G15G17G28G30G04G07
   1424903.62547   1103227.34044  23020536.8674   23020533.6094      -1429.5614
        43.5004         27.5004
  -1038688.69547   -802735.14544  23242461.9924   23242463.3204        370.3224
        44.0004         29.2504
   -928507.75048   -711525.28546  21447450.2814   21447446.7114        179.4954
        49.5004         37.0004
  -2643469.27747  -1975763.96544  23707097.9304   23707096.3794       1500.9144
        43.7504         29.2504
  -2807184.12148  -2168162.85946  21046220.0084   21046216.5944       1625.0804
        48.0004         41.0004
    807691.72348    624273.59046  21275812.8754   21275808.0594       -638.5324
        50.0004         40.0004
   1417643.88348   1097837.74246  20875618.2734   20875616.7074      -1285.1424
        50.5004         41.7504
    940427.28146    730712.68843  24156727.1414   24156725.4884      -1083.5594
        40.7504         21.2504
   3554160.62547   2749199.10945  22634009.2034   22634007.7384      -2719.2714
        45.2504         32.7504
 15  7  6 18 47 30.0000000  0  9G11G01G13G15G17G28G30G04G07
   1468339.35947   1137073.33244  23028801.8054   23028798.6094      -1447.8584
        44.5004         28.2504
  -1049268.21547   -810978.86744  23240449.3284   23240450.1684        352.6514
        44.5004         29.0004
   -933269.55548   -715235.80146  21446543.8914   21446540.3984        158.7274
        50.0004         37.2504
  -2688013.23047  -2010473.52344  23698621.7274   23698619.6724       1484.7984
        44.0004         29.7504
  -2855475.75048  -2205792.68046  21037030.6724   21037026.6994       1609.7214
        49.2504         41.5004
    826942.09848    639273.87546  21279475.9924   21279471.0664       -641.6794
        49.0004         39.5004
   1456592.96148   1128187.63346  20883029.7344   20883028.0944      -1298.3034
        50.0004         41.5004
    973476.66446    756465.43843  24163015.6954   24163013.8634      -1101.6464
        41.2504         21.5004
   3636039.32847   2813000.53945  22649590.2814   22649588.4494      -2729.2904
        45.2504         32.2504
 15  7  6 18 48  0.0000000  0  9G11G01G13G15G17G28G30G04G07
   1512321.84847   1171345.38344  23037171.7734   23037168.3284      -1466.0834
        44.0004         28.5004
  -1059317.24246   -818809.24644  23238536.6724   23238537.8794        334.9684
        41.5004         28.7504
   -937409.35248   -718461.63746  21445756.2344   21445752.4734        137.9934
        48.7504         37.7504
  -2732073.34047  -2044806.07045  23690237.3204   23690235.3834       1468.6704
        42.0004         30.2504
  -2903306.61348  -2243063.45746  21027928.6644   21027924.8674       1594.3624
        48.0004         41.7504
    846285.63348    654346.75046  21283156.5394   21283152.0124       -644.7854
        48.5004         39.5004
   1495936.12948   1158844.60947  20890516.5164   20890515.1994      -1311.4394
        50.2504         42.2504
   1007067.31646    782639.93843  24169407.3674   24169406.4494      -1119.6884
        40.0004         21.0004
   3718217.07047   2877034.97745  22665227.7424   22665226.5664      -2739.2584
        44.7504         32.2504
 15  7  6 18 48 30.0000000  0  9G11G01G13G15G17G28G30G04G07
   1556849.31347   1206042.07044  23045645.1724   23045641.6564      -1484.2494
        42.7504         28.0004
  -1068835.16847   -826225.79344  23236726.0474   23236726.9654        317.2644
        42.0004         28.7504
   -940927.61348   -721203.16846  21445086.7974   21445083.0634        117.2754
        50.2504         37.5004
  -2775648.87147  -2078761.01244  23681945.6804   23681943.6724       1452.5184
        43.7504         29.7504
  -2950676.29748  -2279974.88346  21018914.5084   21018911.0354       1578.9894
        48.0004         41.5004
    865720.94148    669491.14146  21286855.2974   21286850.4924       -647.8444
        49.5004         39.7504
   1535673.00048   1189808.35947  20898078.3594   20898076.7424      -1324.5624
        50.5004         42.2504
   1041197.93446    809235.21943  24175901.4224   24175901.2584      -1137.6874
        40.0004         22.2504
   3800692.11347   2941301.09445  22680922.4144   22680921.3714      -2749.1684
        45.5004         31.7504
 15  7  6 18 49  0.0000000  0  9G11G01G13G15G17G28G30G04G07
   1601920.31647   1241162.32444  23054221.8674   23054218.4804      -1502.3674
        43.5004         28.5004
  -1077820.84847   -833227.60944  23235016.4064   23235016.7034        299.5234
        42.5004         29.0004
   -943824.39548   -723460.42646  21444535.3914   21444531.6524         96.5594
        50.2504         37.2504
  -2818738.88747  -2112337.62144  23673745.6094   23673743.4924       1436.3344
        43.2504         29.5004
  -2997584.35948  -2316526.59446  21009987.9774   21009984.3674       1563.6024
        49.0004         41.5004
    885247.58648    684706.70346  21290571.3444   21290566.2814       -650.8884
        49.2504         39.5004
   1575803.68848   1221078.98047  20905715.1094   20905713.3014      -1337.6904
        50.0004         42.0004
   1075867.84046    836250.68443  24182499.8204   24182498.5394      -1155.6644
        40.0004         21.5004
   3883463.59447   3005798.18045  22696673.8834   22696672.5434      -2759.0494
        45.2504         32.0004
 15  7  6 18 49 30.0000000  0  9G11G01G13G15G17G28G30G04G07
   1647534.57847   1276705.87144  23062901.5314   23062898.6524      -1520.4754
        43.7504         26.0004
  -1086272.57047   -839813.34044  23233407.4924   23233408.4844        281.7244
        42.2504         29.2504
   -946099.38748   -725233.16846  21444102.6414   21444098.9654         75.8334
        51.0004         37.0004
  -2861341.34846  -2145534.31644  23665638.5554   23665636.4924       1420.0824
        41.5004         29.7504
  -3044029.52347  -2352717.60946  21001150.0864   21001146.2304       1548.1724
        47.0004         41.5004
    904865.39548    699993.30146  21294304.2194   21294299.7464       -653.9274
        48.0004         39.7504
   1616328.98448   1252657.09046  20913426.4924   20913425.0634      -1350.8434
        49.7504         41.5004
   1111076.91047    863686.29343  24189200.5084   24189198.2894      -1173.6364
        42.0004         20.2504
   3966531.27347   3070526.07845  22712480.9304   22712479.5434      -2768.9234
        45.5004         31.5004
 15  7  6 18 50  0.0000000  0  9G11G01G13G15G17G28G30G04G07
   1693692.74647   1312673.25044  23071685.8754   23071682.6054      -1538.6064
        42.7504         28.5004
  -1094186.98047   -845980.37144  23231901.6564   23231902.5634        263.8144
        44.0004         28.2504
   -947750.23048   -726519.56646  21443788.3594   21443785.0314         55.0284
        49.5004         37.7504
  -2903453.19147  -2178348.71544  23657624.7974   23657622.9694       1403.7284
        43.0004         29.2504
  -3090008.48848  -2388545.35546  20992400.3364   20992396.4384       1532.6324
        48.0004         41.5004
    924575.99648    715352.20746  21298055.0634   21298050.3634       -657.0204
        49.5004         39.5004
   1657251.23448   1284544.51646  20921213.9304   20921212.1644      -1364.0754
        50.0004         41.7504
   1146826.66847    891543.24243  24196003.1024   24196001.5744      -1191.6594
        42.7504         22.2504
   4049896.12547   3135485.53945  22728345.4614   22728343.4184      -2778.8284
        45.5004         31.2504
 15  7  6 18 50 30.0000000  0  9G11G01G13G15G17G28G30G04G07
   1740392.86347   1349062.94144  23080572.8594   23080569.0594      -1556.6714
        43.0004         27.5004
  -1101563.92647   -851728.64144  23230498.3674   23230498.5004        245.8984
        43.7504         29.2504
   -948778.26247   -727320.65646  21443593.0634   21443589.3524         34.2684
        46.5004         37.5004
  -2945074.02047  -2210780.52045  23649704.8204   23649702.3444       1387.3614
        42.0004         30.7504
  -3135521.16847  -2424009.76646  20983739.7194   20983735.6174       1517.0894
        47.7504         41.2504
    944378.09048    730782.39846  21301823.4384   21301818.6994       -660.0704
        49.0004         39.5004
   1698569.50048   1316740.52346  20929076.6254   20929075.1024      -1377.2764
        50.7504         41.5004
   1183115.19947    919819.98043  24202908.8594   24202906.6764      -1209.6184
        43.0004         21.5004
   4133556.75847   3200675.48045  22744264.9454   22744264.0234      -2788.6884
        45.5004         31.5004
 15  7  6 18 51  0.0000000  0  9G11G01G13G15G17G28G30G04G07
   1787636.07847   1385875.81344  23089562.9384   23089558.8834      -1574.7744
        42.5004         28.2504
  -1108399.88347   -857055.33644  23229196.7194   23229197.1454        227.8654
        42.0004         29.0004
   -949180.94548   -727634.45746  21443516.1414   21443512.7424         13.4234
        50.7504         37.7504
  -2986200.30547  -2242826.97345  23641878.7504   23641876.4924       1370.8764
        44.0004         30.0004
  -3180565.22748  -2459109.00846  20975168.2114   20975164.0554       1501.4694
        48.5004         41.5004
    964273.22748    746285.09446  21305609.0944   21305604.5944       -663.1714
        48.5004         39.2504
   1740286.45748   1349247.20746  20937015.0944   20937013.0274      -1390.5654
        50.5004         41.0004
   1219944.41446    948518.03943  24209917.1484   24209915.4534      -1227.6404
        41.5004         21.7504
   4217514.39147   3266096.85545  22760242.0084   22760240.5124      -2798.5884
        45.5004         31.2504
 15  7  6 18 51 30.0000000  0  9G11G01G13G15G17G28G30G04G07
