     2.11           OBSERVATION DATA    G (GPS)             RINEX VERSION / TYPE
teqc  2019Feb25     K Rivera            20250728 23:58:41UTCPGM / RUN BY / DATE
Linux 2.6.32-573.12.1.x86_64|x86_64|gcc -static|Linux 64|=+ COMMENT
teqc  2019Feb25                         20250728 23:54:59UTCCOMMENT
BIT 2 OF LLI FLAGS DATA COLLECTED UNDER A/S CONDITION       COMMENT
GS36                                                        MARKER NAME
                                                            MARKER NUMBER
K Baraggiotta       University of California, Riverside     OBSERVER / AGENCY
0220413532          TRIMBLE R7          2.32                REC # / TYPE / VERS
1441040465          TRM57971.00                             ANT # / TYPE
 -2376964.8697 -4662096.1664  3635504.2814                  APPROX POSITION XYZ
        1.2880        0.0000        0.0000                  ANTENNA: DELTA H/E/N
     1     1                                                WAVELENGTH FACT L1/2
     7    L1    L2    C1    P1    P2    S1    S2            # / TYPES OF OBSERV
    18                                                      LEAP SECONDS
 SNR is mapped to RINEX snr flag value [0-9]                COMMENT
  L1 & L2: min(max(int(snr_dBHz/6), 0), 9)                  COMMENT
  2025     7    16     0     0   30.0000000     GPS         TIME OF FIRST OBS
                                                            END OF HEADER
 25  7 16  0  0 30.0000000  0 10G10G03G25G04G26G32G02G28G31G01
-105522760.83656 -82167575.06255  24099819.2344                   24099819.5984
        37.5004         32.0004
 -67124543.51257 -53159950.77057  21537318.6564                   21537315.6954
        46.7504         44.0004
 -45247382.96556 -35183159.02754  24343815.6564                   24343814.0124
        38.0004         25.7504
 -42990016.39556 -33351133.91854  23155021.1484                   23155018.0164
        41.2504         27.0004
 -37186724.44956 -28894155.32055  23299340.4534                   23299340.1724
        40.5004         34.7504
-109548700.43457 -85293013.31656  23435745.5704                   23435743.3364
        43.5004         37.7504
-138029741.66857-107421533.35256  21846041.7034                   21846034.8714
        45.7504         36.0004
-135980845.57457-104634757.41856  21255135.1254                   21255129.7424
        46.2504         36.5004
-113778360.48058 -88581202.07458  19991253.5084                   19991247.8914
        48.7504         49.5004
-100979997.28157 -77820138.66456  20990861.7664                   20990857.1954
        45.0004         36.5004
 25  7 16  0  1  0.0000000  0 10G10G03G25G04G26G32G02G28G31G01
-104122655.71946 -81076584.18745  24366250.8134                   24366250.3134
        37.0004         30.0004
 -65888882.13347 -52197097.71147  21772457.2734                   21772454.5124
        46.5004         44.0004
 -43902952.41446 -34135550.80144  24599651.6804                   24599650.8404
        37.0004         26.7504
 -41744638.95346 -32380709.87144  23392007.8914                   23392005.6254
        40.7504         27.0004
 -35960817.77046 -27938903.26645  23532623.0634                   23532622.1524
        39.5004         34.2504
-108166791.60547 -84216201.28946  23698714.7034                   23698712.4344
        44.0004         38.0004
-136661129.93047-106355082.67245  22106479.8134                   22106472.9774
        46.2504         35.5004
-134611862.53947-103568017.39846  21515644.0234                   21515638.8554
        46.0004         36.7504
-112472255.28947 -87563457.76248  20239797.1724                   20239790.9264
        47.7504         49.5004
 -99667811.82447 -76797656.49646  21240562.4614                   21240557.5634
        46.7504         36.0004
 25  7 16  0  1 30.0000000  0 10G10G03G25G04G26G32G02G28G31G01
-104297747.79346 -81213019.68045  24332931.9844                   24332931.5394
        37.7504         30.5004
 -66228464.67247 -52461707.44547  21707836.5234                   21707834.0204
        46.5004         44.0004
 -44133401.44546 -34315121.47344  24555799.2344                   24555797.8204
        38.0004         26.5004
 -42074548.23846 -32637781.98044  23329228.6174                   23329225.3714
        40.7504         27.2504
 -36310187.58246 -28211139.38745  23466140.0864                   23466139.4344
        40.0004         34.7504
-108360277.81247 -84366969.80946  23661895.4064                   23661892.8984
        44.2504         37.0004
-136867538.44947-106515920.51246  22067201.6804                   22067194.8874
        46.0004         36.0004
-134817848.31247-103728525.80946  21476446.3284                   21476440.8094
        45.7504         37.2504
-112740944.96547 -87772826.33248  20188667.0234                   20188661.0514
        47.5004         49.7504
 -99930452.82047 -77002311.82846  21190583.7034                   21190578.9414
        45.2504         36.0004
 25  7 16  0  2  0.0000000  0 10G10G03G25G04G26G32G02G28G31G01
-104472615.18746 -81349280.10544  24299655.9144                   24299655.5314
        37.5004         29.5004
 -66567860.79347 -52726171.91047  21643251.3054                   21643248.8094
        46.7504         44.2504
 -44363306.00846 -34494267.91443  24512049.9224                   24512048.6684
        36.5004         23.5004
 -42404316.31246 -32894744.01644  23266475.2504                   23266472.5274
        41.0004         28.0004
 -36659402.02346 -28483254.44145  23399686.4454                   23399685.8634
        39.7504         34.2504
-108553735.86747 -84517716.39546  23625081.4924                   23625079.0904
        44.0004         37.0004
-137073546.13747-106676446.02046  22027999.6484                   22027993.0664
        46.0004         36.0004
-135023381.27047-103888681.36746  21437334.6334                   21437329.5084
        46.0004         37.2504
-113009003.97347 -87981703.47748  20137657.1564                   20137651.0944
        47.0004         49.5004
-100192494.50447 -77206500.16046  21140718.8204                   21140713.9734
        45.7504         36.0004
 25  7 16  0  2 30.0000000  0 10G10G03G25G04G26G32G02G28G31G01
-104647258.28946 -81485365.71944  24266421.9064                   24266421.5904
        37.5004         28.7504
 -66907068.00847 -52990489.18047  21578702.0394                   21578699.9804
        46.0004         44.0004
 -44592666.29746 -34672990.23844  24468403.7734                   24468402.5314
        37.5004         26.2504
 -42733943.00046 -33151595.91444  23203748.8204                   23203746.8954
        39.0004         27.5004
 -37008457.42646 -28755245.58645  23333263.5004                   23333262.6414
        39.0004         33.7504
-108747165.73047 -84668440.98446  23588273.0164                   23588270.6604
        44.0004         37.5004
-137279154.43447-106836660.32046  21988874.1564                   21988867.3164
        45.5004         36.0004
-135228463.35247-104048485.59846  21398308.7274                   21398303.6024
        45.5004         37.0004
-113276432.08647 -88190089.01248  20086767.4844                   20086761.4774
        46.7504         49.7504
-100453936.62547 -77410221.29746  21090968.0084                   21090963.1374
        46.2504         36.2504
 25  7 16  0  3  0.0000000  0 10G10G03G25G04G26G32G02G28G31G01
-104821678.72746 -81621277.83244  24233231.5164                   24233231.0274
        37.7504         29.0004
 -67246085.05547 -53254658.27047  21514189.5314                   21514186.9494
        46.2504         44.5004
 -44821483.94146 -34851289.78544  24424861.8594                   24424860.3164
        37.2504         25.5004
 -43063429.13346 -33408338.28544  23141050.0554                   23141047.7464
        40.7504         28.5004
 -37357351.39146 -29027110.92245  23266870.1174                   23266870.4534
        39.5004         34.0004
-108940568.37547 -84819144.37546  23551469.7194                   23551467.3244
        44.0004         37.0004
-137484366.10547-106996565.55946  21949823.2194                   21949816.7624
        44.7504         36.0004
-135433097.55947-104207940.83646  21359368.4844                   21359363.2304
        45.0004         36.0004
-113543230.52747 -88397983.89848  20035996.9844                   20035990.9024
        46.2504         49.7504
-100714780.00847 -77613475.89146  21041331.0164                   21041326.1724
        46.0004         36.0004
 25  7 16  0  3 30.0000000  0 10G10G03G25G04G26G32G02G28G31G01
-104995872.83646 -81757013.60944  24200083.8054                   24200083.1484
        39.2504         29.5004
 -67584905.31647 -53518674.02347  21449714.5084                   21449711.6294
        46.5004         44.5004
 -45049754.61746 -35029162.98844  24381422.3364                   24381421.9304
        36.2504         24.7504
 -43392770.28146 -33664967.68044  23078378.9454                   23078375.3244
        40.7504         27.0004
 -37706076.00046 -29298844.29345  23200509.8834                   23200510.3754
        39.0004         33.5004
-109133939.52747 -84969823.24646  23514672.4534                   23514670.5634
        44.2504         37.5004
-137689178.90247-107156159.98845  21910848.5784                   21910841.8524
        45.7504         35.7504
-135637281.57847-104367045.28146  21320513.1484                   21320508.3634
        44.5004         37.0004
-113809395.31247 -88605385.02048  19985347.7664                   19985342.2304
        46.2504         49.7504
-100975020.28147 -77816260.52746  20991808.8754                   20991804.1414
        46.5004         36.2504
 25  7 16  0  4  0.0000000  0 10G10G03G25G04G26G32G02G28G31G01
-103594414.16846 -80664967.99644  24466773.0474                   24466771.6724
        39.7504         29.5004
 -66348093.91447 -52554924.85247  21685071.4844                   21685068.5664
        46.5004         44.2504
 -43702050.39846 -33979003.88344  24637882.0554                   24637881.7344
        36.7504         24.5004
 -42146533.98847 -32693874.37544  23315530.0394                   23315526.4454
        43.0004         27.5004
 -36479194.99246 -28342833.02345  23433978.0394                   23433977.5004
        39.0004         33.2504
-107751851.50447 -83892871.58646  23777675.4694                   23777672.7074
        43.5004         36.7504
-136318166.69547-106087838.84446  22171743.7974                   22171737.2934
        46.5004         36.0004
-134265589.44147-103298194.27746  21581537.0394                   21581532.1454
        45.5004         36.5004
-112499496.07848 -87584684.31248  20234613.0394                   20234607.2344
        48.0004         49.7504
 -99659227.43447 -76790967.41046  21242196.2034                   21242191.2194
        45.0004         36.2504
 25  7 16  0  4 30.0000000  0 10G10G03G25G04G26G32G02G28G31G01
-103768148.98046 -80800345.87545  24433712.6644                   24433711.2034
        40.2504         31.0004
 -66686505.12947 -52818621.87547  21620673.9304                   21620671.4304
        46.5004         44.2504
 -43929220.75846 -34156019.74644  24594653.1484                   24594652.1524
        37.2504         26.2504
 -42475576.10947 -32950270.76644  23252914.8674                   23252911.8244
        42.0004         26.2504
 -36827562.05946 -28614287.80145  23367685.6884                   23367685.1174
        39.5004         32.5004
-107945151.14847 -84043494.73046  23740891.2114                   23740889.1174
        44.2504         36.7504
-136522178.73047-106246809.30146  22132921.7894                   22132915.0984
        45.5004         36.0004
-134468870.72747-103456595.28946  21542854.2504                   21542849.3754
        46.5004         37.0004
-112764384.74647 -87791091.06248  20184206.8594                   20184200.7854
        47.2504         49.7504
 -99918252.66047 -76992805.24645  21192905.4454                   21192900.7344
        45.7504         35.7504
 25  7 16  0  5  0.0000000  0 10G10G03G25G04G26G32G02G28G31G01
-103941649.97746 -80935541.53545  24400696.4304                   24400695.9104
        40.2504         31.0004
 -67024703.23047 -53082152.83247  21556317.2974                   21556314.3404
        47.0004         45.0004
 -44155836.61345 -34332603.53544  24551528.8754                   24551528.7424
        35.7504         27.0004
 -42804463.55946 -33206546.62144  23190329.6414                   23190326.5594
        41.2504         27.0004
 -37175740.03546 -28885595.20745  23301429.7504                   23301429.5084
        38.7504         32.2504
-108138409.98447 -84194086.05946  23704115.9454                   23704113.0984
        43.2504         37.0004
-136725788.35947-106405466.19946  22094176.2664                   22094169.4844
        46.2504         36.2504
-134671698.66847-103614643.05146  21504257.3444                   21504252.3634
        46.0004         37.0004
-113028630.78947 -87996997.06648  20133922.3754                   20133916.2544
        46.7504         50.0004
-100176665.27047 -77194165.72746  21143730.8444                   21143726.3914
        47.5004         36.0004
 25  7 16  0  5 30.0000000  0 10G10G03G25G04G26G32G02G28G31G01
-104114920.59846 -81070557.68445  24367723.3134                   24367722.6024
        40.0004         30.7504
 -67362688.62547 -53345518.04747  21492000.3444                   21491998.1844
        47.0004         44.7504
 -44381901.25046 -34508757.79344  24508511.0314                   24508510.6484
        36.7504         26.7504
 -43133198.76646 -33462703.84044  23127773.2814                   23127770.4534
        41.0004         27.5004
 -37523728.14146 -29156754.69145  23235209.1804                   23235209.4454
        37.5004         31.5004
-108331630.71547 -84344647.69546  23667346.7194                   23667344.3364
        43.0004         36.2504
-136928999.57847-106563812.64146  22055506.2584                   22055499.5664
        46.0004         36.2504
-134874078.01247-103772341.25846  21465746.0394                   21465740.8594
        45.7504         36.7504
-113292236.71547 -88202404.27748  20083760.1644                   20083753.5314
        46.7504         49.7504
-100434467.89147 -77395050.89846  21094672.9844                   21094668.0164
        47.5004         36.5004
 25  7 16  0  6  0.0000000  0 10G10G03G25G04G26G32G02G28G31G01
-104287966.90646 -81205399.07045  24334794.0314                   24334793.5354
        39.7504         31.2504
 -67700464.41447 -53608719.93447  21427724.2664                   21427720.9694
        47.0004         44.7504
 -44607420.65646 -34684487.20744  24465596.6954                   24465594.9184
        36.7504         26.7504
 -43461787.15246 -33718746.67244  23065244.1724                   23065242.2194
        41.0004         27.5004
 -37871528.25046 -29427767.66845  23169025.9694                   23169024.6454
        40.2504         32.0004
-108524818.76647 -84495183.88346  23630583.9774                   23630582.0004
        42.5004         36.0004
-137131820.53547-106721854.98845  22016910.7504                   22016903.9614
        45.2504         35.7504
-135076016.32847-103929695.79746  21427318.5234                   21427313.0314
        45.2504         37.0004
-113555208.61747 -88407317.44148  20033718.0084                   20033711.8594
        47.2504         50.0004
-100691666.04347 -77595465.04746  21045729.7664                   21045724.8674
        47.5004         36.0004
 25  7 16  0  6 30.0000000  0 10G10G03G25G04G26G32G02G28G31G01
-104460786.94146 -81340064.11745  24301907.6644                   24301907.0314
        37.5004         30.2504
 -68038025.53947 -53871754.54347  21363488.2344                   21363485.2774
        46.5004         44.7504
 -44832392.66445 -34859790.09044  24422785.3834                   24422784.6334
        35.2504         25.7504
 -43790225.84047 -33974672.84044  23002745.8284                   23002742.3404
        42.2504         26.5004
 -38219134.27346 -29698629.45345  23102878.6884                   23102877.7664
        39.2504         32.0004
-108717971.37147 -84645692.45346  23593828.6174                   23593826.7424
        42.7504         37.0004
-137334250.26247-106879592.48846  21978389.4454                   21978383.0394
        47.2504         36.2504
-135277512.94547-104086706.16446  21388974.6334                   21388969.7814
        46.0004         36.5004
-113817544.00447 -88611734.61348  19983797.3054                   19983791.3674
        47.5004         49.7504
-100948257.02347 -77795406.08246  20996902.1484                   20996897.3014
        46.7504         36.0004
 25  7 16  0  7  0.0000000  0 10G10G03G25G04G26G32G02G28G31G01
-103057958.53946 -80246951.19144  24568856.9384                   24568856.5044
        37.7504         29.0004
 -66799941.39847 -52907013.61747  21599087.8674                   21599084.8404
        47.2504         45.2504
 -43481393.52046 -33807063.50444  24679871.9454                   24679870.9654
        36.0004         25.0004
 -42543086.78946 -33002876.12144  23240067.3134                   23240065.3014
        41.5004         28.0004
 -36991114.03946 -28741730.48845  23336563.2344                   23336561.8444
        39.0004         32.7504
-107335665.08647 -83568570.72746  23856873.2584                   23856870.7194
        42.5004         37.0004
-135960866.93747-105809423.70745  22239735.9774                   22239729.3984
        47.2504         35.7504
-133903146.28147-103015771.11746  21650508.2894                   21650503.2034
        46.0004         36.5004
-112503817.58648 -87588051.68448  20233791.0474                   20233785.0234
        48.0004         49.7504
 -99628815.39147 -76767269.75046  21247983.2734                   21247978.8754
        47.0004         36.5004
 25  7 16  0  7 30.0000000  0 10G10G03G25G04G26G32G02G28G31G01
-103230330.57446 -80381267.19544  24536055.9144                   24536055.3554
        37.5004         28.7504
 -67137068.73447 -53169710.21547  21534934.4614                   21534931.6054
        47.0004         45.5004
 -43705275.34845 -33981516.88743  24637268.7974                   24637267.6174
        35.7504         23.7504
 -42871228.33246 -33258570.75044  23177623.8524                   23177621.3444
        41.5004         26.7504
 -37338323.78546 -29012283.48045  23270491.1484                   23270490.0824
        39.7504         33.0004
-107528749.39846 -83719026.07046  23820130.2424                   23820127.9064
        41.7504         36.5004
-136162522.47347-105966557.94146  22201362.6724                   22201355.5634
        45.5004         36.0004
-134103768.41047-103172100.07046  21612331.1334                   21612325.9574
        45.2504         36.2504
-112764883.53947 -87791479.69548  20184111.5554                   20184105.6294
        47.0004         49.7504
 -99884194.91047 -76966266.79346  21199386.4144                   21199381.7704
        47.5004         36.5004
 25  7 16  0  8  0.0000000  0 10G10G03G25G04G26G32G02G28G31G01
-103402478.85946 -80515408.83244  24503296.9144                   24503296.4884
        37.7504         29.2504
 -67473974.80947 -53432234.41047  21470823.4064                   21470820.9344
        47.7504         45.7504
 -43928612.27045 -34155545.71144  24594768.2114                   24594768.1374
        35.5004         24.2504
 -43199220.33247 -33514148.84444  23115209.5084                   23115206.7234
        42.2504         28.5004
 -37685329.40646 -29282677.38745  23204457.7734                   23204457.3874
        39.2504         33.2504
-107721798.67647 -83869454.12546  23783394.2194                   23783391.9304
        42.5004         36.0004
-136363793.34047-106123392.43046  22163061.5004                   22163054.7424
        45.5004         36.0004
-134303955.68447-103328090.17646  21574236.9224                   21574232.3444
        46.5004         36.5004
-113025314.30947 -87994412.76248  20134553.7194                   20134547.6294
        47.2504         49.7504
-100138968.03547 -77164791.31646  21150904.4694                   21150900.0124
        47.7504         36.2504
 25  7 16  0  8 30.0000000  0 10G10G03G25G04G26G32G02G28G31G01
-103574403.03146 -80649375.83644  24470580.8444                   24470580.6804
        37.0004         29.0004
 -67810656.21947 -53694583.53147  21406755.1804                   21406752.5164
        47.5004         45.7504
 -44151403.91046 -34329149.59443  24552373.7034                   24552372.3404
        37.5004         22.7504
 -43527061.65646 -33769609.55144  23052823.2664                   23052820.4024
        41.5004         27.5004
 -38032126.28946 -29552908.66445  23138465.0314                   23138463.9494
        39.5004         34.0004
-107914811.78547 -84019854.00446  23746665.2584                   23746662.9804
        43.0004         36.7504
-136564680.25447-106279927.73045  22124834.5084                   22124827.5044
        46.0004         35.5004
-134503709.15647-103483742.25046  21536225.1094                   21536219.9884
        46.0004         36.5004
-113285109.42647 -88196850.51648  20085116.2344                   20085109.9574
        46.5004         49.7504
-100393133.89547 -77362842.64846  21102538.5704                   21102533.8134
        47.2504         36.2504
 25  7 16  0  9  0.0000000  0 10G10G03G25G04G26G32G02G28G31G01
-103746102.94146 -80783168.08244  24437907.5634                   24437907.8524
        37.7504         29.7504
 -68147109.56247 -53956754.94147  21342729.9224                   21342727.2624
        47.2504         45.7504
 -44373649.89846 -34502328.26243  24510081.4774                   24510080.5864
        36.0004         22.7504
 -43854751.09046 -34024951.90644  22990466.1484                   22990462.6644
        41.2504         27.2504
 -38378709.92246 -29822973.74645  23072512.2034                   23072511.0864
        39.2504         34.2504
-108107787.74247 -84170224.93446  23709943.3914                   23709941.6564
        43.0004         36.7504
-136765184.30147-106436164.70345  22086679.7274                   22086672.9774
        45.5004         35.5004
-134703029.87947-103639057.11346  21498295.3834                   21498290.3404
        46.0004         36.2504
-113544268.18448 -88398792.40648  20035799.8524                   20035793.6804
        48.0004         49.7504
-100646691.65648 -77560420.14146  21054288.1644                   21054283.6334
        48.0004         36.5004
 25  7 16  0  9 30.0000000  0 10G10G03G25G04G26G32G02G28G31G01
-103917581.87146 -80916788.12944  24405276.5314                   24405276.2344
        37.7504         28.7504
 -68483335.20747 -54218748.92647  21278748.7034                   21278745.9224
        47.2504         46.0004
 -44595353.77045 -34675084.52043  24467891.9304                   24467891.3914
        35.5004         22.7504
 -44182291.31646 -34280178.00444  22928137.6724                   22928134.1604
        41.0004         27.7504
 -38725079.57446 -30092872.09445  23006600.1094                   23006599.3984
        41.0004         35.2504
-108300729.17647 -84320568.95346  23673227.2974                   23673225.3714
        43.2504         36.5004
-136965310.21147-106592107.00845  22048596.7114                   22048590.1954
        45.5004         35.0004
-134901922.76247-103794038.59445  21460447.1024                   21460442.5084
        46.0004         35.7504
-113802793.42648 -88600240.64548  19986603.9304                   19986597.8554
        48.5004         50.0004
-100899644.26247 -77757526.07846  21006152.9224                   21006148.0164
        47.7504         37.0004
 25  7 16  0 10  0.0000000  0 10G10G03G25G04G26G32G02G28G31G01
-102513413.16446 -79822630.79444  24672481.2114                   24672480.6564
        38.2504         29.2504
 -67243897.73848 -53252953.46947  21514606.0784                   21514603.1294
        48.0004         46.5004
 -43241087.05145 -33619811.75043  24725600.6024                   24725600.2194
        35.7504         22.7504
 -42934249.52747 -33307677.85544  23165631.5234                   23165628.5514
        43.0004         27.2504
 -37495798.40646 -29134990.59046  23240524.6724                   23240523.7304
        41.2504         36.0004
-106918207.83247 -83243279.64146  23936312.1414                   23936310.1564
        42.5004         36.2504
-135589631.59847-105520149.68445  22310379.8594                   22310373.2854
        45.0004         35.0004
-133524961.52347-102721081.80546  21722474.7274                   21722469.2194
        46.2504         36.2504
-112485255.72347 -87573587.88348  20237323.2504                   20237317.4804
        46.7504         49.7504
 -99576561.69147 -76726552.66446  21257927.0314                   21257922.3834
        47.0004         36.5004
 25  7 16  0 10 30.0000000  0 10G10G03G25G04G26G32G02G28G31G01
-102684447.31646 -79955904.26244  24639934.3444                   24639934.3874
        37.7504         29.7504
 -67579655.57447 -53514582.93047  21450712.9694                   21450710.2424
        47.7504         46.0004
 -43461703.78945 -33791720.92243  24683619.0864                   24683618.3984
        35.2504         22.5004
 -43261485.78547 -33562667.09444  23103360.4924                   23103357.0354
        43.5004         27.2504
 -37841724.36746 -29404543.22346  23174697.1644                   23174695.6524
        41.5004         36.2504
-107111074.85547 -83393565.68746  23899611.5554                   23899609.2974
        42.2504         36.5004
-135789002.38347-105675503.57845  22272440.7584                   22272434.2074
        45.0004         34.0004
-133722999.99647-102875397.51646  21684789.1024                   21684783.8954
        46.0004         36.2504
-112742511.19947 -87774046.69548  20188369.3134                   20188362.6804
        46.2504         49.7504
 -99828299.47347 -76922711.98846  21210022.9534                   21210018.1254
        47.7504         36.5004
 25  7 16  0 11  0.0000000  0 10G10G03G25G04G26G32G02G28G31G01
-102855261.80546 -80089006.54745  24607429.8834                   24607429.6844
        39.2504         30.5004
 -67915177.53948 -53776028.59847  21386865.2274                   21386862.3594
        48.0004         46.0004
 -43681779.66846 -33963208.63343  24641739.8984                   24641738.6334
        37.0004         22.7504
 -43588571.50447 -33817539.02344  23041118.2664                   23041115.0864
        42.2504         28.5004
 -38187424.77346 -29673920.10946  23108912.3444                   23108910.6524
        41.5004         37.0004
-107303906.18446 -83543823.91446  23862916.9774                   23862914.7854
        41.7504         37.2504
-135988000.26647-105830566.90645  22234572.8134                   22234565.9264
        45.5004         34.2504
-133920616.05547-103029384.06246  21647184.0634                   21647179.1294
        46.0004         36.2504
-112999133.92648 -87974012.45748  20139535.6804                   20139529.5164
        48.0004         49.7504
-100079431.81247 -77118399.54746  21162234.1724                   21162229.1484
        47.5004         37.2504
 25  7 16  0 11 30.0000000  0 10G10G03G25G04G26G32G02G28G31G01
-103025851.22346 -80221933.46945  24574967.6174                   24574968.1804
        37.5004         30.0004
 -68250455.00448 -54037283.74247  21323064.6484                   21323061.5824
        48.0004         46.0004
 -43901309.46145 -34134270.83243  24599964.7424                   24599963.7464
        35.5004         22.7504
 -43915500.32047 -34072288.69544  22978906.2504                   22978902.5164
        43.5004         27.0004
 -38532890.01247 -29943113.74246  23043172.6644                   23043171.6994
        42.0004         36.2504
-107496695.52347 -83694049.43046  23826230.6334                   23826228.2854
        42.0004         37.7504
-136186621.14547-105985336.45345  22196776.7034                   22196770.0314
        44.5004         34.7504
-134117805.70747-103183038.35546  21609660.0704                   21609655.2504
        45.7504         36.5004
-113255118.17247 -88173480.69548  20090823.0864                   20090817.0004
        47.7504         49.5004
-100329952.90648 -77313610.80946  21114561.5394                   21114557.0164
        48.0004         36.7504
 25  7 16  0 12  0.0000000  0 10G10G03G25G04G26G32G02G28G31G01
-103196208.00846 -80354679.12145  24542549.6024                   24542549.6604
        38.5004         32.7504
 -68585477.25847 -54298340.02047  21259311.3984                   21259308.6214
        47.5004         46.0004
 -44120285.60545 -34304901.60243  24558295.2814                   24558293.9384
        35.2504         22.5004
 -44242263.89146 -34326909.60544  22916723.8984                   22916721.0234
        41.7504         27.5004
 -38878108.16447 -30212114.83646  22977479.8204                   22977478.3794
        42.0004         36.2504
-107689434.48446 -83844235.69146  23789553.3054                   23789551.2544
        41.5004         37.5004
-136384858.43447-106139807.10945  22159053.3364                   22159046.5664
        45.0004         34.5004
-134314562.76647-103336355.55546  21572217.9534                   21572213.3674
        46.2504         36.2504
-113510456.43747 -88372445.57848  20042233.9224                   20042227.9734
        47.0004         49.7504
-100579854.69947 -77508339.50446  21067006.7664                   21067002.6054
        47.5004         36.7504
 25  7 16  0 12 30.0000000  0 10G10G03G25G04G26G32G02G28G31G01
-103366334.87946 -80487245.61745  24510175.2894                   24510175.7234
        37.7504         31.0004
 -68920243.82447 -54559197.06247  21195607.4534                   21195605.0204
        47.2504         46.0004
 -44338710.82445 -34475103.07443  24516730.6884                   24516728.5824
        34.7504         22.0004
 -44568863.97347 -34581403.11744  22854574.6484                   22854571.2114
        43.2504         27.7504
 -39223077.73046 -30480922.23046  22911834.1414                   22911833.5474
        41.2504         36.7504
-107882124.84046 -83994384.08646  23752885.4774                   23752883.5744
        41.0004         37.0004
-136582716.54747-106293982.32045  22121402.4384                   22121395.4534
        45.2504         34.5004
-134510891.35547-103489338.89546  21534858.2504                   21534853.1564
        45.7504         36.0004
-113765151.13747 -88570908.98048  19993767.0084                   19993761.2194
        47.7504         49.7504
-100829139.53148 -77702587.44146  21019569.2424                   21019565.0664
        48.0004         36.7504
 25  7 16  0 13  0.0000000  0 10G10G03G25G04G26G32G02G28G31G01
-101960811.57046 -79392032.79745  24777638.6954                   24777638.3444
        37.2504         31.7504
 -67679325.69547 -53592247.84447  21431746.5864                   21431743.8594
        47.5004         46.2504
 -42981163.44145 -33417273.94143  24775062.7974                   24775062.0664
        34.2504         21.5004
 -43319874.24647 -33608164.32844  23092249.6724                   23092246.4184
        42.7504         28.5004
 -37992368.27046 -29521927.78146  23146030.8914                   23146029.2584
        41.5004         36.5004
-106499344.68046 -82916893.12946  24016020.3444                   24016017.9534
        41.5004         36.5004
-135204775.63347-105220262.18445  22383615.8984                   22383609.3284
        45.0004         34.2504
-133131371.70747-102414388.54346  21797372.3284                   21797367.2034
        45.7504         36.0004
-112443778.85247 -87541268.23448  20245215.8444                   20245209.6884
        47.5004         49.7504
 -99502384.07447 -76668752.03946  21272042.6174                   21272037.6844
        47.5004         37.0004
 25  7 16  0 13 30.0000000  0 10G10G03G25G04G26G32G02G28G31G01
-102130492.37146 -79524251.70745  24745349.7114                   24745348.9844
        37.5004         31.5004
 -68013584.89147 -53852709.53547  21368138.6334                   21368136.3634
        47.5004         46.0004
 -43198501.00045 -33586627.90643  24733704.1174                   24733703.5434
        33.0004         20.7504
 -43646158.50047 -33862411.74644  23030159.0554                   23030156.7304
        43.0004         28.0004
 -38336841.46146 -29790348.38346  23080478.6094                   23080478.2074
        40.5004         37.5004
-106691948.98847 -83066974.46546  23979368.8364                   23979366.3404
        43.0004         36.5004
-135401893.18747-105373860.32845  22346105.4224                   22346098.8914
        46.0004         34.5004
-133326861.23847-102566718.06245  21760171.9064                   21760166.7894
        46.5004         35.7504
-112697199.60948 -87738738.94548  20196991.6724                   20196985.4024
        48.7504         49.5004
 -99750447.46147 -76862048.21146  21224837.5634                   21224833.3134
        47.7504         36.7504
 25  7 16  0 14  0.0000000  0 10G10G03G25G04G26G32G02G28G31G01
-102299954.26646 -79656300.09845  24713101.3754                   24713101.7704
        36.0004         30.5004
 -68347589.73847 -54112973.02747  21304580.1254                   21304577.0634
        46.5004         46.0004
 -43415299.13345 -33755561.51643  24692449.4144                   24692448.3634
        33.5004         19.5004
 -43972287.62947 -34116538.29744  22968099.1724                   22968096.1414
        43.0004         27.5004
 -38681064.20346 -30058573.82846  23014975.9614                   23014974.6884
        41.2504         37.5004
-106884512.98447 -83217024.38346  23942725.1254                   23942722.9454
        43.7504         36.7504
-135598646.44147-105527174.62145  22308664.5084                   22308658.5164
        45.5004         34.2504
-133521937.49247-102718725.55546  21723049.9534                   21723044.7274
        45.5004         36.0004
-112949987.22348 -87935716.30948  20148887.5704                   20148881.5004
        48.2504         49.7504
 -99997903.74247 -77054871.30546  21177748.4694                   21177743.9454
        47.2504         36.2504
 25  7 16  0 14 30.0000000  0 10G10G03G25G04G26G32G02G28G31G01
-102469199.66046 -79788179.75445  24680895.2504                   24680895.4414
        36.5004         30.2504
 -68681339.37147 -54373037.65647  21241069.3284                   21241066.4964
        47.0004         46.0004
 -43631560.14545 -33924076.59443  24651295.7734                   24651296.0164
        33.0004         19.5004
 -44298263.01247 -34370545.06644  22906068.0634                   22906064.7074
        43.0004         27.5004
 -39025034.44546 -30326602.51646  22949520.3524                   22949519.2704
        40.2504         37.5004
-107077038.22747 -83367044.10246  23906088.5394                   23906086.6134
        42.5004         36.7504
-135795039.24247-105680208.03145  22271292.4304                   22271286.2074
        44.5004         34.7504
-133716604.15247-102870413.88345  21686006.1954                   21686001.2814
        45.0004         35.5004
-113202144.03148 -88132202.13748  20100903.9844                   20100897.6024
        48.7504         49.5004
-100244754.86347 -77247222.84446  21130773.9534                   21130769.5594
        47.5004         37.0004
 25  7 16  0 15  0.0000000  0 11G16G10G03G25G04G26G32G02G28G31G01
   7393152.77716                  25101014.664
        37.250
-102638225.45345 -79919888.29744  24648729.5394                   24648731.0274
        34.5004         29.5004
 -69014827.45747 -54632898.47747  21177608.6884                   21177605.8634
        47.0004         46.2504
 -43847281.37945 -34092171.07443  24610245.5704                   24610245.2624
        33.0004         19.0004
 -44624080.77347 -34624428.98444  22844066.8984                   22844063.6994
        43.0004         27.7504
 -39368744.94946 -30594428.81246  22884114.1954                   22884112.9804
        41.0004         37.0004
-107269520.62547 -83517030.46146  23869460.6334                   23869458.5314
        42.2504         36.0004
-135991069.69947-105832959.09445  22233989.0704                   22233982.3754
        46.5004         35.0004
-133910859.64547-103021781.81245  21649040.6644                   21649035.4694
        45.7504         34.7504
-113453666.91848 -88328193.99248  20053040.9774                   20053034.6024
        48.0004         49.7504
-100490997.53947 -77439100.28146  21083915.7894                   21083911.0274
        47.5004         36.5004
 25  7 16  0 15 30.0000000  0 11G16G10G03G25G04G26G32G02G28G31G01
   7033534.344 6                  25032582.211
        36.500
-102807041.30546 -80051433.25045  24616606.4454                   24616606.6024
        38.0004         32.0004
 -69348060.27747 -54892560.39847  21114197.0634                   21114193.5354
        47.0004         46.2504
 -44062472.50445 -34259852.43043  24569295.7504                   24569296.2274
        31.5004         20.5004
 -44949749.55147 -34878196.82844  22782094.6254                   22782090.8674
        43.2504         27.7504
 -39712200.84046 -30862056.72346  22818756.4144                   22818755.5864
        40.0004         37.2504
-107461968.83246 -83666990.18745  23832839.2424                   23832837.1334
        41.7504         35.7504
-136186748.70747-105985436.30145  22196752.4774                   22196746.2464
        46.7504         35.0004
-134104714.88347-103172837.86745  21612151.3674                   21612146.3554
        46.0004         35.5004
-113704565.20748 -88523699.14848  20005296.1804                   20005290.5514
        48.7504         49.5004
-100736640.99647 -77630510.78946  21037171.3914                   21037166.8134
        47.0004         36.5004
 25  7 16  0 16  0.0000000  0 11G16G10G03G25G04G26G32G02G28G31G01
   8249183.51646   7166493.12952  25263912.9454                   25263910.6764
        38.0004         16.7504
-101400232.02746 -78955218.35245  24884313.0234                   24884313.3014
        38.7504         31.7504
 -68105613.94147 -53924420.38347  21350626.2734                   21350623.6254
        47.5004         46.5004
 -42701717.04745 -33199523.51243  24828240.0164                   24828238.3404
        32.0004         19.7504
 -43699847.98047 -33904247.50444  23019941.7584                   23019939.3014
        42.2504         27.0004
 -38479976.87146 -29901882.14546  23053240.9224                   23053240.3874
        40.5004         36.5004
-106078965.94146 -82589325.66046  24096016.2894                   24096014.0164
        41.7504         36.7504
-134806661.62947-104910043.82445  22459374.3444                   22459367.8164
        46.2504         34.5004
-132722755.28547-102095986.25045  21875128.8134                   21875124.0744
        46.2504         35.5004
-112379421.35248 -87491119.52348  20257462.9924                   20257456.7734
        48.0004         49.5004
 -99406267.23447 -76593855.92646  21290332.8134                   21290328.6254
        47.7504         36.2504
 25  7 16  0 16 30.0000000  0 11G16G10G03G25G04G26G32G02G28G31G01
   7889241.84046   6886019.40642  25195417.9064                   25195417.2304
        38.5004         15.5004
-101568646.93746 -79086450.87945  24852265.2814                   24852265.8634
        39.0004         32.2504
 -68438345.37947 -54183691.61747  21287309.8524                   21287307.0744
        47.5004         46.2504
 -42915867.48855 -33366394.01253  24787488.4454                   24787487.2774
        31.5004         19.5004
 -44025234.91047 -34157795.71944  22958023.0634                   22958020.2774
        42.7504         27.5004
 -38822929.64146 -30169118.02346  22987979.5084                   22987977.9884
        41.0004         36.5004
-106271361.82847 -82739244.59446  24059404.1884                   24059401.9774
        43.0004         36.0004
-135001660.94947-105061991.39845  22422267.6884                   22422261.0904
        46.0004         35.0004
-132915833.09047-102246436.51245  21838387.8754                   21838382.6454
        46.5004         35.5004
-112629089.69548 -87685666.28148  20209952.5784                   20209946.2814
        48.5004         49.5004
 -99650730.36747 -76784346.69946  21243813.3524                   21243808.8204
        46.5004         36.5004
 25  7 16  0 17  0.0000000  0 11G16G10G03G25G04G26G32G02G28G31G01
   7529146.84446   6605426.11342  25126893.0234                   25126893.0314
        36.7504         17.2504
-101736858.57846 -79217524.99645  24820256.0394                   24820256.1804
        40.5004         32.2504
 -68770818.36747 -54442761.46147  21224041.7584                   21224039.3554
        47.5004         46.0004
 -43129495.11355 -33532857.11353  24746836.3834                   24746835.7114
        32.5004         19.7504
 -44350476.72347 -34411230.85944  22896131.6094                   22896128.5234
        42.5004         27.2504
 -39165621.57446 -30436150.64846  22922766.8524                   22922766.0394
        39.5004         36.0004
-106463727.30546 -82889139.82045  24022798.3134                   24022796.0944
        40.5004         35.5004
-135196319.75847-105213673.63345  22385225.0864                   22385218.9304
        45.0004         33.7504
-133108521.45747-102396583.30946  21801720.5474                   21801715.8134
        46.5004         36.0004
-112878140.02048 -87879731.46948  20162559.7424                   20162553.4304
        48.2504         49.5004
 -99894600.12547 -76974375.10546  21197406.2664                   21197402.0274
        47.2504         36.2504
 25  7 16  0 17 30.0000000  0 10G16G10G03G04G26G32G02G28G31G01
   7168898.96146   6324713.71942  25058340.6954                   25058339.9494
        36.7504         17.7504
-101904870.11346 -79348443.19145  24788284.5704                   24788284.7974
        40.0004         32.5004
 -69103032.72747 -54701629.77347  21160823.6954                   21160821.1914
        47.0004         46.0004
 -44675575.62147 -34664554.64144  22834267.8914                   22834264.1724
        42.2504         27.2504
 -39508051.43046 -30702979.05146  22857604.8594                   22857603.5944
        41.0004         36.2504
-106656064.44947 -83039012.96545  23986197.3594                   23986195.4534
        42.2504         35.5004
-135390642.21147-105365093.78145  22348246.9774                   22348240.6604
        46.2504         34.7504
-133300824.93447-102546430.19945  21765126.4774                   21765121.3444
        46.5004         35.5004
-113126575.71948 -88073317.72748  20115283.7504                   20115278.1254
        48.7504         49.5004
-100137879.48847 -77163943.45346  21151112.0864                   21151107.5314
        47.7504         36.7504
 25  7 16  0 18  0.0000000  0 10G16G10G03G04G26G32G02G28G31G01
   6808505.25845   6043887.71942  24989758.3754                   24989758.6054
        35.2504         17.2504
-102072678.36746 -79479202.99245  24756351.0944                   24756352.1334
        41.2504         32.0004
 -69434981.95348 -54960291.48447  21097655.9844                   21097652.7544
        48.0004         46.2504
 -45000527.39847 -34917763.76644  22772431.2274                   22772427.9264
        42.0004         27.2504
 -39850211.63746 -30969597.34446  22792493.5004                   22792493.0434
        41.5004         37.5004
-106848369.07846 -83188860.78945  23949603.1024                   23949601.0664
        41.5004         35.0004
-135584626.64847-105516250.53945  22311332.6564                   22311326.4224
        46.0004         34.2504
-133492741.59447-102695975.66445  21728605.8754                   21728600.8054
        47.0004         35.5004
-113374393.47748 -88266422.47748  20068125.4924                   20068119.8914
        48.2504         49.5004
-100380564.93448 -77353049.02046  21104930.7664                   21104926.2074
        48.5004         36.7504
 25  7 16  0 18 30.0000000  0 10G16G10G03G04G26G32G02G28G31G01
   6447969.21546   5762950.75842  24921151.3914                   24921151.5204
        36.5004         16.2504
-102240283.43746 -79609804.45745  24724457.5474                   24724457.5124
        41.0004         31.2504
 -69766662.75448 -55218744.04347  21034538.9534                   21034536.0784
        48.0004         46.5004
 -45325331.19946 -35170857.59444  22710623.3984                   22710619.9534
        41.7504         28.0004
 -40192097.92246 -31236002.18446  22727434.9454                   22727434.2194
        41.5004         37.2504
-107040640.26246 -83338682.56245  23913014.7034                   23913013.2584
        40.0004         35.2504
-135778274.83247-105667145.28145  22274482.8204                   22274476.5394
        46.0004         35.0004
-133684272.96547-102845220.90245  21692158.0944                   21692153.8984
        46.5004         35.5004
-113621593.21948 -88459045.64848  20021085.2114                   20021079.1954
        49.0004         49.5004
-100622656.41047 -77541691.75046  21058862.2584                   21058857.6134
        47.7504         36.2504
 25  7 16  0 19  0.0000000  0 10G16G10G03G04G26G32G02G28G31G01
   7662726.64146   6709515.23042  25152312.0004                   25152311.9804
        36.2504         17.7504
-100832259.77746 -78512643.25445  24992395.8524                   24992395.8364
        41.7504         31.0004
 -68522640.72748 -54249376.21947  21271268.6094                   21271265.6764
        48.2504         46.5004
 -44074555.25847 -34196226.94144  22948637.7194                   22948634.8094
        43.0004         27.7504
 -38958274.52346 -30274581.30946  22962223.5554                   22962223.0594
        41.5004         37.2504
-105657450.50847 -82260872.43045  24176227.1884                   24176226.0704
        42.0004         35.5004
-134396161.32047-104590173.77345  22537490.4534                   22537483.8364
        45.7504         33.7504
-132299994.01247-101766562.00045  21955578.4614                   21955573.4574
        47.0004         34.5004
-112292746.89848 -87423580.98048  20273956.1724                   20273950.2154
        49.0004         49.5004
 -99288725.63748 -76502265.18746  21312700.8284                   21312696.1294
        48.5004         36.0004
 25  7 16  0 19 30.0000000  0 10G16G10G03G04G26G32G02G28G31G01
   7301913.10246   6428362.05142  25083651.2814                   25083651.8444
        38.0004         16.7504
-100999462.86746 -78642931.47344  24960577.5474                   24960577.9304
        39.5004         28.2504
 -68853779.00848 -54507406.02747  21208255.0234                   21208252.0164
        48.0004         46.5004
 -44399064.51247 -34449091.26644  22886885.6564                   22886882.7624
        42.5004         28.5004
 -39299604.28146 -30540552.49646  22897270.8594                   22897269.5124
        41.2504         37.2504
-105849655.96547 -82410642.98845  24139652.3984                   24139650.6804
        42.2504         35.5004
-134589144.58247-104740550.41045  22500767.1414                   22500760.7854
        45.7504         34.0004
-132490763.22747-101915213.35545  21919276.2424                   21919271.5664
        46.7504         34.7504
-112538715.44148 -87615244.78148  20227149.9454                   20227144.1804
        48.2504         49.2504
 -99529632.98847 -76689985.22746  21266857.6254                   21266852.9144
        47.5004         36.0004
 25  7 16  0 20  0.0000000  0 10G16G10G03G04G26G32G02G28G31G01
  10719919.74256   6222100.38753  25014965.1334                   25014963.7544
        37.0004         19.7504
-101166463.39856 -78769590.67655  24928798.2424                   24928799.4224
        39.7504         30.0004
 -69184640.32448 -54765220.03147  21145294.4454                   21145291.5314
        48.2504         47.0004
 -44723424.48047 -34701839.24244  22825161.1254                   22825158.6524
        42.2504         28.5004
 -39640648.52347 -30806301.21946  22832371.8364                   22832370.8324
        42.0004         36.7504
-106041826.39146 -82560386.22345  24103083.6564                   24103081.3054
        41.0004         34.5004
-134781796.83247-104890669.10245  22464106.4224                   22464100.1094
        45.2504         34.5004
-132681152.75847-102063568.85945  21883046.3284                   21883041.2194
        46.5004         34.7504
-112784067.89548 -87806428.51648  20180461.0634                   20180455.2504
        49.0004         49.2504
 -99769947.42247 -76877243.24646  21221126.7814                   21221122.5434
        47.5004         36.5004
 25  7 16  0 20 30.0000000  0 10G16G10G03G04G26G32G02G28G31G01
  10358849.35246   5940746.98042  24946255.5394                   24946254.9264
        37.0004         17.2504
-101333258.49246 -78899560.96944  24897057.8204                   24897058.6254
        38.2504         27.5004
 -69515216.53947 -55022811.87147  21082387.7274                   21082384.6374
        47.5004         47.0004
 -45047629.31647 -34954466.34444  22763467.4774                   22763465.2934
        42.5004         28.5004
 -39981398.25046 -31071820.43446  22767529.2734                   22767528.1454
        41.2504         37.0004
-106233955.87146 -82710097.56645  24066522.0864                   24066520.5004
        39.7504         33.5004
-134974114.52047-105040527.09445  22427509.7664                   22427503.6294
        45.5004         34.0004
-132871159.18447-102211625.83645  21846889.1024                   21846884.4454
        46.0004         34.7504
-113028799.41048 -87997128.39848  20133890.1954                   20133884.0944
        48.5004         49.2504
-100009664.04347 -77064035.44546  21175510.6414                   21175506.1914
        47.5004         36.5004
 25  7 16  0 21  0.0000000  0 10G16G10G03G04G26G32G02G28G31G01
   9997659.90646   5659300.81642  24877523.7194                   24877522.1804
        38.5004         16.2504
-101499846.19146 -79029369.67244  24865358.2504                   24865358.5784
        38.5004         27.2504
 -69845503.14547 -55280178.04747  21019536.0634                   21019533.5514
        47.2504         47.0004
 -45371676.92247 -35206970.93044  22701803.9144                   22701800.8874
        43.5004         28.7504
 -40321847.85946 -31337105.79346  22702744.0634                   22702742.8914
        41.5004         36.5004
-106426042.22746 -82859775.30545  24029968.7504                   24029967.9304
        40.0004         31.7504
-135166098.32847-105190124.93745  22390976.1334                   22390969.9774
        45.5004         33.2504
-133060782.73847-102359384.46945  21810805.2974                   21810799.9694
        46.5004         34.2504
-113272908.99648 -88187343.65648  20087437.8284                   20087431.8524
        48.0004         49.2504
-100248781.58247 -77250360.82446  21130008.1334                   21130003.8984
        46.7504         36.5004
 25  7 16  0 21 30.0000000  0 10G16G10G03G04G26G32G02G28G31G01
   9636356.74646   5377766.08643  24808769.6414                   24808768.9774
        37.7504         19.7504
-101666224.75046 -79159015.45744  24833697.2664                   24833698.3444
        38.5004         25.5004
 -70175495.02347 -55537314.55547  20956740.9064                   20956738.0084
        47.5004         47.2504
 -45695564.66847 -35459350.94544  22640170.1254                   22640166.8984
        43.0004         29.2504
 -40661991.31646 -31602152.60246  22638017.0784                   22638015.7114
        41.2504         36.5004
-106618082.68446 -83009417.27745  23993425.4534                   23993423.4024
        40.5004         32.5004
-135357747.74647-105339462.20345  22354506.7504                   22354500.1134
        45.5004         33.2504
-133250023.10247-102506844.51245  21774794.1954                   21774788.8794
        46.0004         34.7504
-113516395.08647 -88377073.07048  20041103.6024                   20041097.4774
        47.7504         49.2504
-100487298.30547 -77436218.03946  21084620.1484                   21084615.9184
        47.0004         36.0004
 25  7 16  0 22  0.0000000  0 10G16G10G03G04G26G32G02G28G31G01
  10850372.07046   6323752.25443  25039789.8914                   25039788.3054
        37.0004         18.5004
-100256972.70746 -78060897.09444  25101869.3984                   25101870.2974
        38.2504         25.2504
 -68929761.70747 -54566613.25447  21193796.0474                   21193793.2544
        46.0004         47.5004
 -44443864.60547 -34484000.19945  22878360.7664                   22878357.6524
        42.5004         30.2504
 -39426396.84047 -30639351.66046  22873142.6024                   22873141.6914
        42.5004         36.5004
-105234653.61346 -81931420.66845  24256683.6254                   24256681.6294
        39.5004         33.7504
-133973641.67647-104260938.05945  22617893.6334                   22617886.7344
        45.5004         32.5004
-131863459.21147-101426405.14145  22038648.2194                   22038643.3164
        45.7504         35.0004
-112183833.93447 -87338713.73048  20294681.7344                   20294675.8594
        47.7504         49.5004
 -99149790.16047 -76394003.92646  21339139.4774                   21339134.4574
        46.0004         36.5004
 25  7 16  0 22 30.0000000  0 10G16G10G03G04G26G32G02G28G31G01
  10488848.03546   6042045.39143  24970993.3594                   24970991.8794
        36.5004         18.2504
-100422938.70746 -78190221.32043  25070287.2664                   25070288.0234
        38.0004         22.7504
 -69259159.43447 -54823286.78947  21131113.9304                   21131110.5124
        46.5004         47.5004
 -44767435.02047 -34736132.95744  22816786.6334                   22816784.2974
        42.5004         29.5004
 -39765920.36347 -30903915.39846  22808533.6094                   22808532.4614
        42.2504         37.5004
-105426604.41047 -82080992.77345  24220156.7424                   24220154.7734
        42.2504         34.5004
-134164631.68747-104409761.51245  22581549.4774                   22581543.0864
        45.5004         32.7504
-132051942.68447-101573275.39845  22002781.0084                   22002776.3014
        45.2504         34.7504
-112426079.37148 -87527476.41048  20248583.7894                   20248577.8834
        48.0004         49.2504
 -99387110.59447 -76578928.96946  21293978.7424                   21293974.2074
        46.2504         36.2504
 25  7 16  0 23  0.0000000  0 10G16G10G03G04G26G32G02G28G31G01
  10127215.18045   5760253.75442  24902176.5234                   24902175.5164
        33.2504         17.2504
-100588702.04745 -78319387.66843  25038742.6334                   25038744.4304
        35.5004         21.2504
 -69588258.58247 -55079727.66447  21068488.6094                   21068485.2344
        47.0004         47.5004
 -45090848.83647 -34988143.68044  22755243.3444                   22755240.5514
        42.0004         29.0004
 -40105130.98047 -31168235.32846  22743984.1024                   22743982.6094
        42.0004         37.2504
-105618512.26646 -82230531.41445  24183638.1094                   24183636.0234
        40.0004         34.7504
-134355297.80147-104558332.55545  22545266.6954                   22545260.4264
        44.5004         32.2504
-132240053.37147-101719855.17245  21966984.7034                   21966979.7424
        45.5004         35.2504
-112667708.07847 -87715758.51648  20202603.9774                   20202597.6804
        47.5004         49.2504
 -99623836.40647 -76763390.66046  21248931.5004                   21248926.4964
        46.2504         36.5004
 25  7 16  0 23 30.0000000  0 10G16G10G03G04G26G32G02G28G31G01
   9765474.61345   5478378.17242  24833339.9924                   24833338.6414
        32.7504         17.2504
-100754266.10545 -78448398.66443  25007237.8054                   25007238.2034
        35.7504         19.7504
 -69917059.15647 -55335935.88347  21005919.3834                   21005917.0164
        47.2504         47.7504
 -45414108.56247 -35240034.31244  22693729.1804                   22693726.2664
        42.5004         29.0004
 -40444027.71147 -31432310.66846  22679494.0004                   22679492.4344
        42.0004         37.5004
-105810379.52046 -82380038.41445  24147127.2584                   24147125.2504
        41.7504         34.0004
-134545644.85947-104706655.00045  22509044.9454                   22509038.7734
        46.0004         32.7504
-132427796.03547-101866148.18045  21931258.4534                   21931253.4494
        46.0004         35.2504
-112908723.88748 -87903563.04748  20156740.0084                   20156733.6564
        48.0004         49.0004
 -99859971.09447 -76947391.74646  21203996.3364                   21203992.0124
        47.5004         36.2504
 25  7 16  0 24  0.0000000  0 10G16G10G03G04G26G32G02G28G31G01
   9403626.58245   5196418.92642  24764482.0004                   24764480.8594
        32.5004         16.7504
-100919634.44945 -78577257.18743  24975769.3134                   24975770.2074
        34.5004         21.2504
 -70245561.08647 -55591911.39147  20943407.7894                   20943404.5234
        46.5004         47.5004
 -45737216.50447 -35491806.69944  22632243.9924                   22632240.4184
        42.0004         28.5004
 -40782609.63347 -31696140.69546  22615063.8834                   22615062.7624
        43.0004         37.5004
-106002208.43446 -82529515.53945  24110622.5474                   24110621.2114
        40.7504         33.2504
-134735677.44147-104854732.40645  22472882.9614                   22472876.5164
        45.2504         32.5004
-132615175.38747-102012158.08245  21895601.5314                   21895596.2194
        46.0004         34.7504
-113149130.40248 -88090892.80148  20110992.0864                   20110986.0554
        48.0004         49.0004
-100095518.03547 -77130934.84446  21159173.3134                   21159168.8674
        46.5004         36.2504
 25  7 16  0 24 30.0000000  0 10G16G10G03G04G26G32G02G28G31G01
   9041678.10545   4914381.37543  24695605.8834                   24695604.8324
        34.5004         18.2504
-101084804.37545 -78705961.10943  24944338.6724                   24944338.8794
        32.7504         21.7504
 -70573758.26647 -55847649.43447  20880953.5164                   20880950.8284
        46.5004         47.5004
 -46060168.98047 -35743457.94144  22570787.6094                   22570784.8554
        42.0004         28.5004
 -41120869.60947 -31959719.84046  22550695.1414                   22550694.2304
        43.0004         38.0004
-106193995.15246 -82678959.80945  24074127.0004                   24074125.1454
        41.5004         33.2504
-134925394.40247-105002563.86745  22436781.3834                   22436774.7114
        45.2504         32.7504
-132802190.08247-102157883.85545  21860013.6884                   21860008.6484
        46.0004         35.0004
-113388925.08647 -88277745.80548  20065360.8204                   20065354.6524
        47.7504         49.0004
-100330474.53147 -77314017.86346  21114462.7114                   21114458.1644
        47.0004         36.2504
 25  7 16  0 25  0.0000000  0 10G16G10G03G04G26G32G02G28G31G01
