     2.11           OBSERVATION DATA    G (GPS)             RINEX VERSION / TYPE
teqc  2019Feb25     K Rivera            20250725 01:24:28UTCPGM / RUN BY / DATE
Linux 2.6.32-573.12.1.x86_64|x86_64|gcc -static|Linux 64|=+ COMMENT
teqc  2019Feb25                         20250725 01:19:59UTCCOMMENT
BIT 2 OF LLI FLAGS DATA COLLECTED UNDER A/S CONDITION       COMMENT
GS36                                                        MARKER NAME
                                                            MARKER NUMBER
K Baraggiotta       University of California, Riverside     OBSERVER / AGENCY
0220413523          TRIMBLE R7          2.32                REC # / TYPE / VERS
1441040465          TRM57971.00                             ANT # / TYPE
 -2373517.3995 -4649764.1251  3653668.8753                  APPROX POSITION XYZ
        1.2880        0.0000        0.0000                  ANTENNA: DELTA H/E/N
     1     1                                                WAVELENGTH FACT L1/2
     7    L1    L2    C1    P1    P2    S1    S2            # / TYPES OF OBSERV
    18                                                      LEAP SECONDS
 SNR is mapped to RINEX snr flag value [0-9]                COMMENT
  L1 & L2: min(max(int(snr_dBHz/6), 0), 9)                  COMMENT
  2025     7    15    21    24   30.0000000     GPS         TIME OF FIRST OBS
                                                            END OF HEADER
 25  7 15 21 24 30.0000000  0 10G02G08G10G18G23G27G28G32G24G31
   -225401.54357   -144677.28155  23173097.3984                   23173090.0554
        45.5004         32.5004
    -24581.57057    -16030.73456  22996474.5554                   22996472.6844
        43.0004         38.5004
    -52154.73858    -33841.62958  21436515.8444                   21436512.9924
        50.5004         50.7504
    103724.66856     61149.07853  24829906.2194                   24829905.1644
        40.5004         22.0004
     34232.87557     21986.74254  23355832.8594                   23355829.5164
        42.5004         27.7504
     58575.10957     39185.75456  23209557.9454                   23209555.9844
        43.0004         39.2504
   -256285.97356   -167515.94954  23179326.4144                   23179323.2274
        41.7504         29.0004
    -64532.52758    -41547.39158  20699787.1804                   20699783.9804
        51.2504         53.5004
     65396.37156     37677.93455  24612887.1414                   24612886.3554
        41.5004         31.2504
   -259061.86756   -135626.07055  25072449.9924                   25072449.9304
        37.2504         32.0004
 25  7 15 21 25  0.0000000  0 10G02G08G10G18G23G27G28G32G24G31
   -351691.19147   -243084.79345  23149064.7814                   23149057.6414
        46.0004         32.2504
    -39040.83647    -27297.73446  22993723.1254                   22993721.2304
        42.0004         38.2504
    -82403.36348    -57412.01248  21430759.5634                   21430756.7304
        50.0004         50.5004
    163370.34846    107626.00844  24841256.7344                   24841256.2544
        39.5004         24.0004
     52159.36347     35955.37144  23359244.6724                   23359240.7464
        42.0004         27.0004
     91650.22747     64958.48446  23215852.1024                   23215849.8954
        43.0004         39.5004
   -399222.19147   -278894.74644  23152126.1254                   23152123.5084
        42.5004         28.5004
   -101290.46948    -70189.94548  20692792.5704                   20692788.9144
        52.0004         53.5004
    102047.62146     66237.32844  24619861.1954                   24619860.9024
        39.5004         29.7504
   -418251.21146   -259669.40644  25042156.6644                   25042156.8524
        36.0004         29.7504
 25  7 15 21 25 30.0000000  0 10G02G08G10G18G23G27G28G32G24G31
   -478182.00447   -341649.03145  23124995.1094                   23124987.2154
        46.5004         33.0004
    -53457.70747    -38531.70346  22990979.4694                   22990978.2854
        42.7504         39.0004
   -112909.58648    -81183.11348  21424954.7504                   21424951.9654
        50.0004         50.2504
    222747.06646    153893.41043  24852556.9774                   24852554.4654
        41.5004         23.7504
     69773.44147     49680.60244  23362596.2814                   23362592.3954
        42.5004         27.2504
    124546.64147     90591.98446  23222112.6484                   23222109.7274
        43.7504         39.2504
   -542381.13346   -390447.08244  23124883.9844                   23124881.6214
        41.7504         29.2504
   -138049.18448    -98833.10248  20685797.4064                   20685793.9304
        51.5004         53.5004
    138690.90646     94790.43444  24626833.9694                   24626833.5004
        37.5004         29.7504
   -577960.09045   -384117.60944  25011764.2584                   25011764.8554
        33.0004         26.0004
 25  7 15 21 26  0.0000000  0 10G02G08G10G18G23G27G28G32G24G31
   -604821.99647   -440329.54345  23100895.9384                   23100888.6994
        45.5004         30.7504
    -67784.15247    -49695.21546  22988253.2664                   22988251.8754
        43.5004         39.0004
   -143623.14548   -105115.77348  21419109.7974                   21419107.0984
        51.0004         50.2504
    281902.96946    199988.59044  24863813.5084                   24863813.0984
        41.5004         26.7504
     87125.19547     63201.39144  23365897.6644                   23365894.0394
        42.7504         28.0004
    157311.13747    116122.69146  23228346.7584                   23228345.0204
        43.7504         39.2504
   -685709.81647   -502131.70344  23097610.2344                   23097606.8674
        43.2504         29.2504
   -174760.05948   -127438.97348  20678811.4694                   20678808.2304
        52.0004         53.5004
    175373.57456    117656.29355  24633815.2274                   24633814.1174
        39.2504         31.0004
   -738135.75845   -508929.43043  24981282.3754                   24981284.5744
        31.7504         20.5004
 25  7 15 21 26 30.0000000  0 10G02G08G10G18G23G27G28G32G24G31
   -731578.82447   -539101.07445  23076774.7894                   23076767.4734
        47.0004         32.5004
    -81992.13347    -60766.41846  22985550.2274                   22985547.8444
        43.0004         38.7504
   -174513.59048   -129186.27048  21413231.3984                   21413228.9384
        50.7504         50.2504
    340866.18446    245933.70743  24875034.1174                   24875033.2424
        39.5004         19.7504
    104244.81347     76541.28144  23369155.6484                   23369151.9734
        42.7504         27.0004
    189970.70347    141571.64146  23234561.6724                   23234560.0164
        42.5004         40.0004
   -829175.10947   -613922.75844  23070309.4384                   23070305.8554
        43.0004         28.5004
   -211394.34848   -155985.18048  20671840.2344                   20671836.7814
        52.0004         53.2504
    212122.85246    146292.03545  24640808.7344                   24640807.9264
        40.5004         32.2504
   -898745.62946   -634079.84843  24950720.6954                   24950720.1094
        37.2504         21.2504
 25  7 15 21 27  0.0000000  0 10G02G08G10G18G23G27G28G32G24G31
   -858429.32847   -637945.59445  23052635.4774                   23052629.0434
        45.7504         32.5004
    -96062.54347    -71730.41446  22982872.1884                   22982870.4224
        43.7504         37.5004
   -205559.48448   -153377.90248  21407323.8134                   21407321.0984
        50.0004         50.0004
    399655.82046    291743.65243  24886219.8594                   24886220.9774
        38.0004         22.0004
    121153.59047     89716.90244  23372373.8524                   23372369.4734
        43.0004         26.5004
    222543.37147    166952.86746  23240760.1174                   23240758.4924
        43.2504         39.7504
   -972752.86347   -725801.44944  23042986.9924                   23042983.8674
        43.5004         28.5004
   -247932.30948   -184456.32048  20664887.4614                   20664883.9804
        52.0004         53.2504
    248957.27746    174994.15245  24647817.4304                   24647817.2234
        38.5004         31.2504
  -1059765.62546   -759549.80143  24920079.9384                   24920078.3594
        36.2504         23.0004
 25  7 15 21 27 30.0000000  0 10G02G08G10G18G23G27G28G32G24G31
   -985355.69547   -736849.23045  23028482.5394                   23028475.5554
        46.0004         32.2504
   -109981.46547    -82576.36746  22980223.7034                   22980221.5744
        43.5004         38.5004
   -236744.63348   -177678.03948  21401389.5554                   21401386.5824
        50.2504         50.2504
    458286.08246    337429.41443  24897378.3594                   24897377.7624
        40.2504         21.5004
    137867.50447    102740.67244  23375554.2974                   23375550.5664
        43.7504         27.5004
    255041.80947    192276.27046  23246944.2194                   23246942.7194
        43.0004         39.5004
  -1116424.21547   -837753.07444  23015647.8444                   23015644.4024
        43.7504         29.7504
   -284359.51648   -212841.16848  20657955.7584                   20657952.0664
        51.7504         53.2504
    285890.13745    203772.87944  24654845.3204                   24654844.7274
        34.2504         25.2504
  -1221177.35245   -885324.90644  24889363.0704                   24889363.4414
        34.2504         25.0004
 25  7 15 21 28  0.0000000  0 10G02G08G10G18G23G27G28G32G24G31
  -1112342.50447   -835799.96545  23004317.5164                   23004310.4804
        46.0004         32.2504
   -123737.95747    -93295.75046  22977606.0004                   22977604.4264
        44.0004         38.2504
   -268055.62948   -202076.23048  21395431.0394                   21395428.2074
        50.5004         50.2504
    516768.16845    382999.51242  24908507.1414                   24908506.8244
        35.7504         17.7504
    154399.71947    115622.85944  23378699.9924                   23378696.4024
        43.0004         26.0004
    287476.03947    217549.61346  23253116.3594                   23253114.7234
        42.5004         39.5004
  -1260172.96547   -949765.01644  22988293.0474                   22988290.0864
        43.7504         29.2504
   -320664.19948   -241130.53948  20651046.9694                   20651043.5004
        51.7504         53.5004
    322931.53545    232636.31344  24661894.1174                   24661893.9024
        35.7504         28.5004
  -1382965.34446  -1011393.16444  24858574.8284                   24858574.9024
        36.2504         25.0004
 25  7 15 21 28 30.0000000  0 10G02G08G10G18G23G27G28G32G24G31
  -1239374.27347   -934785.73845  22980144.6414                   22980137.4384
        46.0004         32.5004
   -137320.49647   -103879.59046  22975021.4224                   22975019.5514
        43.5004         38.0004
   -299478.64848   -226561.71548  21389451.7344                   21389448.5984
        49.2504         50.2504
                                  24919608.2734                   24919609.8134
        32.0004         15.5004
    170763.90647    128374.12144  23381814.4304                   23381810.4384
        42.7504         25.7504
    319856.42247    242781.00446  23259277.9534                   23259276.6844
        43.5004         39.5004
  -1403982.58647  -1061824.37144  22960926.3524                   22960922.8094
        44.2504         29.2504
   -356834.32848   -269315.05948  20644164.3204                   20644160.6914
        51.0004         53.5004
    360092.42645    261592.77344  24668966.2424                   24668965.2624
        35.2504         28.7504
  -1545113.18046  -1137741.80544  24827719.6954                   24827719.6844
        40.2504         27.7504
 25  7 15 21 29  0.0000000  0 10G02G08G10G18G23G27G28G32G24G31
  -1366435.28147  -1033794.27745  22955965.2344                   22955958.4144
        45.2504         33.0004
   -150717.49247   -114318.85246  22972471.4924                   22972469.9064
        43.5004         38.7504
   -330999.64848   -251123.54748  21383453.5164                   21383450.5944
        50.7504         50.2504
    633333.69956    473829.44952  24930689.5864                   24930689.3594
        37.0004         16.7504
    186973.84047    141005.18844  23384898.9694                   23384895.4734
        42.5004         27.0004
    352193.46947    267978.62546  23265431.8594                   23265430.7114
        42.5004         39.2504
  -1547836.43047  -1173918.19944  22933552.3594                   22933548.0554
        44.0004         29.5004
   -392857.62548   -297385.17248  20637309.1414                   20637305.5004
        51.7504         53.2504
    397383.66845    290650.84045  24676061.9304                   24676062.0784
        34.7504         30.5004
  -1707604.90646  -1264358.54344  24796799.3204                   24796798.3014
        39.7504         27.0004
 25  7 15 21 29 30.0000000  0 10G02G08G10G18G23G27G28G32G24G31
  -1493522.03147  -1132822.90645  22931781.3524                   22931774.2934
        44.0004         33.0004
   -163929.87947   -124614.25446  22969957.5864                   22969955.8674
        43.5004         38.5004
   -362617.13748   -275760.57048  21377436.8834                   21377434.0164
        49.2504         50.0004
                                  24941745.617
        37.750
    203030.84446    153517.09844  23387954.2344                   23387950.8524
        41.2504         27.0004
    384485.30947    293141.01646  23271577.0164                   23271575.4654
        42.5004         39.0004
  -1691730.25047  -1286043.16845  22906170.1564                   22906166.4454
        43.7504         30.0004
   -428734.30148   -325341.03148  20630481.9924                   20630478.4414
        50.5004         53.2504
    434803.71945    319809.20344  24683182.0864                   24683183.0664
        33.2504         27.7504
  -1870436.57446  -1391240.11344  24765812.1724                   24765811.9064
        38.0004         26.7504
 25  7 15 21 30  0.0000000  0 11G02G08G10G18G23G27G28G32G24G31G01
  -1620627.19147  -1231865.85945  22907594.2734                   22907586.9264
        45.5004         33.5004
   -176954.34047   -134763.23846  22967478.6254                   22967477.2854
        44.0004         38.0004
   -394325.30548   -300468.24648  21371402.9614                   21371399.7814
        50.0004         50.2504
     69211.83245    532597.78152  24952775.3364                   24952776.6334
        33.0004         16.2504
    218940.42647    165914.11344  23390981.7194                   23390978.7704
        42.0004         26.0004
    416734.11347    318269.89146  23277713.5084                   23277711.7814
        42.5004         39.5004
  -1835655.61347  -1398192.72745  22878782.2274                   22878778.1294
        44.2504         30.7504
   -464460.41848   -353179.56648  20623683.4924                   20623680.0864
        51.2504         53.2504
    472355.24255    349070.02754  24690328.8594                   24690327.9844
        32.7504         27.0004
  -2033600.13746  -1518380.23045  24734763.2664                   24734763.5984
        39.2504         31.2504
   -320990.64815                  25111801.117
        33.500
 25  7 15 21 30 30.0000000  0 11G02G08G10G18G23G27G28G32G24G31G01
  -1747740.68447  -1330915.32845  22883404.6804                   22883397.8714
        44.7504         33.0004
   -189785.36747   -144761.48046  22965037.6414                   22965035.6254
        43.0004         38.0004
   -426116.13748   -325240.33648  21365353.4844                   21365350.5004
        51.2504         50.0004
    127067.82846    577680.30143  24963786.1954                   24963785.9884
        37.7504         18.2504
    234710.41046    178202.36344  23393982.9144                   23393979.7114
        40.5004         25.7504
    448944.51646    343368.83246  23283842.9144                   23283841.2584
        41.7504         39.0004
  -1979601.81247  -1510358.51245  22851389.9694                   22851386.0434
        44.2504         30.2504
   -500029.75048   -380895.93448  20616914.7114                   20616911.7304
        51.0004         53.2504
    510043.12945    378437.17243  24697501.1174                   24697499.5514
        32.0004         22.7504
  -2197085.20746  -1645770.93445  24703653.3364                   24703652.3364
        40.5004         33.0004
   -475696.21546    -37794.98453  25082361.2194                   25082358.5434
        37.5004         18.5004
 25  7 15 21 31  0.0000000  0 11G02G08G10G18G23G27G28G32G24G31G01
  -1874852.83647  -1429963.71545  22859216.6564                   22859209.2774
        44.0004         32.5004
   -202417.38347   -154604.64846  22962633.8364                   22962632.1564
        43.0004         38.2504
   -457981.69548   -350070.65648  21359289.5394                   21359286.6174
        50.0004         50.0004
    184813.18846    622676.27343  24974775.2894                   24974775.2114
        38.5004         18.5004
    250348.50046    190387.84044  23396958.8754                   23396955.7424
        41.5004         24.7504
    481120.91447    368441.28146  23289966.5864                   23289964.7974
        43.0004         39.5004
  -2123558.17247  -1622532.20745  22823995.5084                   22823992.1174
        43.5004         30.2504
   -535436.08648   -408485.28148  20610177.0164                   20610173.7544
        51.5004         53.2504
    547872.31345    407914.44544  24704699.6484                   24704699.1524
        32.2504         26.0004
  -2360881.52046  -1773404.19145  24672484.2584                   24672482.0704
        40.2504         31.0004
   -630635.51246   -158526.82043  25052877.4144                   25052874.8594
        38.0004         19.5004
 25  7 15 21 31 30.0000000  0 11G02G08G10G18G23G27G28G32G24G31G01
  -2001951.53547  -1529001.64845  22835030.3594                   22835023.3054
        45.0004         33.5004
   -214842.50447   -164286.60946  22960269.8914                   22960267.4654
        44.0004         38.5004
   -489911.44547   -374950.99648  21353213.6644                   21353210.5984
        47.7504         50.0004
    242455.94545    667592.66043  24985742.2894                   24985743.7854
        35.7504         21.0004
    265864.98047    202478.55144  23399911.7424                   23399908.0204
        42.0004         26.0004
    513270.39547    393492.74246  23296084.2274                   23296082.8714
        42.7504         39.5004
  -2267511.57847  -1734703.61745  22796602.1644                   22796598.4414
        44.0004         30.7504
   -570670.80548   -435940.91848  20603472.4144                   20603468.4024
        49.0004         53.2504
                                  24711926.8524                   24711925.5984
        31.5004         27.2504
  -2524976.37946  -1901270.08644  24641257.0864                   24641255.6214
        39.0004         28.7504
   -785796.50846   -279431.48443  25023351.0944                   25023347.7034
        39.5004         21.5004
 25  7 15 21 32  0.0000000  0 10G02G08G10G18G23G27G28G32G31G01
  -2129028.93747  -1628022.97745  22810848.3914                   22810841.3594
        43.5004         33.7504
   -227057.38747   -173804.73046  22957944.5704                   22957943.4384
        43.0004         37.5004
   -521899.52047   -399876.77748  21347126.8054                   21347123.2074
        47.7504         50.0004
    299999.74246    712431.74243  24996694.8364                   24996693.8444
        40.5004         21.5004
    281265.53146    214478.92244  23402842.2274                   23402838.4454
        41.2504         26.0004
    545395.25447    418525.01646  23302197.3674                   23302196.2584
        43.0004         40.0004
  -2411453.48847  -1846866.05545  22769210.8134                   22769206.8094
        43.0004         31.2504
   -605729.87548   -463259.68448  20596800.9454                   20596797.4774
        49.0004         53.2504
  -2689361.67646  -2029362.31645  24609975.7584                   24609974.3594
        39.2504         30.7504
   -941171.80946   -400503.10943  24993784.2344                   24993781.7814
        37.5004         19.5004
 25  7 15 21 32 30.0000000  0 11G02G08G10G18G23G27G28G32G24G31G01
  -2256074.89847  -1727019.80945  22786672.8054                   22786665.2814
        44.5004         33.0004
   -239055.95747   -183154.31246  22955661.5234                   22955660.2974
        42.7504         37.5004
   -553937.27747   -424841.27048  21341029.7114                   21341026.8754
        47.7504         50.0004
    357450.93046    757198.63743  25007627.5704                   25007626.5864
        36.7504         19.5004
    296558.43846    226395.43044  23405752.4774                   23405748.9024
        41.5004         26.5004
    577500.64847    443542.12946  23308306.8914                   23308305.1994
        42.5004         39.2504
  -2555372.64147  -1959010.75045  22741823.9694                   22741820.1804
        42.7504         30.2504
   -640606.54348   -490436.31648  20590164.2974                   20590160.6134
        49.0004         53.2504
     16341.82056    466044.07455  24726468.3834                   24726466.9844
        36.0004         30.5004
  -2854026.19146  -2157672.09845  24578640.3914                   24578639.8134
        39.5004         32.7504
  -1096751.26246   -521733.81643  24964178.3754                   24964176.6254
        38.7504         18.5004
 25  7 15 21 33  0.0000000  0 11G02G08G10G18G23G27G28G32G24G31G01
  -2383084.14847  -1825988.03945  22762503.3594                   22762496.0084
        45.0004         33.7504
   -250837.49647   -192334.78546  22953419.9534                   22953418.4654
        42.2504         37.5004
   -586021.49248   -449841.97348  21334924.5394                   21334921.5314
        49.5004         50.0004
    414810.30546    801894.02343  25018542.2814                   25018542.9454
        38.0004         23.0004
    311746.72746    238230.41844  23408642.6884                   23408639.1484
        41.5004         26.5004
    609586.29747    468543.84446  23314412.9224                   23314411.3244
        42.5004         38.7504
  -2699263.12547  -2071133.13745  22714442.5084                   22714438.8204
        44.0004         30.5004
   -675299.38348   -517469.70348  20583562.0634                   20583558.3244
        50.7504         53.2504
     54784.32446    495999.28945  24733783.6334                   24733782.3014
        37.7504         30.2504
  -3018964.44146  -2286195.14844  24547254.4534                   24547253.0864
        38.5004         29.7504
  -1252530.28946   -643120.05543  24934534.6254                   24934532.0704
        39.7504         21.2504
 25  7 15 21 33 30.0000000  0 11G02G08G10G18G23G27G28G32G24G31G01
  -2510047.68747  -1924920.65245  22738342.8594                   22738336.3054
        44.0004         33.5004
   -262397.04747   -201342.27046  22951220.1414                   22951218.0984
        43.2504         36.7504
   -618144.46148   -474872.86748  21328811.7584                   21328808.7304
        48.0004         50.0004
    472083.40646    846522.13743  25029441.7974                   25029441.4844
        38.2504         22.5004
    326837.81346    249989.65244  23411514.2894                   23411511.0904
        41.0004         26.5004
    641656.35247    493533.42246  23320515.9534                   23320513.9574
        42.2504         38.5004
  -2843114.64547  -2183225.15645  22687068.4924                   22687064.8284
        43.0004         30.5004
   -709802.64148   -544355.36748  20576996.7424                   20576992.7814
        49.2504         53.2504
     93388.12146    526080.13344  24741128.4614                   24741128.6094
        36.5004         29.2504
  -3184166.75846  -2414923.97344  24515816.2814                   24515814.9264
        38.0004         27.7504
  -1408499.64846   -764654.52743  24904854.6094                   24904851.6764
        37.2504         21.5004
 25  7 15 21 34  0.0000000  0 11G02G08G10G18G23G27G28G32G24G31G01
  -2636956.59047  -2023810.68045  22714192.6254                   22714185.8594
        45.5004         34.0004
   -273730.28547   -210173.40246  22949063.6954                   22949061.8404
        43.0004         37.0004
   -650299.38748   -499928.65648  21322693.1254                   21322689.6214
        50.7504         50.0004
    529274.56646    891086.50844  25040325.3594                   25040324.7894
        38.5004         26.7504
    341838.22347    261678.23444  23414368.9304                   23414365.8984
        42.2504         25.7504
    673714.12147    518513.42646  23326616.2274                   23326614.2854
        43.0004         38.5004
  -2986917.77747  -2295279.46145  22659703.2114                   22659699.8244
        44.0004         30.5004
   -744111.38748   -571089.45748  20570467.7664                   20570464.2894
        51.7504         53.0004
    132157.00045    556289.53944  24748506.0314                   24748506.7114
        31.5004         26.0004
  -3349623.76646  -2543851.36345  24484331.6564                   24484329.4344
        40.5004         30.2504
  -1564650.98846   -886330.82043  24875139.8444                   24875136.9384
        38.0004         21.5004
 25  7 15 21 34 30.0000000  0 11G02G08G10G18G23G27G28G32G24G31G01
  -2763803.39147  -2122652.32045  22690055.0314                   22690047.5434
        45.0004         34.5004
   -284834.20747   -218825.85946  22946950.3754                   22946948.8954
        42.5004         37.2504
   -682480.54348   -525004.89148  21316569.1334                   21316565.9804
        51.0004         50.0004
    586387.27046    935589.63343  25051193.4694                   25051192.7624
        39.0004         22.5004
    356753.45346    273300.42644  23417207.1804                   23417203.6764
        41.7504         25.0004
    705761.77347    543485.55146  23332714.1804                   23332712.7934
        42.7504         38.2504
  -3130664.14547  -2407289.54345  22632349.2034                   22632345.4774
        43.5004         31.0004
   -778221.81248   -597669.01248  20563976.7274                   20563973.1994
        51.2504         53.0004
    171093.45345    586629.48444  24755915.8204                   24755915.7034
        35.5004         29.2504
  -3515327.41846  -2672970.94544  24452799.2034                   24452796.6054
        38.2504         29.0004
  -1720977.01245  -1008143.27343  24845391.7664                   24845389.3794
        35.7504         21.7504
 25  7 15 21 35  0.0000000  0 11G02G08G10G18G23G27G28G32G24G31G01
  -2890584.18047  -2221442.52345  22665929.4454                   22665922.3284
        45.2504         34.5004
   -295709.04347   -227299.80146  22944881.7114                   22944879.2344
        43.2504         38.0004
   -714685.53148   -550099.69948  21310440.6254                   21310437.4774
        50.5004         49.7504
    643421.44146    980031.65643  25062046.7974                   25062046.5594
        37.2504         22.5004
    371585.62147    284857.90644  23420030.3524                   23420025.9964
        42.0004         25.7504
    737798.18047    568448.92646  23338811.1094                   23338808.9144
        42.7504         38.0004
  -3274348.74647  -2519251.48845  22605007.1174                   22605003.1524
        43.7504         31.5004
   -812133.40248   -624093.63348  20557523.7274                   20557520.1414
        52.0004         53.0004
    210196.39146    617099.31345  24763357.1884                   24763356.6994
        37.5004         30.5004
  -3681272.94145  -2802278.89544  24421218.9144                   24421218.5864
        35.5004         27.0004
  -1877474.03945  -1130088.84843  24815611.1484                   24815608.6094
        35.0004         20.2504
 25  7 15 21 35 30.0000000  0 11G02G08G10G18G23G27G28G32G24G31G01
  -3017287.98047  -2320172.73045  22641817.9224                   22641811.3634
        44.0004         34.2504
   -306348.31647   -235590.18046  22942856.7584                   22942854.7384
        43.0004         37.7504
   -746905.19548   -575205.94148  21304309.4924                   21304306.2234
        50.2504         50.0004
    700384.02355   1024417.80153  25072886.1484                   25072885.9224
        34.0004         19.0004
    386343.60947    296357.58244  23422838.2894                   23422834.8554
        42.2504         26.5004
    769829.05147    593407.96946  23344905.9304                   23344904.9184
        42.7504         38.5004
  -3417959.79347  -2631156.13745  22577678.5084                   22577674.7734
        44.0004         31.2504
   -845838.94948   -650357.69548  20551109.8524                   20551105.7504
        52.2504         53.0004
    249471.91446    647703.59845  24770830.6564                   24770830.8324
        36.7504         30.2504
  -3847448.90646  -2931766.44145  24389597.6954                   24389596.4184
        39.5004         31.7504
  -2034131.38345  -1252159.43042  24785800.2274                   24785797.7274
        33.5004         17.7504
 25  7 15 21 36  0.0000000  0 10G02G08G10G23G27G28G32G24G31G01
  -3143904.48447  -2418834.92245  22617723.6724                   22617716.9264
        44.0004         34.0004
   -316746.17247   -243692.45746  22940878.4224                   22940876.5784
        43.2504         38.0004
   -779130.95348   -600316.93448  21298176.9304                   21298174.0944
        50.5004         50.0004
    401035.71947    307805.91844  23425634.3284                   23425630.7114
        42.0004         26.7504
    801859.33646    618366.54746  23351001.4454                   23350999.8284
        41.7504         38.2504
  -3561486.14547  -2742994.77745  22550366.3444                   22550362.1484
        44.2504         31.0004
   -879331.84048   -676456.06248  20544736.2034                   20544732.5164
        51.5004         53.0004
    288925.38346    678446.47345  24778339.2584                   24778339.0204
        36.0004         30.7504
  -4013844.33246  -3061425.09845  24357935.1254                   24357932.4964
        40.5004         30.7504
  -2190938.84045  -1374346.93443  24755961.0084                   24755958.1884
        35.0004         19.7504
 25  7 15 21 36 30.0000000  0 11G02G08G10G18G23G27G28G32G24G31G01
  -3270423.01247  -2517420.76645  22593648.3984                   22593641.3594
        45.2504         34.5004
   -326896.32047   -251601.70346  22938946.5474                   22938944.5864
        42.0004         37.2504
   -811353.82848   -625425.67248  21292045.3054                   21292041.7664
        48.7504         49.7504
    814116.37555   1068441.19953  25094528.5944                   25094530.0004
        30.2504         18.5004
    415670.60947    319209.67244  23428419.3834                   23428415.1914
        43.0004         27.5004
    833894.50046    643328.93446  23357098.1414                   23357095.9844
        41.2504         37.5004
  -3704916.23447  -2854758.41045  22523072.6094                   22523068.6644
        44.5004         31.2504
   -912605.04348   -702383.23848  20538404.6024                   20538401.1134
        50.2504         53.0004
    328562.58245    709332.47344  24785882.4614                   24785881.1764
        35.5004         29.7504
  -4180447.85546  -3191245.89144  24326230.0704                   24326227.6134
        40.2504         29.5004
  -2347885.83246  -1496643.21543  24726094.3134                   24726091.8754
        38.2504         21.2504
 25  7 15 21 37  0.0000000  0 11G02G08G10G18G23G27G28G32G24G31G01
  -3396840.21947  -2615927.65645  22569591.5864                   22569584.7384
        44.7504         34.0004
   -336799.91047   -259318.83246  22937061.8754                   22937060.4304
        42.0004         37.7504
   -843572.22748   -650530.92648  21285914.1954                   21285911.0984
        48.5004         50.0004
    870895.06655   1112684.02752  25105332.9144                   25105335.4104
        32.2504         17.2504
    430249.54747    330569.83644  23431193.5554                   23431190.1764
        42.5004         26.2504
    865932.52046    668293.53946  23363193.7814                   23363192.9144
        41.2504         37.5004
  -3848245.90247  -2966443.79745  22495797.7894                   22495793.6884
        43.0004         31.7504
   -945658.96948   -728139.54348  20532114.5394                   20532110.9694
        50.0004         53.0004
    368381.67246    740360.21544  24793459.6024                   24793458.4924
        37.2504         26.0004
  -4347255.54746  -3321225.79744  24294487.5084                   24294485.1564
        39.5004         28.5004
  -2504969.38746  -1619045.84843  24696202.9534                   24696200.0984
        37.5004         20.5004
 25  7 15 21 37 30.0000000  0 11G02G08G10G18G23G27G28G32G24G31G01
  -3523155.93047  -2714355.45345  22545554.8674                   22545547.6844
        45.7504         34.0004
   -346461.38747   -266847.30546  22935223.1174                   22935222.0434
        42.7504         37.7504
   -875787.81648   -675633.99248  21279783.7424                   21279780.9654
        49.7504         49.7504
    927610.02746   1156877.21143  25116127.5864                   25116127.6174
        36.2504         20.0004
    444770.70347    341884.97344  23433956.6024                   23433953.2704
        42.2504         25.7504
    897968.29346    693256.39146  23369290.3674                   23369289.0704
        41.2504         37.2504
  -3991474.19947  -3078050.19945  22468542.3524                   22468538.5664
        44.5004         31.7504
   -978497.22348   -753727.80148  20525865.6414                   20525861.7384
        50.5004         52.7504
    408377.83646    771526.18443  24801070.2274                   24801068.2154
        36.7504         21.2504
  -4514266.91046  -3451364.30944  24262705.4534                   24262703.4104
        40.5004         29.5004
  -2662189.61746  -1741555.08642  24666284.7424                   24666281.5744
        38.2504         17.7504
 25  7 15 21 38  0.0000000  0 11G02G08G10G18G23G27G28G32G24G31G01
  -3649364.07847  -2812699.45345  22521537.8134                   22521530.7894
        44.5004         34.0004
   -355878.80947   -274185.61346  22933431.7034                   22933429.7854
        43.0004         38.0004
   -907995.94148   -700731.23848  21273655.2114                   21273651.7624
        50.2504         50.0004
    984263.53145   1201022.57842  25126906.3524                   25126908.6644
        33.0004         16.2504
    459238.32446    353158.38744  23436709.6484                   23436706.2344
        41.5004         26.0004
    930002.82446    718218.29346  23375386.6254                   23375385.3324
        41.5004         36.7504
  -4134593.91847  -3189571.99645  22441307.5314                   22441303.5514
        43.7504         31.2504
  -1011117.16448   -779145.93748  20519657.8444                   20519654.5594
        51.0004         52.7504
    448552.39846    802830.98845  24808715.2734                   24808714.2734
        40.0004         31.0004
  -4681475.07847  -3581656.25845  24230888.1254                   24230885.3754
        42.0004         31.0004
  -2819540.25446  -1864165.93743  24636341.7664                   24636338.8054
        37.0004         18.2504
 25  7 15 21 38 30.0000000  0 11G02G08G10G18G23G27G28G32G24G31G01
  -3775462.19947  -2910957.71145  22497541.6174                   22497535.2304
        45.0004         33.5004
   -365054.55547   -281335.58246  22931685.4304                   22931683.6954
        42.5004         37.0004
   -940196.14548   -725822.31248  21267527.4534                   21267524.1174
        50.5004         49.7504
   1040853.87146   1245118.62543  25137676.5234                   25137677.8984
        36.2504         19.0004
    473652.62947    364390.25844  23439453.1414                   23439449.7814
        42.2504         25.7504
    962033.05947    743176.84046  23381481.8204                   23381480.2814
        42.0004         37.0004
  -4277602.01647  -3301006.81645  22414093.8364                   22414090.2424
        44.2504         32.5004
  -1043520.30148   -804395.14148  20513492.0314                   20513488.8794
        51.2504         53.0004
    488902.48446    834272.56345  24816393.6254                   24816393.4534
        41.7504         34.7504
  -4848876.58246  -3712098.86344  24199030.9384                   24199029.0904
        38.0004         27.0004
  -2977019.44946  -1986876.91443  24606373.6804                   24606371.2344
        38.2504         19.2504
 25  7 15 21 39  0.0000000  0  9G02G08G10G23G27G28G32G31G01
  -3901442.97347  -3009124.52345  22473568.8984                   22473562.2894
        45.0004         34.5004
   -373985.77347   -288295.02346  22929986.0864                   22929984.6604
        43.2504         38.0004
   -972382.76248   -750902.80148  21261402.4384                   21261399.4024
        50.2504         49.7504
    488018.90646    375584.69144  23442186.2664                   23442183.3204
        41.5004         25.7504
    994061.12546    768133.70746  23387576.3984                   23387575.3134
        40.7504         36.5004
  -4420490.31647  -3412348.28945  22386903.5084                   22386899.3554
        43.7504         32.0004
  -1075703.07448   -829472.62948  20507367.5944                   20507364.2384
        51.5004         52.7504
  -5016463.94146  -3842686.23845  24167140.5084                   24167139.1374
        41.0004         32.5004
  -3134619.85246  -2109682.35243  24576383.8754                   24576381.0124
        39.5004         19.5004
 25  7 15 21 39 30.0000000  0  9G02G08G10G23G27G28G32G31G01
  -4027302.97347  -3107197.22745  22449618.6804                   22449611.5474
        45.0004         34.0004
   -382673.49647   -295064.73446  22928332.6724                   22928331.2894
        42.5004         37.5004
  -1004554.02748   -775971.33248  21255280.4454                   21255276.9884
        50.2504         49.7504
    502338.69947    386742.91444  23444911.1884                   23444908.3834
        42.5004         25.5004
   1026085.22346    793087.47746  23393670.6254                   23393669.3054
        39.2504         37.0004
  -4563254.46547  -3523593.01645  22359735.8444                   22359731.8674
        44.2504         32.2504
  -1107665.65248   -854378.53548  20501285.5784                   20501281.8674
        51.5004         52.7504
  -5184232.86347  -3973415.08245  24135215.5784                   24135213.6844
        42.0004         34.2504
  -3292338.18446  -2232579.69943  24546371.2034                   24546367.1094
        40.2504         20.0004
 25  7 15 21 40  0.0000000  0  9G02G08G10G23G27G28G32G31G01
  -2577604.27747  -1977561.85545  22725487.6644                   22725480.1684
        45.0004         34.7504
   1184311.98847    925962.87546  23226520.6484                   23226518.6724
        42.5004         37.2504
    538723.39548    426582.49648  21548956.4614                   21548953.3714
        49.5004         50.0004
   2092043.44147   1625473.82844  23747422.0234                   23747419.2384
        42.0004         26.0004
   2633532.90646   2045644.02746  23699557.7194                   23699556.5864
        40.0004         36.7504
  -3130454.96147  -2407125.80545  22632388.1174                   22632384.6254
        43.5004         32.2504
    436023.18848    348495.89148  20795039.6174                   20795036.3134
        50.7504         53.0004
  -3776743.22746  -2876669.70344  24403050.6804                   24403048.6954
        37.7504         28.0004
  -1874735.38746  -1127954.05543  24816132.4534                   24816128.9844
        41.0004         20.7504
 25  7 15 21 40 30.0000000  0  9G02G08G10G23G27G28G32G31G01
  -2703180.65247  -2075413.55945  22701590.7504                   22701583.7304
        44.7504         35.0004
   1176139.79747    919594.89546  23224964.9774                   23224964.0164
        42.5004         37.5004
    506619.92248    401566.79748  21542847.5704                   21542844.5124
        48.7504         50.0004
   2106306.28947   1636587.69143  23750136.7894                   23750133.3714
        42.0004         23.7504
   2665575.40246   2070612.10946  23705655.7424                   23705654.4344
        40.5004         37.0004
  -3272926.14847  -2518142.25445  22605277.1564                   22605273.3014
        43.7504         32.2504
    404531.88348    323957.20748  20789047.1804                   20789043.1334
        50.2504         52.7504
  -3944831.44946  -3007647.41445  24371065.6884                   24371062.0824
        41.5004         30.7504
  -2032647.91446  -1251002.72742  24786081.6644                   24786078.7114
        40.0004         17.7504
 25  7 15 21 41  0.0000000  0  9G02G08G10G23G27G28G32G31G01
  -2828603.17247  -2173145.37145  22677723.4694                   22677716.7344
        45.0004         34.0004
   1168230.44547    913431.70746  23223459.6414                   23223458.5434
        42.7504         37.5004
    474559.72747    376584.81648  21536746.5004                   21536743.3014
        47.7504         49.7504
   2120549.50846   1647686.25044  23752847.1564                   23752843.5984
        41.0004         24.0004
   2697631.16446   2095590.53146  23711755.3594                   23711754.0554
        40.5004         37.5004
  -3415237.66447  -2629034.27745  22578195.8594                   22578192.2274
        43.2504         32.2504
    373282.52348    299607.05948  20783100.6884                   20783097.0824
        49.5004         52.5004
  -4113066.12146  -3138739.19145  24339050.7664                   24339049.5204
        41.0004         33.2504
  -2190645.76246  -1374117.91043  24756016.0314                   24756012.0474
        40.7504         19.0004
 25  7 15 21 41 30.0000000  0  9G02G08G10G23G27G28G32G31G01
  -2953871.10247  -2270756.72345  22653886.0164                   22653878.5434
        45.0004         34.5004
   1160580.34447    907470.53546  23222004.6724                   23222002.6804
        42.5004         38.0004
    442542.05948    351635.98048  21530653.7344                   21530650.4614
        49.5004         49.5004
   2134772.04746   1658768.68444  23755553.1954                   23755549.5634
        41.5004         24.5004
   2729695.85246   2120575.91446  23717857.1414                   23717855.7814
        41.0004         38.0004
  -3557387.80147  -2739800.55545  22551145.8054                   22551141.9534
        43.0004         32.0004
    342272.29748    275443.23848  20777199.8444                   20777196.0394
        50.7504         52.7504
  -4281445.67646  -3269943.78144  24307008.7344                   24307007.5274
        36.2504         29.2504
  -2348728.09046  -1497298.93743  24725934.0394                   24725930.2034
        40.0004         18.2504
 25  7 15 21 42  0.0000000  0  9G02G08G10G23G27G28G32G31G01
  -3078978.53147  -2368243.02045  22630078.7034                   22630071.4774
        44.2504         34.5004
   1153190.81647    901712.42246  23220598.2274                   23220596.3324
        43.0004         38.0004
    410571.23448    326723.63348  21524569.8914                   21524566.9494
        49.7504         49.5004
   2148977.92246   1669838.14543  23758256.9224                   23758253.7034
        40.5004         22.5004
   2761770.18446   2145568.81646  23723960.8204                   23723959.6804
        39.7504         36.7504
  -3699369.75847  -2850435.78145  22524127.7034                   22524123.2344
        43.0004         32.0004
    311503.38348    251467.46148  20771344.3134                   20771340.8594
        50.0004         52.5004
  -4449963.75846  -3401256.36344  24274941.6564                   24274938.2424
        39.5004         28.5004
  -2506889.17646  -1620541.27343  24695837.1094                   24695833.5234
        37.0004         19.2504
 25  7 15 21 42 30.0000000  0  9G02G08G10G23G27G28G32G31G01
  -3203925.88347  -2465604.57445  22606302.2274                   22606295.0354
        45.0004         34.2504
   1146056.77346    896153.36346  23219240.6174                   23219239.1954
        41.2504         38.2504
    378645.02748    301846.06648  21518494.5704                   21518491.3874
        49.2504         49.5004
   2163164.57846   1680892.62143  23760956.0394                   23760953.5004
        40.0004         22.2504
   2793848.41846   2170564.76246  23730064.7734                   23730064.3134
        40.2504         36.7504
  -3841183.18447  -2960939.68745  22497141.1254                   22497137.2194
        43.2504         31.5004
    280971.54348    227676.40648  20765534.6094                   20765531.4184
        50.5004         52.5004
  -4618619.82046  -3532676.53545  24242847.1414                   24242845.0944
        37.7504         30.2504
  -2665129.56646  -1743845.40643  24665724.0944                   24665721.0354
        37.0004         20.0004
 25  7 15 21 43  0.0000000  0  9G02G08G10G23G27G28G32G31G01
  -3328709.83247  -2562838.80545  22582556.8594                   22582549.2344
        44.5004         35.2504
   1139176.91047    890792.37146  23217931.5004                   23217930.2934
        42.2504         37.5004
    346765.12948    277004.57048  21512428.1024                   21512424.8284
        48.7504         49.7504
   2177333.27346   1691933.10243  23763652.2114                   23763649.5354
        40.5004         22.5004
   2825928.62946   2195562.24246  23736169.8134                   23736168.6844
        39.0004         36.2504
  -3982823.97747  -3071309.07445  22470187.3134                   22470183.7664
        44.0004         32.0004
    250676.29348    204069.71148  20759769.3834                   20759765.8674
        49.7504         52.5004
  -4787410.37146  -3664201.35945  24210726.4844                   24210725.0634
        38.7504         32.0004
  -2823445.92646  -1867208.71143  24635597.5784                   24635594.2034
        36.0004         19.0004
 25  7 15 21 43 30.0000000  0  9G02G08G10G23G27G28G32G31G01
  -3453326.82047  -2659942.93445  22558842.9144                   22558835.5044
        45.7504         34.5004
   1132550.18847    885628.63746  23216670.7894                   23216669.0004
        42.7504         38.0004
    314933.35548    252200.58648  21506370.5704                   21506367.4774
        49.0004         49.7504
   2191485.55946   1702960.79343  23766345.6254                   23766342.7774
        39.2504         22.2504
   2858009.07046   2220559.90246  23742275.1174                   23742273.3874
        40.2504         36.5004
  -4124287.79747  -3181540.55145  22443268.3984                   22443264.3324
        43.5004         32.2504
    220617.39848    180647.19148  20754049.5394                   20754045.9264
        50.5004         52.7504
  -4956330.46946  -3795827.16845  24178582.3984                   24178580.1134
        40.0004         32.2504
  -2981834.90245  -1990628.60243  24605456.4454                   24605454.2154
        33.5004         19.5004
 25  7 15 21 44  0.0000000  0  9G02G08G10G23G27G28G32G31G01
  -3577774.08647  -2756914.80945  22535160.9224                   22535153.4884
        45.0004         35.5004
   1126174.77747    880660.74246  23215457.4614                   23215455.5594
        43.0004         37.5004
    283150.97748    227435.08248  21500322.7734                   21500320.0864
        49.2504         49.7504
   2205622.37546   1713976.43443  23769035.6724                   23769032.4884
        40.0004         21.5004
   2890087.40646   2245555.89846  23748379.4064                   23748378.1214
        40.0004         36.5004
  -4265570.93447  -3291631.25445  22416382.5314                   22416378.6524
        44.0004         32.2504
    190794.00448    157408.17648  20748374.5634                   20748371.0124
        50.7504         52.7504
  -5125376.58846  -3927551.28945  24146414.9144                   24146410.7734
        40.7504         31.0004
  -3140293.69145  -2114102.80943  24575303.5784                   24575300.4534
        33.2504         19.0004
 25  7 15 21 44 30.0000000  0  9G02G08G10G23G27G28G32G31G01
  -3702046.54347  -2853750.47345  22511512.4534                   22511505.3364
        44.5004         34.5004
   1120051.21547    875889.07446  23214292.5314                   23214291.0124
        42.5004         38.2504
    251421.46547    202710.78148  21494284.8674                   21494281.5634
        47.5004         49.7504
   2219746.73046   1724982.35543  23771724.5314                   23771720.7384
        40.5004         22.5004
   2922163.63746   2270550.29346  23754483.3834                   23754481.7384
        40.7504         37.2504
  -4406667.43747  -3401576.52345  22389533.0784                   22389529.1334
        45.0004         32.5004
    161207.43048    134353.69948  20742744.2424                   20742740.5434
        49.2504         53.0004
  -5294543.18746  -4059369.21145  24114221.2664                   24114220.2304
        38.0004         31.5004
  -3298817.13746  -2237627.45743  24545137.1254                   24545134.5314
        36.5004         20.7504
 25  7 15 21 45  0.0000000  0  9G02G08G10G23G27G28G32G31G01
  -3826140.00447  -2950446.65645  22487898.0394                   22487891.2154
        45.2504         35.0004
   1114178.64847    871312.98046  23213174.6564                   23213173.4414
        42.7504         37.7504
    219746.91847    178029.30548  21488257.2814                   21488254.0744
        47.2504         49.7504
   2233860.46146   1735979.98843  23774409.3984                   23774406.7584
        40.5004         22.5004
   2954236.21546   2295541.81646  23760585.9774                   23760585.1054
        40.5004         38.0004
  -4547572.74647  -3511372.80945  22362719.7974                   22362715.2814
        44.5004         32.5004
    131857.71548    111483.78548  20737158.9694                   20737155.4534
        48.7504         53.0004
  -5463825.46946  -4191277.19145  24082009.0634                   24082007.2894
        40.7504         33.5004
  -3457401.43046  -2361199.53543  24514959.9304                   24514956.7304
        39.5004         23.0004
 25  7 15 21 45 30.0000000  0  9G02G08G10G23G27G28G32G31G01
  -3950050.69547  -3047000.42245  22464319.0554                   22464311.7704
        45.0004         35.2504
   1108556.65247    866932.16046  23212104.9774                   23212103.0984
        42.0004         37.0004
    188130.01647    153392.75048  21482240.8444                   21482237.7544
        47.5004         49.5004
   2247965.80546   1746971.11743  23777094.0164                   23777090.4614
        40.5004         22.5004
   2986304.15646   2320529.74646  23766688.5314                   23766687.7814
        41.0004         37.5004
  -4688281.80547  -3621016.17645  22335943.8524                   22335939.0274
        44.5004         33.5004
    102745.29748     88798.77748  20731619.3524                   20731615.8324
        49.0004         52.7504
  -5633218.81246  -4323271.84845  24049774.3674                   24049771.7154
        40.0004         31.2504
  -3616042.33646  -2484815.76644  24484771.2814                   24484767.7854
        40.2504         27.7504
 25  7 15 21 46  0.0000000  0  9G02G08G10G23G27G28G32G31G01
  -4073775.33247  -3143409.21945  22440774.8834                   22440767.9384
        46.0004         34.2504
   1103183.62547    862745.32846  23211082.5004                   23211080.9414
        42.0004         38.0004
    156572.07847    128802.12948  21476235.5394                   21476232.1914
        47.5004         49.7504
   2262063.74246   1757956.44143  23779777.1884                   23779773.5274
        40.0004         22.0004
   3018365.35546   2345512.41446  23772790.1724                   23772788.3134
        40.5004         36.7504
  -4828790.79747  -3730503.64145  22309205.2274                   22309201.3554
        45.5004         33.0004
     73869.39848     66298.06648  20726124.3054                   20726121.0864
        48.7504         52.7504
  -5802719.04346  -4455349.71545  24017519.4694                   24017516.7234
        41.5004         32.0004
  -3774737.02047  -2608473.86744  24454572.7664                   24454569.9964
        42.7504         27.0004
 25  7 15 21 46 30.0000000  0  9G02G08G10G23G27G28G32G31G01
  -4197307.96547  -3239668.39545  22417267.6254                   22417259.8954
        45.2504         34.5004
   1098060.86347    858753.49246  23210108.1334                   23210106.4614
        42.0004         38.0004
    125077.52747    104260.91048  21470242.4694                   21470239.1684
        47.5004         49.7504
   2276158.30546   1768939.16443  23782459.4384                   23782455.7344
        41.2504         22.5004
   3050420.53946   2370490.39146  23778890.0314                   23778888.7584
        39.7504         36.5004
  -4969092.90647  -3839829.90245  22282507.0084                   22282502.2734
        46.0004         32.7504
     45232.27048     43983.42248  20720675.0704                   20720671.4574
        48.7504         52.7504
  -5972319.29347  -4587505.62145  23985245.7274                   23985242.9454
        42.7504         32.5004
  -3933479.39147  -2732169.13344  24424365.2194                   24424362.1134
        43.2504         27.5004
 25  7 15 21 47  0.0000000  0  9G02G08G10G23G27G28G32G31G01
  -4320643.77747  -3335774.20345  22393797.5314                   22393790.2424
        46.0004         34.5004
   1093188.64846    854956.91046  23209179.9454                   23209179.0704
        41.5004         37.5004
     93649.65648     79771.64848  21464261.7274                   21464259.1954
        49.0004         49.7504
   2290252.43846   1779921.57443  23785140.0394                   23785138.0084
        39.7504         22.5004
   3082469.53146   2395463.52346  23784988.5784                   23784987.2854
        40.5004         36.0004
  -5109182.38347  -3948990.47745  22255848.6174                   22255844.1644
        45.7504         32.7504
     16835.06648     21855.71948  20715270.9304                   20715267.2624
        50.7504         52.7504
  -6142014.25446  -4719735.25845  23952952.7034                   23952950.2814
        40.0004         30.5004
  -4092264.46947  -2855897.69544  24394149.2974                   24394146.0234
        43.2504         27.7504
 25  7 15 21 47 30.0000000  0  9G02G08G10G23G27G28G32G31G01
  -4443776.60247  -3431721.84845  22370366.2424                   22370359.0514
        46.0004         35.2504
   1088568.57846    851356.79746  23208301.5164                   23208300.2734
        41.5004         37.7504
     62293.16848     55338.01248  21458294.7974                   21458291.6524
        48.5004         49.5004
   2304350.37946   1790906.88744  23787824.0864                   23787820.4104
        40.2504         24.0004
   3114513.34046   2420432.63346  23791085.5554                   23791085.1054
        40.0004         36.2504
  -5249052.23847  -4057979.92645  22229232.3914                   22229227.9884
        45.0004         33.2504
    -11319.77748       -83.12948  20709913.4064                   20709909.4804
        50.5004         52.5004
  -6311796.63747  -4852033.05945  23920644.9454                   23920641.4574
        42.2504         33.0004
  -4251086.05147  -2979654.69944  24363926.9844                   24363923.3054
        44.0004         27.2504
 25  7 15 21 48  0.0000000  0  9G02G08G10G23G27G28G32G31G01
  -4566701.46947  -3527507.45345  22346974.0474                   22346967.2194
        46.2504         34.5004
   1084200.71547    847953.20746  23207470.6804                   23207469.1644
        42.5004         38.0004
     31011.19547     30962.43848  21452342.1094                   21452338.9774
        47.5004         49.5004
   2318454.98846   1801897.41044  23790507.8524                   23790504.8204
        41.2504         24.0004
   3146551.55946   2445397.37146  23797183.1644                   23797182.2584
        41.0004         36.7504
  -5388696.85547  -4166793.85245  22202658.5314                   22202654.3484
        45.7504         33.5004
    -39231.24248    -21832.32048  20704602.0704                   20704598.3874
        50.0004         52.5004
  -6481660.80946  -4984394.58245  23888319.8754                   23888317.9964
        39.7504         32.2504
  -4409939.27347  -3103436.36744  24333698.0784                   24333694.0594
        43.0004         24.5004
 25  7 15 21 48 30.0000000  0  9G02G08G10G23G27G28G32G31G01
  -4689413.10947  -3623126.89845  22323622.7664                   22323615.4964
        46.0004         35.5004
   1080085.44147    844746.43846  23206687.0864                   23206686.0664
        42.2504         38.2504
      -192.79747      6647.62948  21446404.1644                   21446400.9224
        47.7504         49.5004
   2332569.20346   1812895.42644  23793193.3134                   23793189.8364
        41.0004         25.2504
   3178584.16846   2470357.76646  23803277.9534                   23803277.8404
        39.5004         36.5004
  -5528110.40647  -4275427.73045  22176128.9694                   22176124.8284
        45.5004         33.0004
    -66898.07448    -43390.89548  20699337.2584                   20699333.4774
        49.2504         52.5004
  -6651601.04346  -5116815.32045  23855982.3284                   23855979.8284
        41.5004         34.7504
  -4568819.04747  -3227238.68743  24303463.5704                   24303460.2544
        42.0004         22.2504
 25  7 15 21 49  0.0000000  0  9G02G08G10G23G27G28G32G31G01
  -4811903.41847  -3718573.87545  22300313.8834                   22300306.7074
        46.2504         35.7504
   1076226.39547    841739.34446  23205953.1804                   23205951.2734
        42.2504         38.0004
    -31312.02748    -17601.13748  21440482.4144                   21440479.3204
        49.2504         49.7504
   2346699.46946   1823905.96944  23795882.2734                   23795879.9574
        40.0004         24.2504
   3210614.25446   2495316.17646  23809373.2344                   23809372.6644
        40.0004         36.0004
  -5667283.73047  -4383874.41845  22149645.1954                   22149641.0664
        46.0004         34.0004
    -94315.68448    -64755.27748  20694119.9224                   20694116.0554
        51.2504         52.5004
  -6821608.16046  -5249288.25045  23823630.3524                   23823627.0474
        41.2504         31.5004
  -4727716.99246  -3351055.20343  24273226.6334                   24273223.2664
        41.0004         21.7504
 25  7 15 21 49 30.0000000  0  9G02G08G10G23G27G28G32G31G01
