     2.11           OBSERVATION DATA    G (GPS)             RINEX VERSION / TYPE
teqc  2019Feb25     K Rivera            20250820 07:07:31UTCPGM / RUN BY / DATE
Linux 2.6.32-573.12.1.x86_64|x86_64|gcc -static|Linux 64|=+ COMMENT
teqc  2019Feb25                         20250820 07:01:51UTCCOMMENT
BIT 2 OF LLI FLAGS DATA COLLECTED UNDER A/S CONDITION       COMMENT
J701                                                        MARKER NAME
                                                            MARKER NUMBER
Katie Baraggiotta   University of California, Riverside     OBSERVER / AGENCY
0220413516          TRIMBLE R7          2.32                REC # / TYPE / VERS
1441040465          TRM57971.00                             ANT # / TYPE
 -2421224.7892 -4595396.3578  3690373.5762                  APPROX POSITION XYZ
        0.8306        0.0000        0.0000                  ANTENNA: DELTA H/E/N
     1     1                                                WAVELENGTH FACT L1/2
     7    L1    L2    C1    P1    P2    S1    S2            # / TYPES OF OBSERV
    18                                                      LEAP SECONDS
 SNR is mapped to RINEX snr flag value [0-9]                COMMENT
  L1 & L2: min(max(int(snr_dBHz/6), 0), 9)                  COMMENT
  2025     8     7    19    35   30.0000000     GPS         TIME OF FIRST OBS
                                                            END OF HEADER
 25  8  7 19 35 30.0000000  0  6G02G08G10G23G27G32
   -283416.41457   -173121.09054  23319278.0704                   23319274.4384
        44.0004         29.7504
   -114822.41857    -70455.38756  22525457.1174                   22525458.9384
        44.5004         40.2504
   -124328.14158    -78267.98858  21111498.7034                   21111497.5234
        50.7504         51.7504
    -43640.59057    -27050.57454  22791999.5164                   22791997.8134
        44.0004         29.5004
    -28381.34857    -17661.87156  22509524.9384                   22509526.0004
        44.7504         40.5004
   -151554.59858    -92731.80158  20418347.3054                   20418345.5354
        50.7504         53.5004
 25  8  7 19 36  0.0000000  0  8G02G08G10G23G24G27G28G32
   -458955.53147   -309904.75445  23285873.9064                   23285870.0984
        43.5004         30.0004
   -186069.51647   -125972.70746  22511899.2734                   22511900.8164
        44.5004         40.5004
   -201854.74248   -138678.35248  21096745.5394                   21096744.5554
        51.2504         51.7504
    -71886.95747    -49060.80945  22786624.1334                   22786623.0434
        45.0004         30.2504
    -26788.44155    -15236.43454  23934112.1954                   23934113.5634
        34.5004         28.5004
    -47052.07447    -32210.61747  22505971.7034                   22505973.2424
        45.7504         42.2504
   -459640.53956   -283219.81652  23496222.1884                   23496223.4494
        37.7504         17.7504
   -245343.77348   -165814.29348  20400499.7424                   20400498.4654
        51.0004         53.5004
 25  8  7 19 36 30.0000000  0  8G02G08G10G23G24G27G28G32
   -634875.15646   -446984.91044  23252396.9224                   23252393.3054
        41.2504         25.5004
   -257345.44547   -181512.48846  22498335.8444                   22498337.5784
        44.7504         38.7504
   -279763.45348   -199386.47348  21081920.2114                   21081919.0984
        50.2504         50.7504
   -100572.25047    -71413.08644  22781166.1414                   22781164.6214
        42.7504         28.7504
    -48874.65246    -32446.52044  23929908.3134                   23929910.1604
        37.0004         28.5004
    -65932.60247    -46922.84047  22502379.4304                   22502380.3714
        44.7504         42.2504
   -651716.94546   -432889.53544  23459671.1334                   23459672.8484
        40.7504         24.7504
   -339214.39548   -238960.25448  20382636.9224                   20382635.1764
        51.0004         53.0004
 25  8  7 19 37  0.0000000  0  9G02G08G10G18G23G24G27G28G32
    764349.89847    643320.36344  23518660.6254                   23518657.2304
        43.5004         28.5004
   1246867.91447    990601.71946  22784578.2814                   22784579.6884
        45.2504         40.5004
   1217465.47348    967285.39148  21366833.5234                   21366832.5434
        49.7504         48.2504
   1592774.07456   1238041.51254  24345364.9614                   24345368.4694
        38.5004         24.2504
   1445821.64146   1133569.06343  23075434.9614                   23075433.6914
        38.2504         22.7504
   1558298.44155   1184623.47353  24225508.4774                   24225508.7584
        34.0004         21.5004
   1490491.74647   1165875.25847  22798556.8594                   22798558.8164
        45.5004         43.7504
    731296.23446    644783.25844  23722849.7584                   23722850.6174
        38.5004         25.0004
   1142352.75048    915507.64848  20664569.3594                   20664567.9654
        48.7504         51.5004
 25  8  7 19 37 30.0000000  0  9G02G08G10G18G23G24G27G28G32
    587930.16447    505850.52044  23485088.8674                   23485085.4614
        44.0004         28.0004
   1175784.55547    935212.00846  22771051.8594                   22771053.3554
        45.7504         41.0004
   1139047.39548    906180.37547  21351911.1644                   21351909.6024
        48.5004         47.0004
   1602105.18446   1245312.19944  24347141.6094                   24347144.4844
        41.2504         27.7504
   1416513.00446   1110731.09043  23069857.6094                   23069856.1804
        39.5004         22.0004
                                  24221332.992
        31.000
   1471437.01647   1151027.32047  22794931.0474                   22794932.5084
        45.0004         43.0004
    538609.36746    494637.83244  23686182.9454                   23686183.4344
        41.7504         25.2504
   1048570.77748    842430.77048  20646723.3204                   20646722.0824
        51.5004         53.0004
 25  8  7 19 38  0.0000000  0  9G02G08G10G18G23G24G27G28G32
    411341.41847    368248.96944  23451485.3524                   23451481.3204
        44.2504         28.5004
   1104873.70747    879956.74245  22757558.1254                   22757559.2774
        42.5004         33.0004
   1060453.31648    844938.18448  21336955.3054                   21336953.8834
        49.7504         50.2504
   1611297.01246   1252474.32444  24348890.6334                   24348894.2584
        40.7504         25.5004
   1386971.17246   1087711.36344  23064236.8054                   23064234.6254
        40.0004         26.5004
   1514574.68845   1159305.08654  24217186.7974                   24217188.1844
        33.2504         27.7504
   1452369.26646   1136169.16845  22791302.7344                   22791304.3324
        40.0004         33.0004
    345700.11347    344319.06344  23649472.9614                   23649473.6954
        42.0004         25.5004
    954910.08248    769448.37548  20628900.8524                   20628899.0204
        50.5004         53.0004
 25  8  7 19 38 30.0000000  0  9G02G08G10G18G23G24G27G28G32
    234622.98447    230546.37545  23417857.2194                   23417853.1024
        44.0004         30.5004
   1034171.02047    824863.66446  22744103.3204                   22744105.1054
        43.7504         39.0004
    981720.47748    783587.88348  21321972.9534                   21321971.7504
        50.7504         51.2504
                                  24350620.5864                   24350623.8874
        34.2504         20.2504
   1357233.55546   1064539.10244  23058577.0944                   23058575.8754
        40.2504         28.7504
   1492971.45746   1142471.35545  24213076.4064                   24213077.1484
        37.2504         31.0004
   1433322.55547   1121327.44947  22787678.2274                   22787679.2664
        44.0004         42.0004
    152608.73047    193858.41443  23612728.5164                   23612729.6954
        42.5004         22.7504
    861406.86748    696588.72348  20611107.5084                   20611105.6454
        51.5004         53.0004
 25  8  7 19 39  0.0000000  0  9G02G08G10G18G23G24G27G28G32
     57807.58247     92768.22744  23384210.4924                   23384206.1644
        43.7504         29.5004
    963705.59447    769955.46546  22730694.1564                   22730695.8524
        43.2504         39.0004
    902879.54748    722153.37948  21306969.9304                   21306968.3134
        50.5004         50.5004
   1629400.01656   1260211.43853  24352335.7664                   24352340.0274
        38.5004         19.7504
   1327330.73046   1041238.10544  23052887.0554                   23052886.0864
        41.2504         28.5004
   1471580.79346   1125803.25445  24209005.9224                   24209006.8014
        38.5004         31.0004
   1414324.53547   1106523.66446  22784062.8054                   22784064.5664
        44.0004         41.5004
    -40631.18047     43282.05544  23575955.7734                   23575957.0904
        42.5004         26.0004
    768090.73448    623874.85248  20593349.7974                   20593348.0904
        50.5004         53.2504
 25  8  7 19 39 30.0000000  0  9G02G08G10G18G23G24G27G28G32
   -119074.23447    -45061.69545  23350550.6804                   23350546.3594
        44.5004         30.0004
    893504.37147    715253.13346  22717335.6644                   22717337.3674
        42.7504         38.7504
    823959.27348    660657.03548  21291951.9144                   21291950.6454
        50.2504         50.5004
   1638364.80945   1267196.62543  24354042.7274                   24354045.6024
        35.5004         22.2504
   1297291.18846   1017830.55145  23047170.6094                   23047169.5234
        41.2504         30.5004
   1450429.06345   1109321.34444  24204980.4144                   24204982.3554
        34.0004         25.5004
   1395400.57447   1091777.59846  22780462.1024                   22780463.5354
        44.2504         41.2504
   -233988.07846   -107385.47744  23539161.7274                   23539162.3014
        41.5004         25.5004
    674989.06648    551328.07448  20575633.1414                   20575631.6374
        50.7504         52.7504
 25  8  7 19 40  0.0000000  0  9G02G08G10G18G23G24G27G28G32
   -296000.00847   -182925.86345  23316883.1334                   23316878.7304
        44.5004         30.0004
    823586.25847    660771.39146  22704030.8284                   22704032.1254
        42.7504         38.5004
    744980.28148    599114.93848  21276922.6884                   21276921.5124
        50.0004         50.5004
   1647300.23846   1274158.95743  24355742.8364                   24355746.2384
        36.5004         22.0004
   1267135.48046    994332.50845  23041432.5394                   23041431.3634
        41.5004         30.0004
   1429534.06646   1093039.46945  24201004.6024                   24201005.8134
        38.7504         31.0004
   1376568.26647   1077102.94946  22776878.6954                   22776880.2074
        44.2504         41.0004
   -427438.49247   -258125.88344  23502349.0394                   23502350.0354
        42.0004         26.5004
    582121.34448    478963.61348  20557961.1174                   20557959.6414
        50.5004         53.0004
 25  8  7 19 40 30.0000000  0  9G02G08G10G18G23G24G27G28G32
   -472948.34847   -320807.61344  23283210.5164                   23283206.7304
        43.7504         29.0004
    753968.83647    606523.97746  22690782.9614                   22690783.9384
        42.5004         38.0004
    665961.84848    537542.10548  21261886.1024                   21261884.9574
        50.2504         50.5004
   1656223.71546   1281111.97743  24357441.2734                   24357444.5044
        37.5004         22.0004
   1236882.89147    970758.96545  23035675.3914                   23035674.4144
        42.7504         30.0004
   1408912.94546   1076971.00845  24197080.4304                   24197082.0904
        38.2504         30.5004
   1357843.69147   1062512.24646  22773315.5164                   22773317.1564
        44.5004         41.0004
   -620960.19547   -408921.82044  23465523.0864                   23465523.4694
        42.7504         26.7504
    489505.70348    406795.57848  20540336.8984                   20540335.3164
        50.7504         53.0004
 25  8  7 19 41  0.0000000  0  9G02G08G10G18G23G24G27G28G32
   -649895.05547   -458688.09045  23249538.4304                   23249534.5434
        44.2504         30.0004
    684672.78147    552526.97346  22677596.4694                   22677597.8204
        43.0004         38.2504
    586926.48448    475956.08248  21246846.1724                   21246844.9614
        50.0004         50.5004
   1665155.77045   1288071.68843  24359141.3054                   24359144.2974
        35.0004         20.2504
   1206555.77346    947127.35944  23029904.6724                   23029903.4454
        41.7504         29.5004
   1388585.34846   1061131.28145  24193212.2664                   24193213.4104
        39.0004         30.7504
   1339246.14147   1048020.53946  22769776.6024                   22769777.8014
        44.0004         41.5004
   -814527.87547   -559753.60244  23428688.5784                   23428688.7814
        42.7504         27.5004
    397163.31648    334840.46548  20522764.9144                   20522763.3204
        51.0004         53.0004
 25  8  7 19 41 30.0000000  0  9G02G08G10G18G23G24G27G28G32
   -826822.08247   -596553.23045  23215870.2344                   23215866.7504
        44.5004         31.5004
    615712.48447    498791.59846  22664473.6804                   22664475.1524
        43.5004         39.2504
    507890.31348    414369.43448  21231806.0864                   21231804.6134
        50.2504         50.5004
   1674110.68045   1295049.18443  24360844.7344                   24360848.7854
        35.5004         19.5004
   1176170.15647    923450.16845  23024122.7814                   23024120.8404
        42.5004         30.0004
   1368565.06646   1045531.01645  24189402.5314                   24189403.7344
        39.0004         30.0004
   1320788.53547   1033637.87147  22766264.5234                   22766265.8324
        44.0004         42.2504
  -1008122.50047   -710606.36344  23391847.7274                   23391848.6914
        42.2504         26.7504
    305109.13748    263109.93448  20505247.3984                   20505246.1294
        51.5004         53.0004
 25  8  7 19 42  0.0000000  0  9G02G08G10G18G23G24G27G28G32
  -1003711.71547   -734389.23845  23182209.3284                   23182205.2854
        44.7504         31.2504
    547102.03947    445328.83246  22651417.9694                   22651419.4144
        43.7504         39.0004
    428869.25048    352794.55548  21216768.5784                   21216767.3204
        49.7504         50.5004
   1683102.46945   1302055.42243  24362556.7274                   24362560.6334
        35.2504         20.0004
   1145741.89147    899739.74644  23018332.4454                   23018330.7624
        42.7504         29.7504
   1348865.16846   1030180.40644  24185653.7664                   24185655.0084
        38.5004         29.7504
   1302483.60547   1019374.18447  22762780.6724                   22762783.1214
        44.5004         42.0004
  -1201725.32447   -861465.52744  23355006.8914                   23355007.2704
        43.2504         27.7504
    213357.77748    191615.36348  20487787.6174                   20487785.7074
        52.0004         53.0004
 25  8  7 19 42 30.0000000  0  9G02G08G10G18G23G24G27G28G32
  -1180547.58647   -872183.34045  23148558.2194                   23148555.0394
        43.7504         31.7504
    478853.96547    392148.43446  22638430.5164                   22638431.9024
        43.0004         39.0004
    349877.71548    291242.68448  21201737.5864                   21201735.7464
        49.7504         50.5004
   1692143.50446   1309100.01243  24364277.7664                   24364281.0434
        36.5004         19.5004
   1115285.17247    876007.14844  23012536.8524                   23012535.3204
        43.0004         28.0004
   1329497.63346   1015088.76244  24181967.9144                   24181969.5944
        37.7504         28.5004
   1284342.53947   1005238.16847  22759328.9224                   22759331.3134
        43.5004         42.5004
  -1395319.03947  -1012317.58244  23318166.8524                   23318167.3134
        42.7504         28.5004
    121922.32048    120366.95748  20470388.0394                   20470386.6334
        52.0004         53.0004
 25  8  7 19 43  0.0000000  0  9G02G08G10G18G23G24G27G28G32
  -1357318.25447  -1009926.64545  23114919.9064                   23114916.1604
        44.0004         30.5004
    410976.05547    339256.48446  22625513.8984                   22625515.7154
        43.5004         39.2504
    270925.27048    229721.27348  21186713.3364                   21186711.7464
        50.0004         50.5004
   1701241.60946   1316189.14843  24366009.0004                   24366012.3484
        37.0004         20.7504
   1084809.62147    852259.87144  23006737.0554                   23006736.3754
        42.5004         29.0004
   1310469.38746   1000261.52044  24178347.0634                   24178348.6414
        38.0004         27.5004
   1266371.69147    991234.78547  22755909.7274                   22755911.2934
        43.5004         42.0004
  -1588891.19947  -1163152.82444  23281331.0084                   23281331.4184
        43.0004         27.2504
     30811.11348     49371.21548  20453050.3204                   20453048.5904
        51.5004         53.0004
 25  8  7 19 43 30.0000000  0  9G02G08G10G18G23G24G27G28G32
  -1534007.17647  -1147606.24245  23081297.3444                   23081293.2584
        44.0004         31.2504
    343480.85547    286662.74646  22612670.4304                   22612671.7814
        43.5004         39.5004
    192026.39148    168241.59848  21171699.0784                   21171697.7384
        50.0004         50.5004
   1710409.19946   1323332.37543  24367752.8134                   24367757.4774
        37.2504         19.7504
   1054329.54347    828509.04744  23000937.5554                   23000936.3794
        43.0004         29.5004
   1291792.11746    985707.74644  24174792.9384                   24174794.3364
        38.0004         27.0004
   1248582.21147    977372.72347  22752523.8834                   22752526.1024
        43.5004         42.0004
  -1782424.57047  -1313957.87544  23244502.7664                   23244502.7854
        43.0004         27.7504
    -59962.76248    -21361.67648  20435776.7974                   20435774.8404
        51.0004         53.0004
 25  8  7 19 44  0.0000000  0  9G02G08G10G18G23G24G27G28G32
  -1710600.39847  -1285211.28145  23047692.5394                   23047688.6644
        43.2504         31.7504
    276378.71147    234375.28146  22599901.3594                   22599902.3714
        43.5004         40.7504
    113193.43048    106813.30148  21156697.4224                   21156696.2974
        50.7504         50.5004
   1719656.69346   1330537.88543  24369513.8364                   24369517.2114
        38.0004         20.2504
   1023857.14547    804764.22744  22995138.4774                   22995137.5904
        43.0004         29.5004
   1273475.67246    971435.15244  24171307.6484                   24171309.1954
        39.0004         28.2504
   1230983.28147    963659.14146  22749175.2814                   22749177.2114
        43.5004         41.2504
  -1975903.86747  -1464720.77344  23207684.7584                   23207684.5594
        42.5004         27.2504
   -150388.30148    -91823.13348  20418569.2664                   20418567.4414
        51.2504         53.0004
 25  8  7 19 44 30.0000000  0 10G02G08G10G18G23G24G27G28G32G31
  -1887087.22747  -1422733.43045  23014108.3444                   23014104.4304
        43.5004         31.2504
    209676.66447    182399.59046  22587208.6954                   22587209.8984
        43.5004         40.0004
     34435.24648     45443.25848  21141710.6564                   21141709.0314
        50.7504         50.5004
   1728990.94146   1337810.95743  24371290.3284                   24371293.8554
        39.0004         19.2504
    993401.13347    781032.18844  22989343.0864                   22989341.8634
        43.0004         28.2504
   1255526.06646    957448.40244  24167891.7114                   24167893.2814
        38.5004         29.0004
   1213580.47347    950098.37946  22745863.9454                   22745865.7934
        42.0004         40.7504
  -2169317.41447  -1615432.45344  23170879.0314                   23170879.5514
        42.0004         27.5004
   -240457.99648   -162007.32048  20401429.4144                   20401427.8134
        51.0004         53.0004
   1236007.47355   1016250.41853  25115998.6414                   25116006.0274
        33.7504         20.2504
 25  8  7 19 45  0.0000000  0 10G02G08G10G18G23G24G27G28G32G31
  -2063458.81247  -1560165.75445  22980545.9614                   22980541.8794
        43.0004         31.2504
    143379.55947    130739.43046  22574592.4694                   22574594.1644
        43.0004         40.2504
    -44241.29748    -15863.16048  21126739.2664                   21126737.8554
        49.5004         50.5004
   1738416.83246   1345155.49243  24373084.3134                   24373087.8554
        39.0004         19.2504
    962968.36347    757318.24244  22983551.9144                   22983550.8984
        42.5004         27.5004
   1237947.62146    943750.87144  24164547.7034                   24164548.4414
        39.2504         28.0004
   1196377.34447    936693.21546  22742590.2194                   22742591.9734
        42.5004         40.2504
  -2362655.48446  -1766085.32444  23134087.8754                   23134088.0784
        41.2504         27.7504
   -330166.33648   -231909.92248  20384358.7424                   20384356.6334
        51.0004         53.0004
   1030272.06645    855937.57843  25076847.4304                   25076855.6804
        35.5004         22.5004
 25  8  7 19 45 30.0000000  0 10G02G08G10G18G23G24G27G28G32G31
   -664283.40247   -469899.13745  23246799.9064                   23246795.9844
        42.7504         31.5004
   1652911.56647   1306998.05546  22861846.3134                   22861848.4964
        43.0004         40.2504
   1452590.40648   1150499.18848  21411576.3984                   21411575.3404
        50.2504         50.5004
   3323356.09046   2580172.78543  24674688.1724                   24674692.1994
        38.5004         19.2504
   2507983.61347   1961226.11744  23277558.6884                   23277557.7894
        42.7504         27.5004
   2796162.07446   2157943.93444  24461065.5164                   24461066.5044
        39.7504         29.0004
   2754795.19147   2151044.65646  23039147.5554                   23039149.2234
        43.5004         40.5004
   -980484.85547   -689069.08644  23397106.3364                   23397106.0514
        42.0004         28.5004
   1155912.15248    926073.31348  20667149.9454                   20667147.8984
        51.2504         53.0004
   2399751.43846   1923064.65644  25337450.8204                   25337458.8404
        36.5004         24.7504
 25  8  7 19 46  0.0000000  0 10G02G08G10G18G23G24G27G28G32G31
   -840402.46147   -607134.70745  23213285.6094                   23213281.5234
        42.7504         32.0004
   1587434.57847   1255976.93846  22849386.6954                   22849388.7074
        43.0004         40.5004
   1374093.43448   1089332.69148  21396639.2194                   21396637.8204
        50.0004         50.5004
   3332975.62146   2587668.18443  24676519.4534                   24676523.4614
        38.5004         19.7504
   2477613.03947   1937560.64844  23271779.6884                   23271778.2194
        42.5004         28.5004
   2779333.83646   2144830.97744  24457863.0634                   24457864.0664
        38.0004         27.2504
   2737997.86347   2137955.72346  23035950.9774                   23035952.7464
        42.2504         40.5004
  -1173647.19147   -839585.01644  23360348.4614                   23360348.4734
        42.2504         28.5004
   1066938.46548    856743.15648  20650218.9694                   20650216.8674
        50.5004         53.0004
   2193602.76645   1762429.75443  25298221.9534                   25298229.8284
        35.5004         23.5004
 25  8  7 19 46 30.0000000  0 10G02G08G10G18G23G24G27G28G32G31
  -1016374.77047   -744255.93745  23179799.0314                   23179795.2154
        43.2504         30.7504
   1522382.64147   1205287.03946  22837008.0704                   22837010.0124
        43.5004         39.7504
   1295704.23448   1028250.18048  21381722.2194                   21381720.8284
        50.5004         50.2504
   3342706.97746   2595250.71943  24678371.5004                   24678375.5394
        39.2504         19.2504
   2447291.38747   1913933.30544  23266009.6174                   23266008.0124
        42.5004         28.0004
   2762894.60246   2132021.14144  24454734.8834                   24454736.1564
        39.0004         28.7504
   2721416.50447   2125035.07046  23032795.9534                   23032797.6604
        43.0004         40.0004
  -1366699.43047   -990015.16444  23323612.4224                   23323611.7234
        42.5004         26.2504
    978347.98448    787711.60948  20633360.7344                   20633358.7814
        50.7504         53.0004
   1987268.96145   1601650.61343  25258957.7974                   25258964.6884
        35.7504         21.2504
 25  8  7 19 47  0.0000000  0 10G02G08G10G18G23G24G27G28G32G31
  -1192185.37947   -881251.17245  23146343.3444                   23146339.2734
        43.7504         31.0004
   1457766.50447   1154936.71146  22824712.3444                   22824713.8834
        42.5004         39.2504
   1217435.67248    967261.66448  21366828.3674                   21366826.8014
        49.7504         50.5004
   3352560.93846   2602928.82443  24680246.1334                   24680251.1844
        39.0004         18.5004
   2417031.40247   1890354.01044  23260251.3444                   23260250.2734
        42.0004         27.7504
   2746854.39846   2119522.23844  24451682.7734                   24451683.6524
        37.0004         28.2504
   2705060.65647   2112290.14146  23029683.3524                   23029685.1724
        43.2504         41.0004
  -1559625.93447  -1140347.35544  23286899.3914                   23286898.5824
        43.0004         28.5004
    890152.10548    718987.54348  20616577.4064                   20616575.6644
        50.5004         53.0004
   1780765.17646   1440739.13343  25219660.9774                   25219667.6684
        37.2504         22.0004
 25  8  7 19 47 30.0000000  0 10G02G08G10G18G23G24G27G28G32G31
  -1367822.42247  -1018111.15245  23112921.0084                   23112916.8204
        43.5004         30.7504
   1393593.99646   1104932.06646  22812500.4924                   22812502.2274
        41.5004         39.5004
   1139297.64148    906374.85948  21351958.7974                   21351957.6254
        49.7504         50.5004
   3362545.38346   2610708.58643  24682146.8364                   24682151.3444
        39.2504         19.2504
   2386842.76247   1866830.29344  23254506.8834                   23254505.6024
        42.5004         28.5004
   2731220.41446   2107339.87544  24448707.1804                   24448708.8444
        37.7504         29.2504
   2688936.89847   2099726.04746  23026615.6174                   23026617.5474
        42.7504         40.7504
  -1752413.89847  -1290571.58644  23250213.2584                   23250212.6024
        43.0004         28.0004
    802359.26248    650577.53148  20599871.0084                   20599868.9694
        50.5004         53.0004
   1574103.28946   1279704.44943  25180333.8364                   25180340.7304
        38.2504         21.7504
 25  8  7 19 48  0.0000000  0 10G02G08G10G18G23G24G27G28G32G31
  -1543281.87547  -1154832.75045  23079532.1724                   23079527.8094
        43.5004         32.0004
   1329865.31346   1055273.26246  22800373.3444                   22800375.1954
        41.5004         38.5004
   1061292.37148    845591.50848  21337115.1484                   21337113.7234
        50.2504         50.5004
   3372660.48846   2618590.16043  24684072.3364                   24684076.4024
        39.0004         19.5004
   2356727.66446   1843363.89844  23248775.6334                   23248774.8444
        41.5004         26.7504
   2715992.00846   2095473.56344  24445809.3914                   24445810.7624
        37.7504         27.0004
   2673044.17247   2087341.97746  23023591.1484                   23023593.0204
        43.0004         40.7504
  -1945058.28147  -1440683.94144  23213553.6644                   23213553.1454
        43.5004         27.5004
    714970.20748    582482.16048  20583241.6644                   20583239.6724
        50.0004         53.0004
   1367287.40246   1118549.62944  25140977.8984                   25140984.7304
        39.7504         24.5004
 25  8  7 19 48 30.0000000  0 10G02G08G10G18G23G24G27G28G32G31
  -1718556.19947  -1291410.10245  23046178.3594                   23046174.3984
        44.2504         32.5004
   1266583.96946   1005963.03946  22788331.3364                   22788332.8634
        41.2504         38.2504
    983425.68048    784916.14148  21322297.7584                   21322296.4494
        50.0004         50.2504
   3382910.09046   2626576.53543  24686022.2734                   24686026.8674
        39.0004         19.2504
   2326691.66446   1819959.12544  23243060.3524                   23243059.4964
        41.0004         27.0004
   2701172.22346   2083925.65244  24442989.6174                   24442990.8554
        37.2504         28.5004
   2657384.90247   2075139.80146  23020611.3134                   23020613.3404
        42.2504         40.0004
  -2137550.51647  -1590677.75444  23176923.3134                   23176923.2544
        42.5004         28.0004
    627989.23448    514704.77748  20566689.5474                   20566687.6094
        50.5004         53.0004
   1160326.25046    957281.77244  25101593.4774                   25101600.5164
        38.7504         26.5004
 25  8  7 19 49  0.0000000  0 10G02G08G10G18G23G24G27G28G32G31
  -1893642.24647  -1427840.75045  23012860.4064                   23012856.6484
        44.5004         32.5004
   1203749.15247    957000.76246  22776374.1334                   22776376.1174
        42.0004         38.0004
    905698.80548    724349.71548  21307506.7664                   21307505.3444
        50.7504         50.2504
   3393293.19946   2634666.90243  24687998.5784                   24688003.3794
        38.7504         20.2504
   2296735.94547   1796616.92644  23237359.8134                   23237358.8244
        42.0004         26.0004
   2686759.42646   2072694.87544  24440247.4774                   24440247.9614
        37.7504         26.5004
   2641957.00847   2063117.91446  23017675.4774                   23017677.7814
        42.5004         40.2504
  -2329886.53547  -1740549.83244  23140322.6804                   23140322.6134
        42.7504         27.5004
    541416.04748    447245.15648  20550215.2734                   20550213.5554
        51.5004         53.0004
    953223.21146    795903.31644  25062183.3284                   25062189.8484
        38.5004         27.0004
 25  8  7 19 49 30.0000000  0 10G02G08G10G18G23G24G27G28G32G31
  -2068530.93747  -1564117.60945  22979580.2194                   22979576.3874
        45.0004         32.0004
   1141365.85246    908390.30546  22764503.2584                   22764505.0824
        41.5004         38.7504
    828118.97348    663897.86348  21292743.7424                   21292742.3674
        50.0004         50.2504
   3403815.12146   2642865.45743  24690001.0944                   24690005.6884
        37.5004         20.0004
   2266867.46146   1773342.68844  23231676.5004                   23231675.1024
        41.0004         26.5004
   2672757.93846   2061784.58644  24437582.2894                   24437583.8484
        37.2504         28.5004
   2626764.31347   2051279.30546  23014785.0004                   23014786.8874
        42.7504         40.0004
  -2522056.31247  -1890292.37944  23103753.1724                   23103753.4104
        42.5004         29.2504
    455256.31648    380107.70348  20533819.4614                   20533817.7774
        51.2504         53.0004
    745987.52746    634421.52344  25022747.2974                   25022753.7624
        39.5004         28.0004
 25  8  7 19 50  0.0000000  0 10G02G08G10G18G23G24G27G28G32G31
  -2243216.15647  -1700235.91445  22946338.9224                   22946334.5314
        45.0004         32.5004
   1079436.18847    860133.34046  22752718.4224                   22752719.7934
        43.0004         38.5004
    750690.43448    603563.90248  21278009.5634                   21278008.7234
        49.5004         50.2504
   3414478.00046   2651173.83243  24692030.8594                   24692035.6524
        37.7504         20.0004
   2237090.39146   1750139.66044  23226009.4534                   23226008.7274
        40.5004         24.5004
   2659169.21546   2051195.95344  24434996.4534                   24434998.2234
        37.7504         27.5004
   2611807.75447   2039624.69546  23011938.9844                   23011941.0594
        43.0004         40.5004
  -2714052.75047  -2039899.86344  23067218.1254                   23067218.1024
        42.7504         29.5004
    369512.82048    313294.59048  20517503.0164                   20517501.2974
        50.5004         53.0004
    538625.84846    472841.53145  24983286.4774                   24983293.3284
        39.0004         30.7504
 25  8  7 19 50 30.0000000  0 10G02G08G10G18G23G24G27G28G32G31
  -2417694.32047  -1836192.89845  22913136.3834                   22913132.2304
        45.0004         32.5004
   1017959.64847    812229.48846  22741020.1414                   22741021.5164
        43.5004         38.2504
    673414.96948    543349.22748  21263304.7974                   21263303.1644
        49.5004         50.2504
   3425281.36745   2659591.68843  24694086.3134                   24694091.3754
        35.5004         20.2504
   2207406.30946   1727009.11344  23220360.7814                   23220360.0044
        41.0004         25.2504
   2645992.05146   2040928.00844  24432489.1484                   24432490.7504
        37.0004         28.5004
   2597085.74647   2028152.86746  23009137.2974                   23009139.4774
        44.2504         40.5004
  -2905871.30547  -2189368.73444  23030715.9304                   23030715.9454
        42.7504         29.0004
    284185.68048    246805.90648  20501265.8134                   20501264.1374
        51.7504         53.0004
    331142.25046    311166.53145  24943804.0004                   24943810.0594
        38.5004         30.7504
 25  8  7 19 51  0.0000000  0 10G02G08G10G18G23G24G27G28G32G31
  -2591957.91847  -1971982.67645  22879975.1414                   22879971.0704
        46.0004         32.0004
    956939.66047    764681.36746  22729408.5474                   22729409.8204
        43.5004         38.5004
    596298.18048    483258.18848  21248629.6564                   21248628.6884
        50.0004         50.2504
   3436228.91045   2668121.79743  24696170.9144                   24696175.3554
        34.0004         19.0004
   2177820.67246   1703955.27344  23214731.4534                   23214730.0044
        41.5004         24.5004
   2633229.29346   2030982.96144  24430060.8284                   24430061.8984
        37.2504         28.0004
   2582600.54747   2016865.57446  23006381.4694                   23006383.0204
        44.5004         40.0004
  -3097503.59847  -2338692.47744  22994249.3524                   22994248.8054
        43.0004         27.5004
    199278.95348    180644.80948  20485108.7504                   20485106.6024
        51.2504         53.0004
    123544.62146    149402.68045  24904298.8524                   24904305.2734
        38.2504         30.5004
 25  8  7 19 51 30.0000000  0 10G02G08G10G18G23G24G27G28G32G31
  -2766004.13747  -2107603.06645  22846855.5164                   22846850.8554
        46.0004         31.5004
    896374.97347    717488.03946  22717883.2584                   22717884.7344
        43.7504         38.7504
    519341.19548    423291.68048  21233985.4614                   21233983.8524
        50.5004         50.2504
   3447319.54745   2676763.46543  24698281.5234                   24698286.1844
        33.7504         19.0004
   2148334.38346   1680978.82844  23209120.0004                   23209119.3324
        41.5004         25.0004
   2620878.89546   2021359.21944  24427710.8134                   24427712.0514
        37.7504         29.2504
   2568349.82847   2005760.98446  23003669.2974                   23003671.6684
        44.0004         39.7504
  -3288945.73447  -2487868.03944  22957820.1564                   22957818.8834
        43.5004         28.5004
    114792.11748    114810.91448  20469031.3754                   20469029.4924
        51.0004         53.0004
    -84163.76246    -12447.49645  24864773.0784                   24864778.8014
        37.0004         30.5004
 25  8  7 19 52  0.0000000  0 10G02G08G10G18G23G24G27G28G32G31
  -2939828.87547  -2243050.88345  22813777.7974                   22813773.3134
        45.5004         33.0004
    836265.67647    670649.56646  22706445.1254                   22706446.4384
        43.7504         39.0004
    442546.30548    363451.46948  21219372.0394                   21219370.8324
        49.7504         50.0004
   3458553.50045   2685516.82443  24700419.4924                   24700423.8524
        35.0004         18.5004
   2118949.60546   1658081.51644  23203529.3444                   23203527.6564
        41.5004         26.0004
   2608940.45346   2012056.50444  24425438.5944                   24425440.5554
        37.0004         29.0004
   2554332.56647   1994838.32446  23001001.8054                   23001003.6024
        42.7504         39.5004
  -3480192.58247  -2636891.43444  22921426.5314                   22921425.8014
        43.2504         29.5004
     30725.87948     49304.74648  20453034.1414                   20453031.9614
        51.7504         53.0004
   -291978.19946   -174380.35544  24825226.9774                   24825232.4064
        37.0004         29.5004
 25  8  7 19 52 30.0000000  0 10G02G08G10G18G23G24G27G28G32G31
  -3113428.38347  -2378323.18445  22780742.4384                   22780738.5274
        46.0004         32.0004
    776611.02747    624165.34846  22695093.3754                   22695094.8094
        44.2504         38.2504
    365915.16448    303738.85948  21204789.5234                   21204787.8834
        50.0004         50.0004
   3469930.23845   2694381.41443  24702584.2274                   24702589.9414
        33.2504         19.2504
   2089667.77046   1635264.41844  23197957.3204                   23197955.8094
        41.5004         25.5004
   2597412.55946   2003073.68444  24423245.0704                   24423246.7664
        36.5004         28.0004
   2540546.97747   1984096.18046  22998378.5554                   22998380.9384
        43.0004         38.7504
  -3671239.78547  -2785759.27044  22885071.0864                   22885070.5824
        43.5004         29.7504
    -52919.75448    -15873.67648  20437116.7114                   20437115.2034
        52.0004         52.7504
   -499894.92646   -336392.93745  24785661.1484                   24785667.2974
        36.7504         30.0004
 25  8  7 19 53  0.0000000  0 10G02G08G10G18G23G24G27G28G32G31
  -3286797.72347  -2513416.12945  22747751.8834                   22747747.2624
        46.0004         32.7504
    717412.11347    578036.25446  22683827.9304                   22683829.7624
        43.5004         38.0004
    289451.14148    244156.46948  21190238.6724                   21190237.5784
        50.5004         50.0004
   3481451.02345   2703358.22343  24704776.8364                   24704782.3284
        33.5004         19.0004
   2060492.04747   1612529.97744  23192404.8754                   23192403.8134
        42.0004         24.5004
   2586295.58246   1994411.05144  24421129.7194                   24421130.8554
        36.2504         28.5004
   2526993.08647   1973534.56346  22995799.9924                   22995801.8674
        42.0004         38.0004
  -3862081.15647  -2934466.71944  22848755.2974                   22848754.6724
        44.0004         29.7504
   -136143.09448    -80723.03148  20421280.1174                   20421278.2234
        51.0004         52.7504
   -707907.92246   -498480.52744  24746077.5004                   24746082.9844
        36.5004         28.0004
 25  8  7 19 53 30.0000000  0 10G02G08G10G18G23G24G27G28G32G31
  -1884505.28547  -1420720.68745  23014599.4534                   23014594.3204
        45.7504         32.5004
   2234092.35947   1759864.93846  22972442.7584                   22972444.3554
        43.7504         38.2504
   1788580.63748   1412309.28548  21475513.9304                   21475512.0354
        50.2504         50.0004
   5068537.02745   3940048.21143  25006789.3674                   25006794.8244
        33.7504         20.2504
   3606847.09447   2817481.85944  23486666.7894                   23486665.7584
        42.0004         25.0004
   4151010.84045   3213669.63744  24718885.1094                   24718886.7854
        35.2504         27.5004
   4089091.67246   3190754.09046  23293057.5164                   23293059.3554
        41.7504         38.5004
  -2477283.78547  -1855403.72744  23112273.3364                   23112272.9694
        43.7504         29.7504
   1356480.84048   1082360.54748  20705317.0784                   20705315.0274
        51.2504         52.7504
    659415.62945    566966.82444  25006268.2974                   25006275.4734
        35.2504         28.2504
 25  8  7 19 54  0.0000000  0 11G02G08G10G18G23G24G27G28G32G31G01
  -2057400.25847  -1555444.00445  22981698.6884                   22981694.0634
        45.5004         32.7504
   2175806.05547   1714446.94946  22961351.0944                   22961352.9574
        43.7504         38.0004
   1712459.13348   1352993.79348  21461028.1254                   21461027.1134
        49.7504         49.7504
   5080347.61745   3949250.88343  25009038.2664                   25009042.7384
        35.5004         19.5004
   3577891.38746   2794918.84044  23481156.7504                   23481155.3874
        41.5004         26.5004
   4140715.15245   3205646.98844  24716926.1024                   24716927.3404
        34.5004         27.7504
   4075999.12547   3180551.94546  23290566.0234                   23290567.9844
        42.0004         38.7504
  -2667696.98447  -2003777.54745  23076038.7344                   23076038.4694
        43.7504         30.5004
   1274105.43048   1018171.91848  20689641.1174                   20689639.6684
        51.7504         52.7504
    451224.75045    404740.61344  24966651.6334                   24966657.8484
        35.0004         27.5004
   4393007.75456   3469868.65653  25234056.6024                   25234059.0514
        39.0004         22.2504
 25  8  7 19 54 30.0000000  0 11G02G08G10G18G23G24G27G28G32G31G01
  -2230058.28147  -1689982.67245  22948842.0864                   22948837.5394
        45.7504         32.7504
   2117969.48847   1669379.41846  22950345.2664                   22950347.2464
        43.0004         37.5004
   1636505.87948   1293809.40648  21446575.2114                   21446573.6724
        49.7504         50.0004
   5092296.92245   3958561.58643  25011311.8674                   25011317.2234
        35.0004         20.2504
   3549042.39547   2772439.02044  23475666.6174                   23475665.9494
        42.0004         27.2504
   4130822.66045   3197938.51644  24715043.3204                   24715045.2034
        33.5004         26.5004
   4063129.18447   3170523.26646  23288116.8134                   23288119.3914
        42.0004         39.2504
  -2857894.93747  -2151983.63745  23039845.0634                   23039844.6644
        43.7504         30.2504
   1192148.46148    954309.34048  20674045.1414                   20674043.7274
        50.5004         52.7504
    242945.48845    242445.51244  24927017.6414                   24927023.3014
        34.0004         28.0004
   4193057.44946   3314063.30143  25196007.9844                   25196009.9064
        39.5004         22.5004
 25  8  7 19 55  0.0000000  0 11G02G08G10G18G23G24G27G28G32G31G01
  -2402475.44947  -1824333.66845  22916032.6334                   22916028.1414
        45.5004         32.5004
   2060582.09847   1624661.89546  22939424.9144                   22939426.9104
        42.0004         37.7504
   1560722.74248   1234757.58648  21432153.9614                   21432152.8364
        49.7504         50.0004
   5104384.52046   3967980.09443  25013612.4844                   25013617.8524
        37.5004         22.0004
   3520301.68446   2750043.52344  23470197.3054                   23470197.3914
        41.2504         26.5004
   4121332.00445   3190543.14544  24713237.3984                   24713239.2544
        33.2504         26.5004
   4050480.13747   3160666.71146  23285710.1484                   23285712.1374
        42.0004         40.0004
  -3047873.03947  -2300018.42644  23003693.5164                   23003693.0944
        43.5004         29.5004
   1110610.01648    890772.88348  20658529.1024                   20658527.4734
        51.0004         52.7504
     34581.90245     80084.68444  24887367.2194                   24887372.4924
        35.0004         27.7504
   3993112.01646   3158261.76243  25157958.9304                   25157960.9144
        39.5004         23.2504
 25  8  7 19 55 30.0000000  0 11G02G08G10G18G23G24G27G28G32G31G01
  -2574650.43747  -1958495.95745  22883268.6644                   22883263.9964
        45.5004         32.5004
   2003641.91846   1580292.81646  22928589.6334                   22928591.8484
        41.7504         38.5004
   1485110.30548   1175838.77048  21417765.2664                   21417764.1484
        50.0004         50.0004
   5116608.76646   3977505.05543  25015938.5554                   25015944.4694
        38.0004         22.5004
   3491669.66847   2727732.74644  23464749.2734                   23464748.6294
        42.0004         26.5004
   4112240.87545   3183459.09444  24711507.3594                   24711509.1914
        33.5004         25.7504
   4038049.22747   3150980.12946  23283344.4774                   23283347.2304
        42.5004         40.0004
  -3237628.11347  -2447879.42244  22967583.8914                   22967583.0124
        43.0004         29.2504
   1029488.91848    827561.63748  20643092.4304                   20643090.5164
        51.5004         52.7504
   -173863.23445    -82339.71944  24847699.9844                   24847706.3094
        35.5004         26.0004
   3793173.69346   3002465.74243  25119912.2034                   25119913.8914
        38.0004         22.0004
 25  8  7 19 56  0.0000000  0 11G02G08G10G18G23G24G27G28G32G31G01
  -2746577.17647  -2092464.79745  22850552.1804                   22850547.7814
        44.5004         32.7504
   1947149.80947   1536272.89846  22917839.1334                   22917841.4694
        42.0004         38.0004
   1409671.78948   1117055.48848  21403410.1254                   21403408.6254
        50.5004         50.0004
   5128970.81646   3987137.42643  25018291.4924                   25018297.0664
        37.5004         22.0004
   3463149.46547   2705509.09044  23459321.9844                   23459321.5474
        42.0004         27.5004
   4103549.44945   3176686.49244  24709853.7584                   24709855.4924
        34.2504         27.7504
   4025836.24647   3141463.37946  23281020.4924                   23281023.3014
        43.0004         40.0004
  -3427153.98847  -2595561.82845  22931518.7274                   22931518.0664
        43.0004         30.0004
    948786.77348    764676.84848  20627735.1724                   20627733.3444
        51.5004         52.7504
   -382383.86346   -244822.96944  24808020.5234                   24808026.3714
        36.2504         26.7504
   3593247.16446   2846678.96943  25081866.9694                   25081869.3284
        37.5004         21.7504
 25  8  7 19 56 30.0000000  0 11G02G08G10G18G23G24G27G28G32G31G01
  -2918249.92647  -2226235.73045  22817883.7504                   22817879.3134
        45.2504         33.0004
   1891107.28547   1492603.30146  22907174.7664                   22907177.0744
        42.5004         38.0004
   1334411.20748   1058410.85548  21389088.3754                   21389086.9884
        49.5004         50.0004
   5141472.45346   3996878.54743  25020670.8364                   25020676.2114
        38.2504         21.7504
   3434744.77347   2683375.44944  23453917.4064                   23453916.4344
        42.5004         29.0004
   4095258.64845   3170226.09444  24708275.7584                   24708277.5314
        34.5004         27.7504
   4013841.77047   3132116.89546  23278738.6094                   23278740.6884
        43.0004         40.0004
  -3616443.98847  -2743060.44144  22895497.4144                   22895497.2814
        43.7504         29.0004
    868505.77048    702120.21948  20612458.1484                   20612456.3674
        51.0004         52.7504
   -590974.05946   -407360.47744  24768326.8054                   24768332.1804
        36.2504         26.0004
   3393337.89545   2690905.63743  25043824.7974                   25043827.7344
        35.0004         22.2504
 25  8  7 19 57  0.0000000  0 11G02G08G10G18G23G24G27G28G32G31G01
  -3089665.37947  -2359806.16045  22785264.7034                   22785260.2154
        45.0004         33.0004
   1835513.46547   1449283.34446  22896596.3054                   22896598.2344
        43.2504         38.0004
   1259330.24248    999906.18848  21374800.8284                   21374799.4804
        49.5004         50.0004
   5154113.07846   4006727.97743  25023076.8284                   25023082.6414
        39.0004         22.5004
   3406457.06347   2661332.95744  23448534.3674                   23448533.6684
        42.5004         29.0004
   4087366.98445   3164076.70744  24706774.6174                   24706775.8284
        35.0004         28.7504
   4002064.00447   3122939.27346  23276497.2504                   23276499.5004
        42.5004         39.0004
  -3805493.79747  -2890371.87545  22859522.6884                   22859522.2734
        43.7504         30.2504
    788645.78548    639891.65248  20597261.3674                   20597259.6954
        51.0004         52.7504
   -799629.79746   -569949.05144  24728621.0554                   24728625.6024
        36.0004         26.7504
   3193448.93845   2535148.12543  25005787.6254                   25005790.1414
        33.7504         19.5004
 25  8  7 19 57 30.0000000  0 11G02G08G10G18G23G24G27G28G32G31G01
  -3260815.94947  -2493170.19945  22752695.7114                   22752691.3134
        44.0004         33.0004
   1780371.89547   1406315.78946  22886102.9224                   22886104.9654
        44.5004         38.2504
   1184434.89848    941546.14848  21360548.8674                   21360547.4924
        50.2504         50.0004
   5166896.50846   4016688.67243  25025509.6724                   25025515.6604
        39.5004         21.5004
   3378292.13347   2639386.11744  23443174.5314                   23443173.9694
        43.0004         28.2504
   4079877.59845   3158240.77344  24705348.0704                   24705350.8794
        34.2504         28.0004
   3990505.52746   3113932.52746  23274298.1024                   23274299.9534
        41.7504         38.0004
  -3994294.58247  -3037489.26244  22823595.0634                   22823594.3094
        43.0004         29.2504
    709211.11748    577994.50448  20582145.4224                   20582143.8164
        50.2504         52.7504
  -1008342.62546   -732582.10544  24688903.6564                   24688909.1764
        36.5004         26.7504
   2993587.82455   2379412.35253  24967755.8284                   24967758.2154
        34.0004         19.0004
 25  8  7 19 58  0.0000000  0 11G02G08G10G18G23G24G27G28G32G31G01
  -3431697.45747  -2626324.57445  22720177.7894                   22720173.2384
        45.0004         33.7504
   1725682.11747   1363700.28946  22875696.4454                   22875698.0044
        43.7504         38.2504
   1109727.26648    883332.38348  21346332.4064                   21346331.0664
        49.2504         49.7504
   5179822.59446   4026760.50843  25027969.6094                   25027975.1884
        39.0004         20.2504
   3350251.83247   2617536.43044  23437839.4694                   23437838.1214
        43.0004         27.7504
   4072789.27045   3152717.35944  24704000.5004                   24704001.6484
        35.7504         28.5004
   3979164.94146   3105095.56646  23272139.4614                   23272142.1254
        41.0004         37.2504
  -4182841.57447  -3184408.88345  22787715.8204                   22787715.0554
        43.0004         30.5004
    630201.99248    516428.94548  20567110.8984                   20567108.8834
        50.5004         52.7504
  -1217108.23046   -895256.28944  24649176.9384                   24649181.0944
        38.0004         28.0004
   2793758.21545   2223701.09043  24929729.6644                   24929731.7384
        35.0004         20.2504
 25  8  7 19 58 30.0000000  0 11G02G08G10G18G23G24G27G28G32G31G01
  -3602309.20747  -2759268.76245  22687711.4144                   22687706.9184
        43.7504         33.0004
   1671440.63347   1321434.12146  22865374.3524                   22865376.0164
        44.7504         39.0004
   1035206.46948    825264.20348  21332151.6644                   21332150.0704
        49.7504         49.5004
   5192888.23046   4036941.05943  25030456.6804                   25030462.1804
        38.7504         20.5004
   3322335.09447   2595783.01644  23432526.6024                   23432526.1524
        43.0004         27.7504
   4066098.13346   3147503.43844  24702726.6884                   24702728.5744
        36.0004         28.2504
   3968037.89546   3096424.99245  23270021.9454                   23270024.4344
        40.5004         35.7504
  -4371133.01647  -3331129.37945  22751885.0704                   22751884.1294
        43.5004         30.2504
    551615.77348    455192.92648  20552156.1564                   20552154.5354
        50.5004         52.7504
  -1425925.03146  -1057970.38344  24609440.3524                   24609444.9264
        38.5004         27.7504
   2593960.92645   2068014.97343  24891709.6484                   24891711.4884
        35.0004         19.5004
 25  8  7 19 59  0.0000000  0 11G02G08G10G18G23G24G27G28G32G31G01
  -3772646.65247  -2891999.19945  22655297.1024                   22655292.8324
        44.2504         33.5004
   1617647.48447   1279517.29346  22855137.9774                   22855139.6884
        43.7504         38.2504
    960875.05948    767343.60248  21318006.9144                   21318005.6994
        49.5004         49.7504
   5206093.76246   4047230.64143  25032969.2734                   25032975.5634
        37.7504         19.0004
   3294544.19947   2574127.66044  23427238.5704                   23427237.6524
        43.5004         27.5004
   4059803.53946   3142598.51644  24701528.7584                   24701530.7424
        37.0004         29.7504
   3957123.56346   3087920.14846  23267945.2504                   23267948.0554
        39.7504         36.5004
  -4559163.52047  -3477646.54745  22716104.0234                   22716103.1954
        43.5004         30.0004
    473453.16848    394286.99648  20537282.2114                   20537280.4884
        51.2504         52.7504
  -1634788.02046  -1220720.48044  24569694.8444                   24569699.3954
        39.5004         29.2504
   2394199.89845   1912357.12543  24853696.1644                   24853697.3874
        35.2504         19.7504
 25  8  7 19 59 30.0000000  0 11G02G08G10G18G23G24G27G28G32G31G01
  -3942708.46547  -3024514.84445  22622935.6644                   22622930.9614
        44.0004         33.7504
   1564299.84447   1237947.62546  22844986.8524                   22844987.9414
        44.5004         37.5004
    886732.86748    709570.44148  21303897.9694                   21303896.6764
        50.0004         50.0004
   5219436.71946   4057627.32842  25035508.2114                   25035515.2854
        36.7504         16.2504
   3266878.76647   2552570.09844  23421974.0314                   23421973.0474
        43.7504         28.5004
   4053902.23846   3138000.06645  24700406.2034                   24700407.7584
        36.7504         30.5004
   3946418.21146   3079578.14846  23265908.7274                   23265910.9024
        41.2504         37.2504
  -4746930.70347  -3623958.53145  22680373.3054                   22680372.0004
        43.0004         30.2504
    395712.16448    333709.59048  20522488.7894                   20522487.1644
        50.7504         53.0004
  -1843695.17646  -1383505.01245  24529940.4064                   24529945.1604
        40.2504         30.7504
   2194476.35545   1756728.48443  24815689.5784                   24815691.2074
        34.2504         19.2504
 25  8  7 20  0  0.0000000  0 11G02G08G10G18G23G24G27G28G32G31G01
  -4112489.38747  -3156811.62145  22590626.9844                   22590622.6684
        45.2504         33.5004
   1511398.30147   1196725.57046  22834919.6884                   22834921.2894
        44.2504         38.0004
    812783.03148    651947.15648  21289826.1884                   21289824.9264
        48.2504         50.0004
   5232918.06646   4068131.89542  25038074.5634                   25038081.4924
        37.0004         16.2504
   3239341.71547   2531112.53544  23416734.1094                   23416733.4264
        43.7504         26.0004
   4048394.29746   3133708.13344  24699357.4924                   24699360.0944
        37.5004         29.7504
   3935921.51646   3071398.73846  23263911.5314                   23263913.6094
        41.7504         38.7504
  -4934428.59447  -3770060.67245  22644692.9454                   22644692.2384
        43.5004         31.0004
    318394.11748    273461.76248  20507775.8364                   20507773.9654
        49.7504         52.7504
  -2052640.95346  -1546319.63345  24490179.9144                   24490183.3914
        40.5004         30.5004
   1994795.07445   1601132.75443  24777692.1484                   24777693.0594
        35.0004         19.0004
 25  8  7 20  0 30.0000000  0 11G02G08G10G18G23G24G27G28G32G31G01
  -4281987.90247  -3288888.35545  22558372.5234                   22558368.0704
        44.7504         33.5004
   1458940.10247   1155848.97746  22824937.1804                   22824938.8284
        43.2504         37.2504
    739025.52748    594473.73848  21275790.3364                   21275789.2894
        50.2504         49.7504
   5246535.38346   4078742.32442  25040665.7814                   25040674.5664
        37.7504         15.5004
   3211932.64547   2509754.70344  23411518.5004                   23411517.2814
