     2.11           OBSERVATION DATA    G (GPS)             RINEX VERSION / TYPE
teqc  2019Feb25     K Rivera            20250820 05:52:47UTCPGM / RUN BY / DATE
Linux 2.6.32-573.12.1.x86_64|x86_64|gcc -static|Linux 64|=+ COMMENT
teqc  2019Feb25                         20250820 05:40:11UTCCOMMENT
BIT 2 OF LLI FLAGS DATA COLLECTED UNDER A/S CONDITION       COMMENT
PNCL                                                        MARKER NAME
                                                            MARKER NUMBER
Gareth Funning, LiChUniversity of California, Riverside     OBSERVER / AGENCY
0220283712          TRIMBLE 5700        2.32                REC # / TYPE / VERS
60111214            TRM41249.00                             ANT # / TYPE
 -2389014.4079 -4610136.9733  3692598.0761                  APPROX POSITION XYZ
        1.1852        0.0000        0.0000                  ANTENNA: DELTA H/E/N
     1     1                                                WAVELENGTH FACT L1/2
     7    L1    L2    C1    P1    P2    S1    S2            # / TYPES OF OBSERV
    18                                                      LEAP SECONDS
 SNR is mapped to RINEX snr flag value [0-9]                COMMENT
  L1 & L2: min(max(int(snr_dBHz/6), 0), 9)                  COMMENT
  2025     8     7    18    39    0.0000000     GPS         TIME OF FIRST OBS
                                                            END OF HEADER
 25  8  7 18 39  0.0000000  0  4G23G27G10G18
    -49012.77057    -30613.23855  21620748.3984                   21620748.6254
        46.0004         34.5004
   -116782.73057    -76787.41457  21581509.5554                   21581511.6294
        47.0004         45.0004
   -124211.40658    -69594.78158  21096624.9454                   21096626.6604
        50.7504         49.5004
    -31950.82857    -20803.42255  22227746.8674                   22227748.0704
        45.7504         32.7504
 25  8  7 18 39 15.0000000  0  5G23G27G32G10G18
    -71281.35947    -47965.40645  21616510.6334                   21616511.0124
        45.0004         34.5004
   -154768.07047   -106386.37947  21574280.9924                   21574283.2624
        46.0004         43.2504
   -205835.62158   -142419.04357  21129104.3444                   21129106.5234
        49.5004         47.5004
   -174460.85248   -108750.23048  21087063.0864                   21087064.5354
        52.0004         50.7504
    -44446.44147    -30540.31645  22225369.1414                   22225370.0204
        45.2504         31.5004
 25  8  7 18 39 30.0000000  0  5G23G27G32G10G18
    -93644.98047    -65391.62545  21612255.3444                   21612255.3594
        47.2504         33.5004
   -192734.16847   -135970.40647  21567056.4304                   21567058.3674
        47.7504         44.0004
   -281642.19148   -201489.07848  21114678.5634                   21114680.8244
        49.5004         48.0004
   -224790.82448   -147968.36748  21077485.7114                   21077487.3834
        51.0004         49.5004
    -56984.15647    -40310.00445  22222983.1804                   22222984.0124
        45.5004         31.0004
 25  8  7 18 39 45.0000000  0  6G08G23G27G32G10G18
   -196959.03157   -143571.34455  22822893.9144                   22822898.8674
        42.5004         35.7504
   -116076.40647    -82870.68745  21607986.7034                   21607986.7194
        46.0004         33.7504
   -230653.98047   -165518.33647  21559840.6644                   21559842.3014
        47.0004         45.0004
   -357433.64148   -260547.32448  21100256.3134                   21100258.2074
        50.7504         48.7504
   -275174.08648   -187228.05948  21067897.6724                   21067899.5394
        49.7504         49.2504
    -69536.88747    -50091.39845  22220594.3754                   22220595.4144
        46.2504         32.5004
 25  8  7 18 40  0.0000000  0  6G08G23G27G32G10G18
   -264964.34446   -196562.43045  22809953.8134                   22809957.2034
        41.7504         34.2504
   -138563.27347   -100392.93445  21603707.4694                   21603707.7384
        45.2504         30.0004
   -268515.12947   -195020.54347  21552635.9534                   21552637.9654
        46.2504         44.5004
   -433197.37948   -319583.98847  21085838.7034                   21085840.9304
        50.7504         47.7504
   -325598.26248   -226519.64148  21058302.5084                   21058303.7894
        52.5004         50.0004
    -82092.16847    -59874.79345  22218205.3674                   22218206.4574
        46.2504         33.7504
 25  8  7 18 40 15.0000000  0  6G08G23G27G32G10G18
   -332919.77046   -249514.78146  22797021.7974                   22797025.3674
        41.2504         36.0004
   -161101.25847   -117955.00445  21599418.8594                   21599419.0204
        46.5004         33.0004
   -306313.52747   -224473.88347  21545443.7194                   21545445.5044
        47.0004         45.0004
   -508928.96148   -378595.59448  21071427.4224                   21071429.2974
        50.2504         48.5004
   -376059.06648   -265839.73448  21048700.3594                   21048701.5354
        50.5004         49.5004
    -94645.77747    -69656.84845  22215816.5634                   22215817.3284
        45.7504         30.7504
 25  8  7 18 40 30.0000000  0  6G08G23G27G32G10G18
   -400817.44547   -302422.04346  22784101.4224                   22784105.4614
        43.0004         36.7504
   -183682.60947   -135550.89545  21595121.3834                   21595121.8484
        46.0004         34.0004
   -344041.38347   -253872.24247  21538263.8204                   21538266.0164
        47.2504         44.5004
   -584620.39548   -437575.91048  21057023.6024                   21057025.5004
        51.2504         48.5004
   -426548.70748   -305182.32048  21039092.4064                   21039093.9534
        50.7504         49.2504
   -107189.91047    -79431.54345  22213429.5474                   22213430.5354
        46.0004         32.0004
 25  8  7 18 40 45.0000000  0  6G08G23G27G32G10G18
   -468653.19946   -355281.06645  22771192.9924                   22771196.6844
        41.2504         34.7504
   -206303.46147   -153177.53945  21590817.0084                   21590817.1884
        47.0004         34.5004
   -381694.99247   -283212.73446  21531098.5234                   21531100.3134
        45.0004         41.5004
   -660267.66048   -496521.83248  21042628.7894                   21042630.4264
        52.5004         50.7504
   -477063.39548   -344544.40647  21029479.4384                   21029480.9414
        49.7504         47.0004
   -119720.81647    -89195.90645  22211045.2584                   22211046.2854
        45.0004         32.0004
 25  8  7 18 41  0.0000000  0  6G08G23G27G32G10G18
   -536424.64847   -408089.96546  22758296.6094                   22758300.3284
        42.7504         36.5004
   -228961.53147   -170833.20345  21586505.2814                   21586505.5274
        46.5004         34.2504
   -419272.07447   -312493.62147  21523947.9454                   21523949.9694
        46.7504         44.7504
   -735868.30548   -555431.39148  21028242.2114                   21028244.2034
        51.5004         48.7504
   -527600.77348   -383924.20348  21019862.5314                   21019864.3014
        50.0004         49.2504
   -132236.16047    -98948.19945  22208663.3284                   22208664.7854
        45.2504         32.0004
 25  8  7 18 41 15.0000000  0  6G08G23G27G32G10G18
   -604127.85247   -460845.69945  22745413.0314                   22745416.1094
        42.0004         35.5004
   -251653.10547   -188514.96945  21582187.4224                   21582187.5744
        46.0004         33.7504
   -456769.05547   -341712.06647  21516812.7194                   21516814.6644
        47.0004         44.7504
   -811418.41048   -614301.58648  21013865.5554                   21013867.3284
        51.0004         49.0004
   -578157.17648   -423318.80548  21010242.0864                   21010243.7234
        50.2504         49.5004
   -144732.23447   -108685.44545  22206285.3674                   22206286.9804
        45.0004         31.5004
 25  8  7 18 41 30.0000000  0  6G08G23G27G32G10G18
   -671760.24247   -513546.25846  22732542.9224                   22732546.2114
        42.5004         36.2504
   -274375.82847   -206220.99245  21577863.0554                   21577863.2154
        46.5004         33.7504
   -494183.69147   -370866.36747  21509693.3674                   21509694.8594
        46.5004         44.7504
   -886915.44148   -673130.42648  20999498.6484                   20999500.9804
        51.0004         48.5004
   -628730.22348   -462726.37148  21000618.3524                   21000619.8794
        49.0004         49.7504
   -157206.76247   -118405.90245  22203911.7504                   22203913.0594
        45.5004         31.5004
 25  8  7 18 41 45.0000000  0  6G08G23G27G32G10G18
   -739320.03546   -566190.26646  22719686.4694                   22719689.7774
        41.5004         36.0004
   -297128.09847   -223950.05545  21573533.5474                   21573533.9224
        46.5004         33.0004
   -531514.41447   -399955.27047  21502589.1094                   21502591.4264
        45.5004         44.7504
   -962357.61348   -731916.51648  20985142.6254                   20985144.6134
        50.7504         48.7504
   -679318.32048   -502145.67248  20990991.9454                   20990993.2544
        49.2504         49.5004
   -169658.12547   -128108.31245  22201542.3284                   22201543.8134
        45.7504         31.2504
 25  8  7 18 42  0.0000000  0  6G08G23G27G32G10G18
   -806805.21946   -618776.10545  22706844.5394                   22706848.4344
        41.5004         35.5004
   -319908.08247   -241700.71145  21569198.8834                   21569199.4144
        45.5004         33.5004
   -568759.53547   -428977.46947  21495501.3914                   21495503.9964
        46.0004         44.7504
  -1037742.95348   -790658.32448  20970797.2974                   20970798.6884
        51.2504         49.0004
   -729919.68748   -541575.31248  20981362.6804                   20981364.0554
        50.5004         49.2504
   -182084.53547   -137791.27745  22199177.2424                   22199178.9454
        45.5004         31.5004
 25  8  7 18 42 15.0000000  0  6G08G23G27G32G10G18
   -874211.64147   -671300.59445  22694018.0314                   22694020.6644
        42.5004         35.5004
   -342711.80547   -259469.86345  21564859.5084                   21564859.7074
        45.0004         33.0004
   -605915.20347   -457929.96147  21488430.9224                   21488432.8364
        46.2504         45.0004
  -1113067.27348   -849352.57848  20956463.3834                   20956465.1954
        51.0004         48.7504
   -780530.27748   -581012.13748  20971731.8364                   20971733.6024
        50.7504         49.5004
   -194482.00847   -147451.69945  22196818.2344                   22196819.6564
        45.0004         30.5004
 25  8  7 18 42 30.0000000  0  6G08G23G27G32G10G18
   -941539.14546   -723763.57445  22681205.6724                   22681208.8674
        41.5004         35.5004
   -365539.32847   -277257.55545  21560515.1884                   21560515.5204
        46.0004         33.2504
   -642981.53547   -486812.84447  21481377.6414                   21481379.8284
        46.2504         44.7504
  -1188330.47748   -907999.21948  20942141.3754                   20942143.4804
        51.0004         48.7504
   -831150.22748   -620456.25448  20962099.0164                   20962100.4844
        50.2504         49.5004
   -206850.69147   -157089.68045  22194465.2974                   22194466.1604
        44.7504         30.7504
 25  8  7 18 42 45.0000000  0  6G08G23G27G32G10G18
  -1008785.44946   -776163.28945  22668409.3984                   22668412.7234
        41.0004         35.5004
   -388388.53547   -295062.14545  21556167.9534                   21556167.8954
        45.2504         33.0004
   -679956.53547   -515624.57047  21474341.7504                   21474343.5354
        45.5004         44.5004
  -1263530.29348   -966596.45748  20927831.3524                   20927833.1174
        51.2504         49.0004
   -881777.38348   -659905.98448  20952465.2894                   20952466.7424
        50.2504         49.5004
   -219188.47347   -166703.58245  22192116.8444                   22192118.4144
        44.5004         30.7504
 25  8  7 18 43  0.0000000  0  6G08G23G27G32G10G18
    499474.39546    399104.13745  22955421.7034                   22955424.8634
        41.5004         35.5004
   1164162.41047    914717.79345  21851607.7504                   21851608.2194
        45.2504         33.7504
    858582.46547    683236.96547  21767115.8524                   21767117.9774
        45.5004         44.7504
    236758.78948    202459.98048  21213326.7734                   21213328.6414
        51.2504         48.7504
    643011.91848    528241.52348  21242622.8284                   21242624.7074
        49.2504         49.5004
   1343925.79347   1051307.47345  22489567.7034                   22489568.9304
        45.0004         31.0004
 25  8  7 18 43 15.0000000  0  6G08G23G27G32G10G18
    432395.33246    346834.72345  22942656.6564                   22942659.9104
        41.7504         35.0004
   1141274.16047    896882.77045  21847252.5234                   21847252.5664
        45.0004         33.2504
    821794.17647    654570.73847  21760114.9844                   21760117.2304
        45.7504         44.7504
    161690.59048    143965.29748  21199041.8204                   21199043.6094
        51.0004         49.0004
    592374.64148    488783.90648  21232987.0314                   21232988.7624
        50.5004         49.5004
   1331654.09047   1041745.06645  22487232.5084                   22487233.6414
        45.0004         30.5004
 25  8  7 18 43 30.0000000  0  6G08G23G27G32G10G18
    365401.40646    294631.68045  22929908.2664                   22929911.7034
        41.0004         35.5004
   1118367.57447    879033.46545  21842893.9384                   21842893.8714
        46.5004         33.5004
    785100.23047    625978.03147  21753132.4454                   21753134.9344
        46.0004         44.5004
     86689.68048     85523.04748  21184769.7734                   21184771.4304
        51.2504         49.0004
    541733.48848    449323.26248  21223349.8524                   21223351.8554
        50.0004         49.5004
   1319416.58647   1032209.30544  22484903.9454                   22484905.2464
        44.5004         29.5004
 25  8  7 18 43 45.0000000  0  6G08G23G27G32G10G18
    298493.75846    242495.84445  22917176.3984                   22917179.3984
        41.7504         35.7504
   1095443.73047    861170.71945  21838531.6954                   21838531.4884
        44.5004         33.5004
    748501.64847    597459.61747  21746168.0944                   21746169.9264
        46.0004         44.5004
     11757.25448     27134.16048  21170510.4694                   21170512.3054
        51.2504         49.0004
    491089.52348    409860.43448  21213712.7734                   21213714.5594
        48.5004         49.5004
   1307214.30547   1022700.98045  22482581.7034                   22482583.7464
        44.0004         30.2504
 25  8  7 18 44  0.0000000  0  6G08G23G27G32G10G18
    231673.73446    190428.29746  22904460.5234                   22904463.9694
        41.5004         36.0004
   1072503.69147    843295.33645  21834166.2974                   21834165.8444
        44.5004         33.2504
    711999.33647    569016.23447  21739222.1724                   21739223.8914
        45.7504         44.7504
    -63105.46148    -31200.40248  21156264.5234                   21156265.9804
        51.2504         49.0004
    440443.82048    370396.24248  21204075.5864                   21204076.9804
        49.0004         49.7504
   1295048.27747   1013220.91845  22480267.0314                   22480267.9574
        43.7504         30.0004
 25  8  7 18 44 15.0000000  0  6G08G23G27G32G10G18
    164940.05546    138428.02046  22891761.6414                   22891765.4304
        41.5004         36.0004
   1049546.04747    825406.25045  21829797.6094                   21829797.2894
        45.7504         33.0004
    675591.81647    540646.71147  21732293.5394                   21732296.2624
        45.7504         44.5004
   -137899.66048    -89481.58648  21142031.6644                   21142033.4344
        51.2504         49.0004
    389794.93848    330929.58248  21194437.5554                   21194439.0984
        50.5004         49.5004
   1282917.09047   1003767.99244  22477958.4304                   22477959.3284
        44.5004         29.0004
 25  8  7 18 44 30.0000000  0  6G08G23G27G32G10G18
     98295.68446     86497.35946  22879079.8444                   22879083.5984
        41.2504         36.5004
   1026573.60247    807505.62545  21825425.7664                   21825425.6334
        45.5004         32.7504
    639281.73447    512353.10547  21725384.6954                   21725386.3094
        45.5004         44.7504
   -212622.44548   -147707.10948  21127812.3754                   21127813.8484
        51.5004         49.0004
    339145.67248    291462.62548  21184798.9064                   21184800.9414
        48.5004         49.5004
   1270823.44147    994344.32044  22475657.0394                   22475657.6724
        44.5004         29.0004
 25  8  7 18 44 45.0000000  0  6G08G23G27G32G10G18
     31742.64846     34637.85246  22866415.6954                   22866419.0004
        41.5004         37.2504
   1003588.17247    789594.88345  21821051.8674                   21821052.0474
        45.7504         33.0004
    603070.82047    484136.78147  21718493.3364                   21718495.8794
        46.0004         45.0004
   -287271.78548   -205875.41448  21113607.1254                   21113608.8834
        51.0004         49.0004
    288497.86348    251996.80148  21175161.0164                   21175162.6024
        50.5004         49.5004
   1258769.18847    984951.34844  22473363.3984                   22473364.5434
        44.0004         28.2504
 25  8  7 18 45  0.0000000  0  6G08G23G27G32G10G18
    -34718.79746    -17150.26246  22853768.0234                   22853771.9224
        41.0004         37.5004
    980589.93047    771674.14845  21816675.5474                   21816675.6994
        45.5004         33.0004
    566959.10947    455997.75847  21711621.6804                   21711623.6524
        46.2504         45.0004
   -361847.37548   -263986.24648  21099415.7114                   21099417.1844
        51.5004         49.2504
    237851.67248    212532.23048  21165523.3914                   21165525.0984
        51.0004         49.5004
   1246754.43847    975589.16044  22471076.8364                   22471077.9884
        44.0004         28.5004
 25  8  7 18 45 15.0000000  0  6G08G23G27G32G10G18
   -101088.25846    -68866.73446  22841138.1884                   22841141.7624
        41.5004         37.2504
    957578.95747    753743.51645  21812296.7424                   21812297.0744
        46.0004         33.0004
    530946.59847    427936.02747  21704768.9304                   21704771.3054
        46.0004         44.7504
   -436349.00048   -322039.44148  21085238.4534                   21085240.4774
        51.7504         49.2504
    187207.17648    173068.98048  21155886.1254                   21155887.7814
        48.5004         49.5004
   1234779.22747    966257.77744  22468798.1564                   22468799.6644
        44.5004         28.5004
 25  8  7 18 45 30.0000000  0  6G08G23G27G32G10G18
   -167364.84846   -120510.82846  22828525.9064                   22828530.1684
        40.2504         37.0004
    934556.05947    735803.57445  21807915.4454                   21807915.3134
        46.0004         33.5004
    495033.90647    399952.08247  21697934.7974                   21697937.2424
        46.2504         44.7504
   -510775.63748   -380034.21548  21071075.3674                   21071077.4924
        51.0004         49.5004
    136565.19148    133607.69548  21146249.3204                   21146250.6454
        50.5004         49.5004
   1222844.30547    956957.79744  22466527.0554                   22466528.4414
        44.0004         29.5004
 25  8  7 18 45 45.0000000  0  6G08G23G27G32G10G18
   -233546.48846   -172080.93446  22815932.0164                   22815935.9454
        41.5004         37.0004
    911523.18447    717855.86745  21803532.2194                   21803532.5314
        45.7504         33.0004
    459222.92647    372047.39147  21691120.6174                   21691122.9414
        45.7504         45.0004
   -585125.26248   -437968.96548  21056927.4304                   21056929.1844
        52.2504         49.2504
     85927.61348     94149.84448  21136613.2974                   21136614.7424
        49.7504         49.5004
   1210951.59047    947690.69544  22464264.1484                   22464265.1724
        44.5004         29.5004
 25  8  7 18 46  0.0000000  0  6G08G23G27G32G10G18
   -299634.19146   -223577.82846  22803356.1724                   22803359.9964
        41.0004         36.7504
    888479.12947    699899.44145  21799146.9614                   21799147.4184
        45.7504         33.0004
    423512.25847    344220.86747  21684324.9304                   21684327.1054
        47.0004         45.0004
   -659398.90248   -495844.51248  21042793.4924                   21042795.4384
        51.5004         49.5004
     35293.25048     54694.48848  21126978.0784                   21126979.5594
        49.2504         49.5004
   1199099.85247    938455.52744  22462009.0164                   22462010.0164
        43.7504         28.7504
 25  8  7 18 46 15.0000000  0  6G08G23G27G32G10G18
   -365627.25046   -275000.99246  22790798.4614                   22790801.8284
        41.5004         37.2504
    865424.45747    681934.73845  21794760.4694                   21794760.0744
        47.0004         33.0004
    387902.38347    316472.87947  21677548.6414                   21677550.7304
        47.0004         45.0004
   -733595.79748   -553660.25848  21028674.3834                   21028675.9574
        51.7504         49.5004
    -15337.29748     15242.11348  21117343.1414                   21117344.7274
        49.5004         49.2504
   1187289.61747    929252.70344  22459761.3524                   22459762.6954
        44.5004         28.7504
 25  8  7 18 46 30.0000000  0  6G08G23G27G32G10G18
   -431525.20347   -326350.04346  22778258.4384                   22778261.8204
        42.5004         37.5004
    842359.43047    663961.97345  21790371.2734                   21790371.5124
        45.7504         32.7504
    352393.40647    288803.51647  21670791.8054                   21670793.5394
        46.7504         44.7504
   -807715.62548   -611415.95348  21014569.8984                   21014571.6214
        52.0004         49.5004
    -65963.90648    -24207.19548  21107709.4384                   21107710.5904
        50.5004         49.5004
   1175521.05547    920082.35244  22457522.2034                   22457523.3094
        45.0004         28.5004
 25  8  7 18 46 45.0000000  0  6G08G23G27G32G10G18
   -497325.11346   -377622.68746  22765737.1564                   22765739.7504
        41.5004         37.2504
    819286.84447    645983.31345  21785980.6254                   21785980.4804
        46.0004         32.7504
    316988.00847    261214.85947  21664054.3444                   21664056.1914
        46.7504         45.2504
   -881755.35248   -669109.23048  21000480.6724                   21000482.3484
        51.2504         49.5004
   -116583.62548    -63651.13748  21098076.6484                   21098078.0594
        48.2504         49.5004
   1163797.00047    910946.67644  22455291.1414                   22455292.1994
        45.5004         29.7504
 25  8  7 18 47  0.0000000  0  6G08G23G27G32G10G18
   -563027.63746   -428819.46946  22753234.3594                   22753237.9144
        41.2504         36.7504
    796205.91847    627998.17245  21781588.6644                   21781588.3874
        46.0004         33.0004
    281685.28147    233706.21547  21657336.5164                   21657338.2424
        47.0004         44.5004
   -955715.67248   -726740.63348  20986406.3204                   20986408.0314
        51.5004         49.5004
   -167197.30948   -103090.36748  21088445.2424                   21088446.6414
        48.7504         49.2504
   1152116.57047    901844.99644  22453068.4144                   22453069.4734
        45.5004         29.2504
 25  8  7 18 47 15.0000000  0  7G08G23G27G32G10G18G28
   -628632.37947   -479940.02346  22740749.9844                   22740752.8364
        42.0004         36.2504
    773116.89847    610006.70345  21777194.7034                   21777194.9344
        45.7504         33.5004
    246485.30947    206277.61747  21650638.1334                   21650640.3874
        46.7504         44.5004
  -1029596.14548   -784309.82048  20972347.4144                   20972349.0124
        51.7504         49.5004
   -217804.74248   -142524.73448  21078814.8364                   21078816.2704
        49.7504         49.2504
   1140479.98447    892777.49244  22450854.3754                   22450854.8984
        45.2504         28.7504
   1120884.91456    978872.60553  25454386.2504                   25454396.9534
        41.5004         19.0004
 25  8  7 18 47 30.0000000  0  7G08G23G27G32G10G18G28
   -694137.00046   -530982.59845  22728284.3594                   22728288.1094
        41.2504         35.7504
    750021.87147    592010.55145  21772800.2584                   21772800.3594
        46.2504         32.7504
    211390.08247    178930.64847  21643959.4844                   21643961.6174
        46.2504         45.0004
  -1103394.57448   -841815.07448  20958303.9064                   20958305.7034
        52.2504         49.7504
   -268403.78148   -181952.55948  21069186.1174                   21069187.6374
        51.0004         49.5004
   1128889.26647    883745.71545  22448648.6484                   22448649.5984
        46.5004         30.0004
   1022995.04346    902595.00443  25435756.7814                   25435768.4414
        38.5004         19.5004
 25  8  7 18 47 45.0000000  0  8G08G23G27G32G24G10G18G28
   -759544.55546   -581949.50046  22715837.6564                   22715841.8484
        40.7504         36.0004
    726917.75447    574007.32045  21768403.3134                   21768403.5164
        46.2504         33.0004
    176396.39147    151662.80947  21637300.1484                   21637302.5824
        47.0004         44.7504
  -1177113.88348   -899258.67248  20944275.6564                   20944277.1054
        52.0004         49.5004
   1458910.29356   1154677.79354  23185766.0944                   23185769.5234
        36.7504         29.0004
   -318997.56248   -221376.29348  21059558.6024                   21059560.2384
        50.2504         49.5004
   1117341.30547    874747.27044  22446451.6254                   22446452.0274
        46.0004         29.0004
    925026.60246    856797.15253  25417115.7034                   25417124.0434
        39.5004         20.7504
 25  8  7 18 48  0.0000000  0  8G08G23G27G32G24G10G18G28
   -824850.84846   -632837.52046  22703410.6954                   22703413.9384
        41.5004         36.7504
    703808.52047    556000.11345  21764005.7114                   21764006.1334
        46.0004         33.0004
    141507.99247    124477.01247  21630661.4844                   21630663.7584
        46.2504         44.7504
  -1250750.00048   -956637.45348  20930263.2424                   20930264.9574
        52.0004         49.7504
   1417069.00846   1122074.19944  23177803.3754                   23177807.2664
        36.0004         27.7504
   -369582.09448   -260792.81648  21049932.7584                   21049934.1054
        49.2504         49.5004
   1105840.02747    865785.18044  22444262.7814                   22444263.6174
        46.0004         29.7504
    826983.762 6                  25398456.250
        36.250
 25  8  7 18 48 15.0000000  0  8G08G23G27G32G24G10G18G28
   -890059.46946   -683649.41446  22691002.0314                   22691004.6764
        41.2504         36.2504
    680690.53547    537986.06645  21759607.0474                   21759607.3054
        46.2504         33.5004
    106721.19947     97370.39147  21624041.8054                   21624043.8754
        46.5004         45.0004
  -1324306.37948  -1013954.09448  20916265.7664                   20916267.4534
        51.5004         49.7504
   1375342.15645   1089559.76244  23169863.3284                   23169866.6844
        35.5004         28.2504
   -420161.04348   -300204.98848  21040307.9144                   21040309.3634
        50.7504         49.5004
   1094381.69147    856856.55544  22442082.1254                   22442082.9344
        46.5004         29.2504
    728863.297 6                  25379784.570
        38.750
 25  8  7 18 48 30.0000000  0  8G08G23G27G32G24G10G18G28
   -955169.25046   -734384.32446  22678611.3914                   22678615.7734
        41.0004         36.7504
    657564.66847    519965.89845  21755206.1414                   21755206.2854
        46.2504         32.7504
     72036.68047     70343.45747  21617441.4774                   21617443.6884
        46.5004         44.7504
  -1397782.00848  -1071207.82448  20902283.9144                   20902285.6844
        51.2504         49.7504
   1333730.80546   1057135.35244  23161944.1564                   23161948.2034
        36.2504         27.7504
   -470733.50048   -339612.09848  21030684.2734                   21030685.9064
        50.5004         49.5004
   1082967.17247    847962.07445  22439909.9774                   22439911.0394
        46.0004         30.0004
    630666.63746    800697.04753  25361098.6484                   25361109.0784
        38.5004         21.2504
 25  8  7 18 48 45.0000000  0  8G08G23G27G32G24G10G18G28
  -1020178.50446   -785040.87546  22666240.9064                   22666244.5984
        41.7504         36.2504
    634432.59447    501940.88345  21750804.2664                   21750804.4494
        46.2504         32.7504
     37455.96147     43397.41047  21610861.1484                   21610863.2544
        46.0004         44.2504
  -1471175.12548  -1128397.24648  20888317.6174                   20888319.1214
        51.7504         49.7504
   1292236.65246   1024802.23044  23154048.6024                   23154052.1214
        37.0004         27.2504
   -521297.85548   -379012.89548  21021061.8674                   21021063.6214
        50.5004         49.5004
   1071598.03947    839102.97345  22437746.6564                   22437747.8134
        45.5004         30.0004
    532395.55556    724122.34852  25342397.1414                   25342409.1134
        36.0004         17.2504
 25  8  7 18 49  0.0000000  0  9G08G23G27G02G32G24G10G18G28
  -1085085.84446   -835618.01246  22653890.1644                   22653892.9964
        41.5004         36.7504
    611295.50047    483911.96145  21746401.4144                   21746401.6804
        46.7504         32.5004
      2980.10947     16533.08247  21604300.7814                   21604302.7734
        45.2504         44.2504
   -205689.66055    -91601.87553  24925410.4064                   24925412.2114
        35.0004         19.0004
  -1544484.37548  -1185521.32048  20874367.4924                   20874369.0944
        52.0004         49.7504
   1250860.87146    992561.36744  23146174.9694                   23146178.7114
        37.0004         29.2504
   -571852.87548   -418406.41848  21011442.1094                   21011443.3014
        49.0004         49.5004
   1060275.50047    830280.16044  22435591.9774                   22435592.9494
        45.0004         29.5004
    434051.82846    647491.03343  25323685.0474                   25323694.3404
        40.2504         19.2504
 25  8  7 18 49 15.0000000  0  9G08G23G27G02G32G24G10G18G28
  -1149889.11747   -886114.06246  22641558.2894                   22641560.9224
        43.0004         36.7504
    588155.41447    465880.70745  21741998.1254                   21741998.1024
        46.2504         32.7504
    -31389.04347    -10248.10947  21597760.5704                   21597762.6134
        45.5004         44.2504
   -300874.27745   -165771.62543  24907297.4614                   24907299.4774
        35.0004         19.0004
  -1617707.60948  -1242578.37548  20860433.3134                   20860434.9024
        51.0004         49.7504
   1209605.48046    960414.28144  23138323.9844                   23138327.9384
        37.5004         28.7504
   -622396.59848   -457791.14148  21001823.6804                   21001825.1644
        48.2504         49.5004
   1049001.47747    821495.16044  22433446.8834                   22433447.7624
        45.2504         29.5004
    335637.66846    570804.99243  25304956.8284                   25304968.2974
        39.2504         18.2504
 25  8  7 18 49 30.0000000  0  9G08G23G27G02G32G24G10G18G28
  -1214587.26647   -936528.20746  22629246.7734                   22629249.4224
        42.0004         37.5004
    565013.22347    447847.81645  21737593.9454                   21737594.3404
        46.5004         33.0004
    -65650.75047    -36945.57447  21591240.5784                   21591242.5394
        45.5004         44.0004
   -396090.30945   -239965.87142  24889178.1254                   24889181.1564
        35.0004         17.2504
  -1690843.80548  -1299567.60248  20846515.9694                   20846517.5864
        51.5004         49.7504
   1168471.50446    928361.84044  23130497.2664                   23130500.2544
        36.7504         28.5004
   -672928.11748   -497166.34848  20992207.7894                   20992209.3954
        50.0004         49.5004
   1037776.77747    812748.59445  22431310.7504                   22431311.7814
        45.5004         30.2504
    237154.121 6                  25286215.375
        36.250
 25  8  7 18 49 45.0000000  0  9G08G23G27G02G32G24G10G18G28
  -1279183.86746   -986863.21946  22616954.1804                   22616957.1604
        41.7504         37.7504
    541865.28547    429810.44545  21733189.6174                   21733189.5704
        46.5004         33.0004
    -99808.77347    -63562.24647  21584740.6024                   21584742.8524
        46.2504         44.2504
   -491341.18445   -314187.23442  24871052.2664                   24871054.7584
        35.5004         17.7504
  -1763896.47748  -1356491.75448  20832614.4924                   20832616.2034
        51.5004         49.7504
   1127455.27346    896401.13744  23122691.1724                   23122694.5824
        36.5004         27.2504
   -723451.05548   -536534.86748  20982593.6884                   20982595.2114
        50.0004         49.5004
   1026597.76247    804037.61345  22429183.4144                   22429184.6254
        45.7504         30.0004
    138598.148 6                  25267462.430
        40.500
 25  8  7 18 50  0.0000000  0  9G08G23G27G02G32G24G10G18G28
  -1343674.61747  -1037115.73846  22604682.3524                   22604685.3634
        42.7504         38.0004
    518715.69547    411771.78545  21728784.2974                   21728783.9264
        45.5004         33.0004
   -133859.16047    -90095.05547  21578261.0474                   21578263.5664
        45.7504         44.0004
   -586622.43745   -388432.29743  24852921.0394                   24852923.1764
        34.7504         19.0004
  -1836861.39148  -1413347.51648  20818729.8444                   20818731.4774
        51.7504         49.5004
   1086560.95746    864535.44944  23114909.9384                   23114912.8284
        37.5004         27.2504
   -773961.34448   -575893.53548  20972981.8754                   20972983.1724
        50.0004         49.5004
   1015468.48047    795365.39144  22427065.5234                   22427067.2934
        45.5004         29.7504
     39974.199 6                  25248693.313
        39.500
 25  8  7 18 50 15.0000000  0  9G08G23G27G02G32G24G10G18G28
  -1408059.52346  -1087285.80946  22592430.0234                   22592433.0634
        41.5004         38.0004
    495564.38347    393731.76645  21724378.6564                   21724378.6484
        46.2504         33.2504
   -167802.24247   -116544.23447  21571801.9064                   21571803.7544
        45.2504         44.5004
   -681934.01645   -462700.98442  24834783.6254                   24834786.8204
        35.5004         17.2504
  -1909738.53948  -1470134.89148  20804861.3284                   20804863.2464
        52.0004         49.7504
   1045788.53546    832764.71944  23107151.0554                   23107154.3134
        37.2504         28.0004
   -824459.08248   -615242.43048  20963372.8444                   20963373.7704
        49.7504         49.5004
   1004388.69147    786731.74645  22424956.9144                   22424958.6334
        45.7504         30.2504
    -58717.67246    445835.66453  25229912.0164                   25229924.1094
        38.5004         19.2504
 25  8  7 18 50 30.0000000  0  9G08G23G27G02G32G24G10G18G28
  -1472338.21946  -1137373.10246  22580197.7274                   22580201.3444
        41.5004         37.5004
    472411.53547    375690.56645  21719973.1884                   21719972.8674
        46.0004         32.7504
   -201637.87547   -142909.70347  21565363.2424                   21565365.3094
        45.5004         44.0004
   -777275.63745   -536993.10542  24816641.3674                   24816642.8244
        35.2504         17.7504
  -1982527.56648  -1526853.59848  20791010.3754                   20791011.9534
        51.5004         49.7504
   1005138.12946    801089.07044  23099415.9384                   23099419.1054
        37.5004         28.5004
   -874944.06648   -654581.37548  20953765.7274                   20953767.2814
        50.7504         49.5004
    993358.59447    778136.80145  22422858.3984                   22422859.4774
        44.2504         30.5004
   -157476.53946    368880.76642  25211120.3914                   25211131.1174
        40.5004         16.2504
 25  8  7 18 50 45.0000000  0  9G08G23G27G02G32G24G10G18G28
     38911.35546     40223.97746  22867779.5004                   22867782.5554
        41.5004         38.0004
   2024676.35947   1585247.57045  22015358.8364                   22015359.3714
        46.7504         33.2504
   1340053.67647   1058408.35547  21858737.5704                   21858739.5594
        45.7504         44.2504
    702777.10246    616294.78943  25098285.5234                   25098287.7814
        36.5004         18.5004
   -479805.79748   -355901.55948  21076968.9304                   21076970.0904
        51.0004         49.5004
   2540030.20346   1997108.85544  23391496.3984                   23391499.5594
        37.2504         28.5004
    650004.76248    533690.43448  21243953.2504                   21243954.9384
        50.7504         49.2504
   2557796.53947   1997179.29745  22720561.1174                   22720562.3834
        44.5004         30.0004
   1319121.73446   1519477.00842  25492104.3594                   25492118.1564
        36.0004         17.7504
 25  8  7 18 51  0.0000000  0  9G08G23G27G02G32G24G10G18G28
    -25154.92247     -9697.79746  22855587.4144                   22855590.6334
        42.0004         38.0004
   2001520.10547   1567203.70745  22010952.1884                   22010953.0824
        45.5004         32.5004
   1306432.03147   1032209.64147  21852339.2974                   21852341.9774
        46.0004         44.2504
    607376.16446    541956.49643  25080131.3674                   25080133.2934
        36.5004         18.5004
   -552418.53548   -412482.89848  21063151.1174                   21063152.4224
        51.5004         49.5004
   2499623.71946   1965623.28544  23383807.2734                   23383810.2854
        37.7504         28.5004
    599544.94548    494371.09848  21234351.3284                   21234352.7544
        51.0004         49.5004
   2546865.30147   1988661.39145  22718481.2194                   22718482.4024
        45.0004         30.5004
   1220228.99646   1442418.00442  25473287.5314                   25473300.2664
        37.7504         17.7504
 25  8  7 18 51 15.0000000  0  7G08G23G27G32G24G10G18
    -89112.87946    -59535.16046  22843416.6564                   22843420.9304
        41.2504         38.2504
   1978364.03947   1549159.98845  22006546.5784                   22006546.2464
        46.0004         33.5004
   1272918.99247   1006095.54347  21845962.0164                   21845964.5474
        47.0004         44.5004
   -624941.09848   -468993.97748  21049350.3204                   21049352.0904
        51.7504         49.7504
   2459341.09446   1934234.24644  23376141.1414                   23376144.1954
        37.0004         28.0004
    549099.55548    455063.00048  21224752.3754                   21224753.4964
        50.2504         49.5004
   2535985.28947   1980183.40645  22716410.7894                   22716411.8594
        44.5004         30.0004
 25  8  7 18 51 30.0000000  0  7G08G23G27G32G24G10G18
   -152961.66046   -109287.45346  22831266.7814                   22831270.2974
        41.2504         37.5004
   1955208.95347   1531117.04745  22002139.7664                   22002139.9844
        46.2504         33.0004
   1239515.23447    980066.61347  21839605.9064                   21839608.0664
        47.5004         44.7504
   -697372.54748   -525434.05548  21035567.2424                   21035569.1024
        51.5004         49.7504
   2419183.12946   1902942.32444  23368499.6094                   23368502.5354
        37.5004         29.2504
    498669.42248    415766.78948  21215155.3284                   21215156.5234
        50.7504         49.5004
   2525157.19947   1971745.87944  22714349.8204                   22714351.4414
        44.2504         29.5004
 25  8  7 18 51 45.0000000  0  7G08G23G27G32G24G10G18
   -216696.27746   -158950.77746  22819138.6484                   22819142.8714
        41.2504         37.5004
   1932059.70347   1513078.64845  21997734.5554                   21997735.0904
        45.2504         33.0004
   1206225.43047    954126.47747  21833270.8674                   21833273.3094
        47.0004         44.5004
   -769707.92248   -581799.26648  21021802.0944                   21021803.6884
        51.5004         49.7504
   2379154.73846   1871751.37144  23360882.4064                   23360886.4694
        37.5004         29.2504
    448259.35248    376486.21948  21205562.8204                   21205564.3284
        50.7504         49.5004
   2514385.86347   1963352.56644  22712300.4144                   22712301.9774
        43.5004         29.5004
 25  8  7 18 52  0.0000000  0  7G08G23G27G32G24G10G18
   -280309.07446   -208519.16446  22807033.2114                   22807036.8164
        41.7504         37.5004
   1908923.78547   1495050.63745  21993331.9844                   21993332.2194
        45.5004         32.7504
   1173056.91447    928280.84047  21826959.3594                   21826961.1454
        46.5004         44.2504
   -841939.57848   -638083.66448  21008057.0704                   21008058.5514
        51.7504         49.7504
   2339263.39146   1840667.19944  23353290.8754                   23353295.7384
        37.7504         28.5004
    397876.87148    337227.14148  21195974.9534                   21195976.6804
        50.5004         49.2504
   2503678.69547   1955009.27044  22710262.6254                   22710264.0164
        44.7504         29.2504
 25  8  7 18 52 15.0000000  0  7G08G23G27G32G24G10G18
   -343794.92646   -257988.65646  22794951.6804                   22794956.0434
        41.5004         37.0004
   1885806.20747   1477036.91445  21988933.3524                   21988933.6884
        46.5004         32.7504
   1140014.54347    902533.50047  21820671.2504                   21820673.9654
        47.0004         44.2504
   -914062.40248   -694283.25048  20994332.4064                   20994334.2544
        52.0004         50.0004
   2299514.19946   1809693.78544  23345727.1724                   23345731.8634
        37.7504         28.5004
    347526.99248    297993.46548  21186393.9694                   21186395.4734
        50.5004         49.5004
   2493040.65247   1946719.82845  22708238.4774                   22708240.5234
        43.5004         30.5004
 25  8  7 18 52 30.0000000  0  7G08G23G27G32G24G10G18
   -407151.20346   -307357.18746  22782896.2194                   22782899.4024
        41.0004         37.5004
   1862709.52047   1459039.46945  21984538.1024                   21984538.2424
        46.2504         32.5004
   1107100.62947    876886.26247  21814408.0394                   21814410.6724
        46.7504         44.5004
   -986073.79748   -750396.00848  20980629.1884                   20980630.7304
        51.5004         50.0004
   2259909.59846   1778833.04744  23338191.1804                   23338194.8984
        38.0004         28.5004
    297212.19948    258787.12948  21176819.5784                   21176820.8674
        50.5004         49.2504
   2482474.18047   1938486.14845  22706228.1174                   22706229.5984
        43.2504         30.2504
 25  8  7 18 52 45.0000000  0  7G08G23G27G32G24G10G18
   -470378.85246   -356625.46546  22770864.1884                   22770867.4964
        41.7504         37.2504
   1839632.64847   1441057.47345  21980146.4534                   21980146.9494
        46.0004         33.0004
   1074313.96947    851338.18047  21808168.6414                   21808171.1724
        46.0004         44.0004
  -1057974.62148   -806422.61348  20966947.0474                   20966948.5634
        52.0004         50.2504
   2220448.59046   1748084.22744  23330681.4614                   23330685.0744
        36.7504         28.2504
    246931.45748    219607.32448  21167251.3444                   21167252.8484
        50.2504         49.5004
   2471978.19147   1930307.40244  22704230.7034                   22704232.3244
        42.0004         29.5004
 25  8  7 18 53  0.0000000  0  7G08G23G27G32G24G10G18
   -533479.89547   -405795.11746  22758856.5554                   22758860.1844
        43.0004         37.0004
   1816573.41447   1423089.20345  21975758.4774                   21975758.7934
        46.0004         32.5004
   1041652.20747    825887.43047  21801953.7974                   21801956.2974
        47.7504         44.0004
  -1129767.02048   -862364.73048  20953285.1484                   20953287.0634
        51.5004         50.0004
   2181129.02046   1717445.60244  23323199.3524                   23323203.1994
        36.7504         29.2504
    196682.55948    180452.33248  21157689.2424                   21157690.8204
        50.0004         49.5004
   2461550.40247   1922181.78945  22702245.9454                   22702247.7664
        43.0004         30.2504
 25  8  7 18 53 15.0000000  0  7G08G23G27G32G24G10G18
   -596458.66847   -454869.47346  22746872.1564                   22746874.9774
        43.2504         37.0004
   1793527.44147   1405131.27345  21971372.6334                   21971373.4264
        46.5004         33.0004
   1009110.80147    800530.45347  21795761.5004                   21795763.7034
        47.0004         44.0004
  -1201455.20748   -918225.64148  20939643.6254                   20939645.1094
        51.5004         50.2504
   2141946.51646   1686913.77344  23315743.5784                   23315746.6294
        37.2504         28.0004
    146461.16848    141318.78148  21148132.4384                   21148133.5554
        50.5004         49.5004
   2451186.35247   1914105.84444  22700273.7424                   22700275.5514
        42.0004         29.0004
 25  8  7 18 53 30.0000000  0  7G08G23G27G32G24G10G18
   -659312.37947   -503846.40646  22734911.3444                   22734914.2814
        43.5004         37.2504
   1770497.33647   1387185.73045  21966990.3984                   21966990.5944
        46.2504         33.2504
    976692.17247    775269.14547  21789592.0394                   21789594.5204
        46.7504         44.5004
  -1273036.51248   -974003.27048  20926022.1094                   20926023.5204
        52.0004         50.2504
   2102903.62946   1656490.74644  23308313.6884                   23308317.8324
        37.0004         29.5004
     96269.84848    102208.65248  21138581.2194                   21138583.1054
        50.5004         49.5004
   2440888.57847   1906081.54745  22698314.1954                   22698316.0864
        43.0004         30.2504
 25  8  7 18 53 45.0000000  0  7G08G23G27G32G24G10G18
   -722042.29747   -552726.86346  22722974.5394                   22722977.6134
        43.2504         37.0004
   1747481.83647   1369251.54345  21962610.9774                   21962611.3834
        46.0004         33.5004
    944394.84047    750102.35947  21783445.9454                   21783448.8404
        47.0004         44.5004
  -1344512.08248  -1029698.50048  20912420.3984                   20912422.3054
        52.0004         50.0004
   2063999.21146   1626175.61344  23300909.6804                   23300914.3324
        37.2504         29.5004
     46107.30148     63120.96148  21129035.7274                   21129037.6804
        51.2504         49.5004
   2430655.71147   1898107.82845  22696366.7194                   22696368.7934
        42.5004         30.0004
 25  8  7 18 54  0.0000000  0  7G08G23G27G32G24G10G18
   -784650.61747   -601512.57046  22711060.8984                   22711063.6524
        44.7504         38.0004
   1724478.54347   1351326.88345  21958233.1644                   21958233.7774
        45.5004         33.2504
    912216.23447    725028.08247  21777322.9694                   21777325.5314
        47.5004         44.2504
  -1415884.18748  -1085313.11748  20898838.6954                   20898840.6484
        51.7504         50.2504
   2025230.66446   1595966.36344  23293533.0704                   23293536.8554
        36.7504         28.5004
     -4028.86348     24053.81648  21119495.1954                   21119496.9024
        50.7504         49.5004
   2420485.34447   1890182.81345  22694431.9694                   22694433.4454
        42.0004         30.0004
 25  8  7 18 54 15.0000000  0  7G08G23G27G32G24G10G18
   -847135.81247   -650202.32846  22699170.1564                   22699173.4104
        44.0004         37.2504
   1701488.91447   1333412.86745  21953858.6334                   21953858.9494
        46.0004         33.0004
    880157.65647    700047.34447  21771222.7034                   21771225.0004
        46.7504         44.5004
  -1487151.33248  -1140845.94148  20885277.2344                   20885278.8364
        51.5004         50.0004
   1986599.64846   1565864.25844  23286181.8674                   23286185.3834
        37.2504         28.2504
    -54137.17648    -14991.62548  21109959.9064                   21109961.5354
        51.7504         49.5004
   2410378.81647   1882307.52344  22692508.5394                   22692510.6524
        43.0004         28.7504
 25  8  7 18 54 30.0000000  0  7G08G23G27G32G24G10G18
   -909499.02047   -698797.03546  22687302.9534                   22687306.0204
        43.2504         37.5004
   1678511.66847   1315508.50045  21949486.3364                   21949486.3364
        46.5004         33.0004
    848217.62147    675158.96947  21765144.7894                   21765146.7194
        47.0004         44.0004
  -1558314.63348  -1196297.85248  20871735.4454                   20871736.6724
        51.5004         50.0004
   1948104.82046   1535868.28544  23278856.1564                   23278859.6764
        37.2504         28.7504
   -104218.91048    -54016.35248  21100429.6724                   21100431.3324
        51.0004         49.5004
   2400334.78947   1874480.96144  22690597.3054                   22690598.9924
        42.0004         29.2504
 25  8  7 18 54 45.0000000  0  7G08G23G27G32G24G10G18
   -971743.72347   -747299.39846  22675457.0004                   22675461.0904
        42.5004         37.0004
   1655543.30947   1297611.05945  21945115.5164                   21945115.5944
        46.0004         33.2504
    816392.40647    650360.07047  21759088.8134                   21759090.7074
        47.0004         44.2504
  -1629377.54748  -1251671.53948  20858212.3134                   20858214.0044
        51.0004         50.0004
   1909742.55146   1505975.62944  23271556.6024                   23271560.3524
        37.0004         29.5004
   -154277.64148    -93023.16048  21090903.8444                   21090905.2154
        51.5004         49.5004
   2390349.71546   1866700.30944  22688697.6484                   22688699.1454
        41.0004         29.2504
 25  8  7 18 55  0.0000000  0  7G08G23G27G32G24G10G18
  -1033869.81247   -795709.33646  22663635.3914                   22663639.1884
        42.7504         37.0004
   1632583.85547   1279720.55145  21940746.5784                   21940746.5204
        45.7504         32.7504
    784681.89547    625650.54347  21753054.1804                   21753056.2974
        47.7504         44.0004
  -1700339.91048  -1306966.87548  20844708.8754                   20844710.2814
        52.2504         50.0004
   1871513.01246   1476186.35244  23264281.5704                   23264285.0474
        39.0004         29.0004
   -204313.31648   -132011.99648  21081382.5164                   21081384.1214
        52.0004         49.5004
   2380423.46946   1858965.51244  22686808.6094                   22686810.3634
        41.0004         29.0004
 25  8  7 18 55 15.0000000  0  7G08G23G27G32G24G10G18
  -1095875.39147   -844025.36746  22651836.2664                   22651839.7624
        43.7504         37.0004
   1609635.02347   1261838.32045  21936379.4694                   21936379.3754
        46.2504         33.0004
    753087.60547    601031.58647  21747041.7814                   21747044.1054
        47.2504         44.0004
  -1771199.91848  -1362182.45348  20831224.3364                   20831225.6374
        52.7504         50.0004
   1833417.81646   1446501.80544  23257031.9614                   23257035.7814
        37.7504         29.5004
   -254324.23048   -170981.53948  21071865.5394                   21071867.4184
        51.2504         49.5004
   2370557.71147   1851277.84045  22684931.5474                   22684933.2464
        42.5004         30.0004
 25  8  7 18 55 30.0000000  0  7G08G23G27G32G24G10G18
  -1157761.82447   -892248.55946  22640059.2034                   22640063.3984
        42.2504         37.0004
   1586695.38747   1243963.25845  21932014.3364                   21932014.6804
        45.7504         32.5004
    721607.88747    576501.91047  21741051.3054                   21741054.0004
        47.0004         44.0004
  -1841958.91448  -1417319.32448  20817759.5864                   20817760.7584
        51.7504         50.0004
   1795455.53546   1416920.80144  23249808.5864                   23249811.4304
        38.5004         29.2504
   -304311.77048   -209932.87148  21062353.1564                   21062354.8914
        51.0004         49.5004
   2360750.90246   1843636.10244  22683064.7894                   22683067.1684
        41.2504         29.5004
 25  8  7 18 55 45.0000000  0  7G08G23G27G32G24G10G18
  -1219528.69947   -940378.59446  22628305.7344                   22628309.1724
        42.2504         36.7504
   1563765.28547   1226095.61745  21927650.5394                   21927651.0664
        46.0004         32.5004
    690242.91047    552061.62947  21735083.1414                   21735085.2974
        47.7504         44.0004
  -1912616.46548  -1472377.14148  20804313.7894                   20804315.1454
        51.7504         50.0004
   1757626.49646   1387443.60945  23242609.8754                   23242613.4104
        38.0004         30.0004
   -354275.67248   -248865.78148  21052845.2814                   21052846.7584
        51.5004         49.5004
   2351003.34446   1836040.55144  22681210.5314                   22681211.9344
        41.7504         29.5004
 25  8  7 18 56  0.0000000  0  7G08G23G27G32G24G10G18
  -1281178.18047   -988417.14846  22616573.9454                   22616577.7504
        43.5004         36.2504
   1540842.47347   1208233.66845  21923289.1644                   21923289.1724
        46.0004         32.5004
    658990.22748    527708.85947  21729136.1564                   21729138.2154
        48.0004         44.0004
  -1983174.70348  -1527357.57048  20790887.1334                   20790888.3284
        51.7504         50.0004
   1719928.51646   1358068.53944  23235435.5394                   23235439.2194
        38.2504         29.2504
   -404218.16448   -287782.00848  21043341.6564                   21043342.8834
        51.2504         49.2504
   2341312.66846   1828489.31344  22679366.7734                   22679368.3054
        41.7504         29.5004
 25  8  7 18 56 15.0000000  0  7G08G23G27G32G24G10G18
  -1342709.73847  -1036363.81246  22604864.9454                   22604868.9884
        43.7504         37.5004
   1517927.35547   1190377.69145  21918927.9694                   21918928.5824
        46.0004         32.5004
    627850.04347    503443.74247  21723210.3524                   21723212.5664
        47.2504         44.0004
  -2053633.15648  -1582260.26248  20777479.1414                   20777480.7384
        52.0004         50.0004
   1682361.83246   1328795.79344  23228287.5474                   23228291.1604
        38.5004         29.7504
   -454138.84848   -326681.24248  21033841.8284                   21033843.8554
        49.5004         49.2504
   2331679.25447   1820982.68444  22677533.7584                   22677535.6174
        42.0004         29.0004
 25  8  7 18 56 30.0000000  0  7G08G23G27G32G24G10G18
  -1404121.37147  -1084217.03546  22593179.0474                   22593182.9104
        43.0004         38.0004
   1495021.83647   1172529.21545  21914569.4614                   21914569.7504
        45.0004         33.5004
    596824.02747    479267.60247  21717305.9144                   21717308.6684
        47.2504         44.5004
  -2123989.87548  -1637083.66848  20764090.9614                   20764092.3164
        51.7504         50.2504
   1644928.44546   1299626.92645  23221164.5944                   23221166.6094
        38.7504         30.0004
   -504035.82848   -365562.01248  21024346.8834                   21024348.7034
        48.2504         49.2504
   2322104.84447   1813522.04344  22675711.5554                   22675712.7384
        42.5004         29.0004
 25  8  7 18 56 45.0000000  0  7G08G23G27G32G24G10G18
  -1465411.99247  -1131975.96546  22581515.5784                   22581519.3954
        43.0004         38.0004
   1472126.97747   1154689.05145  21910212.9534                   21910213.0784
        45.2504         32.2504
    565913.08648    455181.11747  21711424.0474                   21711426.3244
        48.0004         44.0004
  -2194243.64848  -1691826.85548  20750721.9924                   20750723.2584
        52.2504         50.0004
   1607629.32446   1270562.69945  23214066.2814                   23214068.8674
        38.7504         30.5004
   -553908.05148   -404423.48848  21014856.5234                   21014858.3914
        49.7504         49.2504
   2312590.48847   1806108.20344  22673901.1334                   22673902.7624
        43.0004         28.2504
 25  8  7 18 57  0.0000000  0  7G08G23G27G32G24G10G18
