     2.11           OBSERVATION DATA    G (GPS)             RINEX VERSION / TYPE
teqc  2019Feb25                         20250728 21:29:13UTCPGM / RUN BY / DATE
Linux 2.6.32-573.12.1.x86_64|x86_64|gcc -static|Linux 64|=+ COMMENT
BIT 2 OF LLI FLAGS DATA COLLECTED UNDER A/S CONDITION       COMMENT
35163331                                                    MARKER NAME
3331                                                        MARKER NUMBER
-Unknown-           -Unknown-                               OBSERVER / AGENCY
0220413516          TRIMBLE R7          2.32                REC # / TYPE / VERS
-Unknown-           TRM39105.00     NONE                    ANT # / TYPE
 -2365364.2807 -4672582.8308  3629198.1345                  APPROX POSITION XYZ
        0.0000        0.0000        0.0000                  ANTENNA: DELTA H/E/N
     1     1                                                WAVELENGTH FACT L1/2
     7    L1    L2    C1    P1    P2    S1    S2            # / TYPES OF OBSERV
    18                                                      LEAP SECONDS
 SNR is mapped to RINEX snr flag value [0-9]                COMMENT
  L1 & L2: min(max(int(snr_dBHz/6), 0), 9)                  COMMENT
  2025     7    15    22    42   30.0000000     GPS         TIME OF FIRST OBS
                                                            END OF HEADER
 25  7 15 22 42 30.0000000  0  8G01G02G03G10G28G31G32G08
   -326025.94557   -209286.73855  22475815.9844                   22475814.1684
        43.5004         30.7504
   -221636.51258   -152030.91456  21476524.6954                   21476520.0124
        48.2504         39.0004
   -219332.11356    -99758.89554  24230752.2584                   24230753.9304
        37.0004         25.5004
    -88266.65257    -60749.73057  22245401.0314                   22245400.6604
        47.2504         42.0004
   -239889.14857   -164449.96555  21004453.9064                   21004451.8444
        45.2504         35.5004
   -351396.82857   -243267.96556  21723515.3524                   21723512.8984
        43.7504         39.7504
    -71523.32458    -49313.46958  21685067.4454                   21685066.6254
        48.5004         48.2504
    -22514.27056    -11666.80154  24632897.3594                   24632901.6134
        40.0004         29.5004
 25  7 15 22 43  0.0000000  0  8G01G02G03G10G28G31G32G08
   -501319.04347   -345878.75044  22442459.1024                   22442456.8834
        43.7504         29.7504
   -338140.35248   -242813.14146  21454354.7344                   21454349.7584
        48.5004         38.2504
   -401047.19546   -241355.02344  24196173.7584                   24196174.4064
        37.2504         26.5004
   -135815.50047    -97800.82047  22236352.3444                   22236352.4064
        47.7504         43.0004
   -366232.86747   -262899.62946  20980411.6174                   20980409.2464
        45.5004         36.5004
   -538244.48047   -388863.48446  21687959.3524                   21687956.4924
        44.7504         40.0004
   -110438.35548    -79636.87948  21677662.3444                   21677661.3364
        48.7504         48.0004
    -44000.57046    -28409.52744  24628809.6484                   24628812.7034
        38.5004         29.5004
 25  7 15 22 43 30.0000000  0  8G01G02G25G10G28G31G32G08
   -676632.49247   -482486.66844  22409098.0394                   22409095.7424
        42.5004         27.5004
   -454513.06647   -333493.17244  21432210.1414                   21432205.0904
        43.5004         28.7504
   -338868.44955   -221001.69953  24731549.8834                   24731552.5984
        32.2504         21.2504
   -183488.72747   -134948.86346  22227280.1484                   22227280.5354
        45.0004         41.0004
   -492370.77347   -361188.92646  20956408.1174                   20956405.8954
        46.0004         37.5004
   -725088.34447   -534456.06647  21652404.1644                   21652401.5744
        44.7504         42.5004
   -149560.07448   -110121.38348  21670218.0084                   21670216.9964
        49.0004         49.5004
    -65810.78955    -45404.65253  24624659.4774                   24624662.8554
        33.5004         20.5004
 25  7 15 22 44  0.0000000  0  9G01G02G03G25G10G28G31G32G08
   -851863.21947   -619030.03945  22375752.6094                   22375750.4414
        45.0004         30.5004
   -570653.03148   -423991.89146  21410109.2974                   21410104.5234
        49.5004         38.2504
                                  24126806.984
        36.750
   -479190.52355   -330343.53953  24704848.6724                   24704849.5394
        31.0004         20.7504
   -231185.05947   -172114.84847  22218204.5314                   22218204.3954
        46.0004         42.5004
   -618201.02047   -459238.44546  20932463.8524                   20932461.4734
        46.7504         36.7504
   -911824.59447   -679964.80147  21616869.1484                   21616866.5394
        45.2504         42.0004
   -188789.15647   -140689.51647  21662752.4844                   21662751.7234
        47.2504         47.5004
    -87847.05946    -62575.93044  24620465.7734                   24620468.5514
        37.0004         24.5004
 25  7 15 22 44 30.0000000  0  8G01G02G03G10G28G31G32G08
  -1026943.04747   -755455.85945  22342436.1414                   22342434.0204
        43.0004         31.5004
   -686494.25447   -514257.78146  21388065.3204                   21388060.3594
        47.0004         36.2504
   -301878.46945   -454564.20754  24092052.9064                   24092053.6994
        34.2504         25.7504
   -278838.76247   -209247.65247  22209136.4224                   22209135.9654
        46.5004         43.5004
   -743657.34048   -556996.63746  20908590.6484                   20908587.8914
        48.7504         38.5004
  -1098385.10547   -825336.56647  21581367.8364                   21581365.2854
        46.2504         43.0004
   -228061.79747   -171291.58647  21655279.4064                   21655278.7194
        46.0004         42.5004
   -110046.90246    -79874.61744  24616241.7734                   24616244.2234
        38.7504         29.0004
 25  7 15 22 45  0.0000000  0  8G01G02G03G10G28G31G32G08
  -1201828.62147   -891730.34845  22309156.3204                   22309154.4224
        45.5004         31.5004
   -801994.80548   -604258.24646  21366086.7344                   21366081.3634
        49.7504         39.5004
   -484704.02045   -597025.64543  24057262.7034                   24057262.7034
        30.5004         19.7504
   -326408.35947   -246314.91846  22200084.1414                   22200084.1214
        46.5004         40.7504
   -868697.73447   -654430.70345  20884795.9924                   20884793.4184
        46.2504         35.5004
  -1284725.76647   -970537.06647  21545908.6564                   21545905.9494
        47.0004         44.0004
   -267338.42247   -201896.78546  21647805.2584                   21647804.7234
        44.7504         39.5004
   -132372.09846    -97271.01644  24611993.1484                   24611996.4614
        37.5004         27.5004
 25  7 15 22 45 30.0000000  0  9G01G02G03G25G10G28G31G32G08
  -1376479.87547  -1027822.21145  22275921.4064                   22275919.1134
        45.0004         31.0004
   -917116.23048   -693963.26646  21344179.3054                   21344174.8094
        48.2504         38.0004
   -667679.46955   -739603.81254  24022441.9534                   24022443.3484
        35.0004         26.2504
   -125581.20355   -478714.97354  24624954.4304                   24624955.2894
        31.0004         24.0004
   -373856.12547   -283287.23847  22191055.2274                   22191054.7504
        47.0004         42.0004
   -993283.62147   -751510.60546  20861088.1804                   20861085.3714
        46.0004         37.5004
  -1470806.25447  -1115534.78547  21510498.2114                   21510495.5434
        45.7504         42.7504
   -306582.99248   -232477.01647  21640337.1024                   21640336.3364
        49.2504         47.0004
   -154787.96546   -114738.09044  24607727.6414                   24607731.2194
        37.0004         26.5004
 25  7 15 22 46  0.0000000  0  9G01G02G03G25G10G28G31G32G08
  -1550867.69947  -1163708.81245  22242736.2584                   22242734.0744
        45.0004         30.5004
  -1031831.34848   -783351.69146  21322349.9304                   21322344.9264
        48.5004         38.0004
   -850776.76255   -856592.75854  23987600.4064                   23987601.2934
        34.2504         26.5004
   -265032.34455   -587378.22753  24598418.0944                   24598418.5394
        30.0004         22.5004
   -421154.90647   -320143.47347  22182054.5554                   22182054.5124
        47.0004         42.2504
  -1117387.64847   -848215.04346  20837471.7734                   20837469.0124
        46.2504         37.2504
  -1656596.79747  -1260306.60247  21475144.0084                   21475140.8164
        45.7504         43.0004
   -345770.46148   -263012.73447  21632880.0704                   21632879.7814
        48.7504         47.0004
   -177271.01245   -132257.46944  24603448.8364                   24603453.2974
        35.0004         25.5004
 25  7 15 22 46 30.0000000  0  9G01G02G03G25G10G28G31G32G08
  -1724966.37147  -1299370.10545  22209606.7504                   22209604.0864
        46.2504         30.5004
  -1146115.76248   -872404.49646  21300602.4064                   21300597.1604
        48.7504         37.5004
  -1033974.03146   -999343.84044  23952738.8594                   23952740.0984
        37.0004         28.5004
   -404187.06245   -695810.44943  24571936.1564                   24571938.5474
        30.7504         22.5004
   -468281.09447   -356865.21547  22173087.1484                   22173086.2034
        47.7504         42.0004
  -1240985.65247   -944525.16446  20813951.6644                   20813949.2734
        47.0004         37.7504
  -1842071.42247  -1404832.23447  21439849.1174                   21439845.9574
        46.7504         42.5004
   -384879.09048   -293487.01647  21625438.2664                   21625437.4144
        48.2504         47.0004
   -199800.65646   -149813.14144  24599161.4534                   24599165.7894
        36.5004         26.7504
 25  7 15 22 47  0.0000000  0  9G01G02G03G25G10G28G31G32G08
  -1898755.02047  -1434789.82845  22176535.9304                   22176533.1454
        46.0004         30.0004
  -1259950.46548   -961106.87946  21278940.2194                   21278935.2194
        48.7504         37.2504
  -1217251.29746  -1142157.23045  23917862.0314                   23917863.8914
        37.2504         30.0004
   -543024.66855   -803995.60253  24545516.3754                   24545518.4064
        30.5004         22.7504
   -515216.02347   -393437.93447  22164155.5864                   22164155.0744
        46.5004         42.0004
  -1364058.41847  -1040426.02046  20790531.8674                   20790529.1254
        46.7504         37.0004
  -2027208.92647  -1549095.19547  21404618.3754                   21404615.5594
        45.7504         42.5004
   -423891.95348   -323886.68047  21618013.9774                   21618013.7154
        48.7504         47.0004
   -222361.50046   -167393.14544  24594868.9304                   24594872.3754
        37.0004         28.2504
 25  7 15 22 47 30.0000000  0  9G01G02G03G25G10G28G31G32G08
   -496787.60547   -342347.67245  22443321.4384                   22443318.8954
        46.2504         31.0004
    202106.75048    178158.46546  21557160.6174                   21557155.7704
        49.7504         37.5004
    174835.87946    -57413.89544  24182768.0474                   24182769.2934
        39.0004         29.0004
    893900.01245    315685.96544  24818954.7584                   24818956.3324
        31.7504         24.5004
   1013479.93047    797753.67647  22455056.7664                   22455056.2274
        46.5004         42.0004
     88836.68847     91700.04746  21067008.4614                   21067005.8524
        46.2504         37.2504
   -636562.66847   -465474.68747  21669249.7194                   21669246.7234
        46.7504         43.5004
   1112628.47748    873401.94947  21910404.2814                   21910403.4064
        49.2504         46.7504
   1330482.13746   1042614.70744  24890365.0864                   24890369.6294
        37.5004         27.5004
 25  7 15 22 48  0.0000000  0  9G01G02G03G25G10G28G31G32G08
   -669900.44547   -477240.78945  22410378.9224                   22410376.5824
        45.5004         31.5004
     89221.91448     90196.24246  21535679.5314                   21535674.4884
        48.2504         38.0004
     -8551.12546   -200312.79344  24147870.0314                   24147871.1054
        38.0004         28.2504
    755752.87145    208038.87544  24792666.6804                   24792667.6214
        33.2504         26.2504
    966976.93847    761517.53546  22446207.1954                   22446207.3204
        46.5004         41.7504
    -33134.86347     -3342.71546  21043798.1484                   21043795.7704
        45.7504         37.0004
   -820969.34447   -609168.16847  21634158.1174                   21634155.2774
        46.2504         43.0004
   1073850.98048    843185.69547  21903025.2584                   21903024.2664
        48.7504         46.5004
   1307898.64546   1025017.05544  24886068.1414                   24886072.1804
        37.7504         27.2504
 25  7 15 22 48 30.0000000  0  9G01G02G03G25G10G28G31G32G08
   -842649.77047   -611850.62545  22377505.7114                   22377503.3594
        46.2504         31.5004
    -23165.05548      2621.96146  21514293.0084                   21514287.8094
        48.7504         38.0004
   -191970.20346   -343236.68444  24112966.7274                   24112967.6374
        37.7504         28.2504
    617976.56345    100680.76244  24766447.6954                   24766449.7854
        32.0004         25.2504
    920712.34847    725467.17247  22437403.6484                   22437403.0704
        46.5004         42.0004
   -154532.71147    -97938.43446  21020696.7424                   21020693.9734
        46.7504         37.0004
  -1004984.23847   -752556.36347  21599141.1954                   21599138.5124
        47.0004         43.2504
   1035210.85948    813076.48447  21895672.1484                   21895671.0904
        48.5004         46.5004
   1285321.44946   1007424.30144  24881772.0084                   24881775.6564
        38.0004         27.0004
 25  7 15 22 49  0.0000000  0  9G01G02G03G25G10G28G31G32G08
  -1015020.09047   -746165.15245  22344704.5474                   22344702.4494
        45.5004         31.0004
   -135040.45348    -84553.68446  21493003.4614                   21492998.8284
        49.2504         37.5004
   -375407.75446   -486174.97744  24078059.7664                   24078060.6294
        39.0004         29.7504
    480586.51645     -6376.39843  24740301.9144                   24740305.3134
        31.0004         23.5004
    874699.53547    689612.98846  22428647.5554                   22428647.3284
        46.5004         41.7504
   -275343.13747   -192076.41446  20997706.8834                   20997704.7814
        47.5004         37.0004
  -1188591.62547   -895627.00847  21564202.0164                   21564199.2584
        47.0004         43.2504
    996719.67248    783083.32047  21888347.6954                   21888346.5594
        48.0004         46.5004
   1262760.64846    989844.32844  24877479.0554                   24877482.2854
        36.7504         25.5004
 25  7 15 22 49 30.0000000  0  9G01G02G03G25G10G28G31G32G08
  -1186995.74247   -880172.12945  22311979.1174                   22311976.4344
        45.7504         31.0004
   -246390.56648   -171320.02346  21471814.2734                   21471809.3834
        48.7504         37.2504
   -558849.79346   -629116.81244  24043151.6414                   24043152.6994
        40.0004         29.7504
    343598.38745   -113120.36744  24714234.5784                   24714237.6254
        31.7504         24.7504
    828952.00847    653965.52047  22419942.5394                   22419942.0474
        46.5004         42.0004
   -395552.14547   -285745.76246  20974832.3054                   20974829.7934
        47.2504         37.2504
  -1371775.37547  -1038367.55947  21529343.1884                   21529340.7344
        47.5004         43.5004
    958389.19948    753215.39547  21881053.8914                   21881052.6764
        48.2504         46.7504
   1240226.68845    972285.23044  24873190.6254                   24873194.2584
        35.5004         25.0004
 25  7 15 22 50  0.0000000  0  9G01G02G03G25G10G28G31G32G08
  -1358564.84847  -1013862.32045  22279330.3364                   22279327.9654
        45.2504         30.7504
   -357205.32848   -257669.20346  21450727.1954                   21450722.1844
        48.7504         37.7504
   -742286.29346   -772054.32445  24008245.3674                   24008245.9064
        39.5004         30.5004
    207024.14845   -219541.79344  24688245.6174                   24688248.3524
        33.5004         26.0004
    783479.53947    618532.38747  22411289.1414                   22411289.0744
        47.5004         42.0004
   -515149.70347   -378938.66046  20952073.8984                   20952071.2274
        47.5004         37.5004
  -1554523.16847  -1180768.40647  21494567.3524                   21494564.4024
        47.7504         43.7504
    920227.38348    723478.90247  21873791.5864                   21873791.0514
        49.0004         46.7504
   1217725.96545    954752.09044  24868908.7034                   24868912.6844
        35.2504         24.2504
 25  7 15 22 50 30.0000000  0  9G01G02G03G25G10G28G31G32G08
  -1529717.72347  -1147228.17645  22246760.8444                   22246759.0864
        45.0004         30.5004
   -467476.61348   -343594.89146  21429743.1484                   21429738.0744
        49.0004         37.7504
   -925709.36746   -914981.33245  23973341.0704                   23973341.6764
        40.0004         31.5004
     70873.38745   -325633.22344  24662337.6564                   24662339.0274
        34.2504         26.7504
    738289.67247    583319.45747  22402689.9694                   22402689.2704
        46.7504         42.2504
   -634127.82447   -471648.87946  20929432.9144                   20929430.3554
        47.0004         37.5004
  -1736825.07447  -1322821.80547  21459876.6804                   21459873.4534
        47.7504         43.7504
    882240.02048    693878.34447  21866562.8594                   21866562.0704
        49.0004         46.0004
   1195263.03945    937248.37543  24864634.3364                   24864638.3014
        35.0004         22.5004
 25  7 15 22 51  0.0000000  0  9G01G02G03G25G10G28G31G32G08
  -1700443.03947  -1280260.87545  22214272.9304                   22214271.1804
        45.5004         32.0004
   -577195.06248   -429089.80946  21408864.5784                   21408859.5124
        48.0004         38.0004
  -1109109.53446  -1057890.48645  23938441.3284                   23938442.2814
        38.7504         31.7504
    -64842.61745   -431385.93044  24636511.3444                   24636513.3714
        35.5004         27.7504
    693391.58647    548333.89547  22394145.9064                   22394146.1954
        46.7504         42.2504
   -752477.07047   -563869.06246  20906911.7114                   20906908.8164
        46.5004         37.5004
  -1918669.65647  -1464518.84447  21425272.3284                   21425269.6024
        47.5004         43.5004
    844434.55548    664419.51247  21859368.8284                   21859368.1604
        48.5004         46.0004
   1172843.96545    919778.82844  24860368.4694                   24860372.1134
        33.5004         24.0004
 25  7 15 22 51 30.0000000  0  9G01G02G03G25G10G28G31G32G08
  -1870734.23847  -1412955.29745  22181867.2814                   22181865.6214
        46.0004         31.5004
   -686356.13748   -514150.39846  21388091.6094                   21388086.3754
        49.2504         38.0004
  -1292481.76246  -1200777.87545  23903545.8834                   23903547.6954
        38.7504         31.5004
   -200117.40645   -536794.76244  24610769.2194                   24610771.3134
        34.7504         25.5004
    648789.74247    513579.16047  22385658.7194                   22385658.5594
        46.5004         42.0004
   -870192.68447   -655595.51246  20884511.5004                   20884508.7974
        47.7504         37.2504
  -2100049.82448  -1605854.00447  21390757.1174                   21390754.0704
        48.0004         43.7504
    806813.66448    635104.49647  21852209.9534                   21852208.8014
        49.5004         46.2504
   1150469.89545    902344.33644  24856110.9774                   24856115.0124
        35.5004         25.7504
 25  7 15 22 52  0.0000000  0  9G01G02G03G25G10G28G31G32G08
  -2040579.23447  -1545302.02045  22149547.2504                   22149545.2274
        44.5004         30.5004
   -794949.28148   -598768.44946  21367427.2194                   21367422.0234
        48.5004         38.5004
  -1475815.90646  -1343635.61745  23868658.5784                   23868659.9414
        36.7504         31.0004
   -334938.93745   -641850.46944  24585111.7344                   24585115.6644
        31.5004         24.5004
    604494.11347    479063.03947  22377229.5864                   22377229.1214
        46.2504         42.0004
   -987264.38747   -746820.21146  20862233.1334                   20862230.4494
        47.5004         37.2504
  -2280953.03947  -1746817.50447  21356332.0314                   21356328.9694
        47.7504         44.0004
    769385.60948    605939.76247  21845087.3834                   21845086.5824
        49.0004         46.0004
   1128147.75846    884950.30944  24851863.5554                   24851867.2504
        37.5004         27.0004
 25  7 15 22 52 30.0000000  0  9G01G02G03G25G10G28G31G32G08
  -2209971.84047  -1677296.23445  22117312.8754                   22117311.0984
        45.0004         31.5004
   -902970.47348   -682940.81246  21346871.6804                   21346866.4884
        48.5004         38.0004
  -1659107.49646  -1486460.16044  23833779.0634                   23833780.9574
        37.7504         29.5004
   -469300.97346   -746548.11344  24559545.7344                   24559547.4884
        36.5004         28.7504
    560508.75047    444788.68847  22368858.9844                   22368859.1214
        46.5004         42.0004
  -1103687.82447   -837539.76246  20840078.6174                   20840075.9844
        47.5004         38.0004
  -2461372.84848  -1887404.33247  21321999.6564                   21321996.5084
        49.0004         44.0004
    732152.74248    576927.10947  21838002.0784                   21838001.7894
        48.7504         46.0004
   1105878.43446    867597.45344  24847626.1724                   24847629.9844
        37.2504         26.2504
 25  7 15 22 53  0.0000000  0  9G01G02G03G25G10G28G31G32G08
  -2378904.98047  -1808932.43745  22085165.8594                   22085163.8554
        45.2504         32.0004
  -1010414.53548   -766663.46946  21326425.5554                   21326420.7074
        48.2504         38.0004
  -1842351.10546  -1629247.32844  23798909.5474                   23798910.2894
        36.2504         29.5004
   -603196.46946   -850882.23444  24534065.0394                   24534067.5474
        36.5004         27.2504
    516838.53147    410759.89547  22360549.1254                   22360549.0744
        45.2504         42.0004
  -1219457.86747   -927750.18446  20818048.5004                   20818045.4144
        47.2504         38.0004
  -2641301.75048  -2027608.64147  21287760.1414                   21287756.9844
        48.5004         43.7504
    695118.26648    548069.05947  21830954.6724                   21830954.2464
        48.2504         45.7504
   1083663.72346    850287.16444  24843398.8984                   24843402.5944
        37.0004         27.0004
 25  7 15 22 53 30.0000000  0  9G01G02G03G25G10G28G31G32G08
  -2547366.70747  -1940201.28545  22053108.6174                   22053106.5314
        44.7504         31.2504
  -1117271.17248   -849928.39546  21306091.7974                   21306086.5554
        48.5004         37.7504
  -2025536.47746  -1771989.13344  23764049.0704                   23764050.6764
        36.0004         28.2504
   -736613.63345   -954843.60944  24508677.5314                   24508679.2194
        35.5004         26.5004
    473493.41847    376984.44147  22352300.9924                   22352300.6484
        46.2504         42.0004
  -1334564.39548  -1017443.56646  20796144.1254                   20796141.6684
        48.7504         37.5004
  -2820727.69548  -2167421.02347  21253616.2424                   21253613.5514
        48.5004         44.2504
    658290.39148    519371.98447  21823946.7664                   21823945.9494
        48.5004         45.7504
   1061510.38745    833024.69944  24839182.6724                   24839187.1604
        35.2504         26.5004
 25  7 15 22 54  0.0000000  0  9G01G02G03G25G10G28G31G32G08
  -2715347.37547  -2071095.30945  22021143.2814                   22021140.9264
        44.5004         32.0004
  -1223532.87548   -932729.73046  21285870.1334                   21285865.2974
        48.0004         37.5004
  -2208655.73445  -1914679.42244  23729204.0474                   23729204.8324
        34.0004         27.7504
   -869542.92246  -1058424.89144  24483381.9064                   24483383.3594
        36.5004         28.7504
    430480.80547    343468.06347  22344115.9614                   22344115.8364
        46.0004         42.2504
  -1448999.77348  -1106613.98446  20774367.9614                   20774365.0394
        48.0004         37.7504
  -2999640.85948  -2306833.84847  21219570.5704                   21219567.1844
        48.0004         43.7504
    621675.02748    490840.50447  21816979.1254                   21816978.0594
        49.2504         45.5004
   1039422.85245    815813.50044  24834980.1954                   24834983.8324
        34.7504         26.0004
 25  7 15 22 54 30.0000000  0  9G01G02G03G25G10G28G31G32G08
  -2882843.28947  -2201611.58245  21989269.8054                   21989267.5744
        45.0004         31.0004
  -1329197.92248  -1015066.14146  21265763.2504                   21265757.9224
        48.0004         37.7504
  -2391706.70745  -2057316.46544  23694369.7424                   23694371.5944
        33.7504         28.0004
  -1001980.71546  -1161623.18044  24458179.0474                   24458180.7344
        37.0004         27.5004
    387802.35947    310212.08647  22335994.3444                   22335994.1214
        46.2504         42.0004
  -1562762.10548  -1195259.94546  20752719.5864                   20752716.9734
        49.0004         37.5004
  -3178036.96948  -2445843.76247  21185622.3594                   21185619.5744
        48.5004         44.0004
    585271.89548    462474.39547  21810052.0164                   21810050.7774
        48.2504         45.5004
   1017399.69545    798652.47344  24830788.6644                   24830793.0704
        35.0004         25.2504
 25  7 15 22 55  0.0000000  0  9G01G02G03G25G10G28G31G32G08
  -3049851.60947  -2331747.91445  21957488.8524                   21957486.9884
        45.5004         32.2504
  -1434265.43047  -1096936.93746  21245769.5944                   21245764.7154
        47.2504         37.7504
  -2574688.26245  -2199899.41844  23659549.7114                   23659551.2154
        34.7504         27.7504
  -1133924.32845  -1264436.35544  24433070.7814                   24433073.3524
        35.5004         25.7504
    345458.76247    277217.01247  22327936.8204                   22327936.6214
        46.2504         42.0004
  -1675850.64548  -1283380.88746  20731199.7194                   20731196.7814
        48.5004         38.0004
  -3355912.88348  -2584448.33647  21151773.7814                   21151771.2034
        48.7504         44.0004
    549080.12948    434272.98847  21803164.5634                   21803164.1844
        48.0004         45.0004
    995438.39145    781539.62944  24826610.6804                   24826614.4104
        34.2504         25.0004
 25  7 15 22 55 30.0000000  0  9G01G02G03G25G10G28G31G32G08
  -3216370.87947  -2461503.18045  21925801.6724                   21925799.4964
        46.0004         31.0004
  -1538736.16047  -1178342.71546  21225889.2344                   21225884.3054
        47.5004         38.5004
  -2757600.63345  -2342428.44944  23624742.4304                   23624743.7304
        35.2504         29.0004
  -1265372.37145  -1366863.42244  24408057.8444                   24408058.9694
        35.2504         24.2504
    303449.29747    244482.32047  22319943.2664                   22319942.6054
        46.0004         42.0004
  -1788265.87948  -1370977.16446  20709807.6414                   20709805.0554
        48.5004         37.7504
  -3533266.88748  -2722646.22747  21118025.0394                   21118021.6764
        48.7504         44.0004
    513097.45348    406234.52347  21796317.4774                   21796316.9064
        48.0004         45.5004
    973535.39555    764472.18854  24822442.7504                   24822446.5634
        32.7504         24.2504
 25  7 15 22 56  0.0000000  0  9G01G02G03G25G10G28G31G32G08
  -1806972.77747  -1363270.87145  22194001.0004                   22193998.5124
        45.2504         32.0004
    -67185.26247    -31679.68746  21505915.8364                   21505911.2234
        47.5004         37.5004
  -1365016.41445  -1257297.81644  23889742.4694                   23889743.9734
        35.7504         28.2504
    179102.32445   -241298.71543  24682932.0554                   24682932.9884
        35.0004         22.7504
   1837196.11747   1439609.67246  22611805.1804                   22611804.9494
        46.2504         41.7504
   -324583.25048   -230445.23446  20988337.3284                   20988334.7584
        48.5004         37.7504
  -2134670.12548  -1632830.53547  21384168.3134                   21384165.2814
        48.2504         44.0004
   2052744.11748   1605959.17247  22089303.0634                   22089302.1564
        48.5004         45.7504
   2527108.96145   1975048.83244  25118077.6174                   25118081.6414
        34.5004         25.2504
 25  7 15 22 56 30.0000000  0  9G01G02G03G25G10G28G31G32G08
  -1972506.93447  -1492258.51645  22162500.4384                   22162498.5274
        45.0004         31.7504
   -170460.43448   -112153.85946  21486263.5314                   21486258.6914
        48.2504         37.7504
  -1547788.02746  -1399717.20744  23854962.2504                   23854963.4304
        36.2504         28.0004
     48652.23445   -342948.16043  24658108.3984                   24658110.0514
        33.7504         22.7504
   1795855.65647   1407396.28546  22603938.5554                   22603938.1804
        45.7504         41.7504
   -435650.82048   -316991.38346  20967201.7114                   20967199.0204
        48.2504         38.0004
  -2310972.51248  -1770208.99247  21350619.5164                   21350616.4144
        48.2504         44.0004
   2017175.45348   1578243.30147  22082534.2344                   22082533.5904
        49.0004         45.7504
   2505313.94945   1958065.53944  25113930.2504                   25113934.8594
        33.2504         24.5004
 25  7 15 22 57  0.0000000  0  9G01G02G03G25G10G28G31G32G08
  -2137543.49247  -1620858.40245  22131095.4064                   22131093.3054
        44.5004         31.5004
   -273135.92247   -192160.74646  21466724.9614                   21466720.1454
        47.2504         37.7504
  -1730486.64846  -1542079.68745  23820195.5164                   23820196.9964
        36.5004         30.0004
    -81293.98845   -444205.02743  24633380.2504                   24633382.2194
        32.7504         22.5004
   1754851.62147   1375445.05546  22596135.4304                   22596135.7194
        45.0004         41.5004
   -546042.49248   -403010.85546  20946195.1254                   20946192.3014
        48.0004         37.7504
  -2486743.69948  -1907173.51647  21317170.9844                   21317167.9264
        48.5004         44.2504
   1981813.26648   1550688.33247  22075804.9144                   22075803.8094
        48.5004         45.5004
   2483570.32045   1941122.27344  25109793.1724                   25109797.3244
        34.0004         26.7504
 25  7 15 22 57 30.0000000  0  9G01G02G03G25G10G28G31G32G08
  -2302079.58247  -1749068.33245  22099785.1414                   22099782.5744
        44.5004         31.5004
   -375211.05147   -271699.82046  21447300.9224                   21447295.8364
        47.2504         37.5004
  -1913110.88346  -1684384.23045  23785443.9924                   23785444.2544
        38.5004         30.0004
   -210733.60245   -545067.08643  24608748.1884                   24608750.2624
        33.7504         22.2504
   1714184.68847   1343756.49646  22588396.9224                   22588396.8714
        45.2504         41.5004
   -655757.49648   -488503.05546  20925317.0704                   20925313.8914
        48.2504         38.0004
  -2661980.28948  -2043721.47347  21283824.5704                   21283821.3834
        49.0004         44.2504
   1946656.76248   1523293.61747  22069115.0234                   22069113.8834
        48.0004         45.0004
   2461875.86745   1924217.32844  25105665.4774                   25105669.0354
        33.2504         26.2504
 25  7 15 22 58  0.0000000  0 10G01G02G03G25G10G28G31G32G04G08
  -2466113.21947  -1876886.73845  22068570.2664                   22068567.7814
        44.5004         31.2504
   -476685.64847   -350770.94146  21427990.7584                   21427985.6414
        47.7504         38.0004
  -2095660.41446  -1826630.55945  23750705.7584                   23750706.1454
        39.0004         31.0004
   -339664.91445   -645532.98043  24584212.8754                   24584215.3524
        32.2504         21.7504
   1673854.77047   1312330.54746  22580722.5234                   22580722.3404
        45.0004         41.2504
   -764795.91448   -573468.05546  20904567.4384                   20904564.8554
        48.0004         37.5004
  -2836679.91048  -2179851.01247  21250580.6724                   21250577.6564
        48.5004         44.2504
   1911704.16847   1496057.81647  22062463.8914                   22062462.8444
        47.5004         45.5004
   2955100.11315                  25179405.422
        33.750
   2440227.20345   1907348.05544  25101545.2734                   25101549.6684
        32.5004         26.2504
 25  7 15 22 58 30.0000000  0 10G01G02G03G25G10G28G31G32G04G08
  -2629641.34847  -2004311.23845  22037451.8204                   22037449.6174
        44.5004         31.7504
   -577558.82847   -429373.43446  21408795.2814                   21408789.9454
        47.5004         38.0004
  -2278133.64846  -1968817.41045  23715982.4694                   23715983.0554
        38.0004         30.7504
   -468084.91445   -745600.57443  24559776.1954                   24559778.7074
        34.0004         22.5004
   1633862.73847   1281167.89846  22573112.1414                   22573112.0164
        45.5004         41.5004
   -873156.76248   -657905.07846  20883947.1804                   20883944.3364
        48.7504         38.0004
  -3010839.71548  -2315559.92247  21217438.8364                   21217435.9804
        48.5004         44.5004
   1876954.96148   1468980.49247  22055851.1724                   22055850.4064
        49.0004         45.7504
   2775194.105 5                  25145169.922
        32.250
   2418622.60545   1890513.10544  25097434.5004                   25097438.7074
        32.0004         25.7504
 25  7 15 22 59  0.0000000  0 10G01G02G03G25G10G28G31G32G04G08
  -2792667.68447  -2131344.73045  22006429.4774                   22006426.5314
        44.2504         32.2504
   -677836.35247   -507511.77746  21389713.3444                   21389708.1954
        47.7504         37.5004
  -2460535.81646  -2110948.91845  23681271.7664                   23681272.2274
        40.0004         31.5004
   -595997.41045   -845272.66043  24535435.9224                   24535437.0704
        33.0004         22.0004
   1594202.83647   1250264.04346  22565565.3204                   22565565.4224
        44.7504         41.5004
   -980845.85548   -741818.64546  20863454.2194                   20863451.7154
        48.0004         37.5004
  -3184463.08648  -2450850.82047  21184399.6724                   21184396.3054
        49.2504         44.2504
   1842401.74648   1442055.88747  22049275.9384                   22049275.4924
        49.0004         46.0004
   2595483.719 5                  25110972.195
        34.000
   2397052.97345   1873705.45344  25093329.9064                   25093334.5004
        33.5004         25.5004
 25  7 15 22 59 30.0000000  0 10G01G02G03G25G10G28G31G32G04G08
  -2955187.84047  -2257983.80545  21975502.6724                   21975500.2504
        44.7504         31.5004
   -777515.75848   -585184.05546  21370744.8594                   21370739.4964
        48.2504         37.5004
  -2642864.00446  -2253022.77045  23646575.6094                   23646576.4884
        38.7504         32.0004
   -723398.27045   -944546.09443  24511191.9454                   24511192.8014
        33.0004         22.0004
   1554877.25447   1219620.69546  22558081.7734                   22558082.1174
        45.0004         41.5004
  -1087860.94148   -825207.02346  20843090.1884                   20843087.6684
        49.0004         38.0004
  -3357545.19948  -2585719.97347  21151463.0554                   21151459.7854
        49.5004         44.5004
   1808045.23048   1415284.55147  22042738.1334                   22042737.2114
        48.0004         45.2504
   2415971.328 5                  25076811.641
        35.500
   2375517.86745   1856924.67644  25089231.3984                   25089235.8714
        33.5004         25.2504
 25  7 15 23  0  0.0000000  0 10G01G02G03G25G10G28G31G32G04G08
  -3117196.41447  -2384224.23445  21944673.7504                   21944671.3164
        44.2504         32.2504
   -876593.65648   -662387.62546  21351890.9614                   21351886.2074
        48.0004         38.0004
  -2825114.34046  -2395035.96145  23611894.4694                   23611895.6174
        40.2504         33.5004
   -850282.23445  -1043416.70743  24487047.6094                   24487047.7814
        34.0004         22.2504
   1515889.43847   1189240.55546  22550663.0704                   22550662.9024
        45.0004         41.2504
  -1194198.68748   -908067.59846  20822855.1644                   20822851.9144
        48.2504         37.7504
  -3530080.29348  -2720162.86747  21118630.9384                   21118627.7234
        49.0004         44.5004
   1773887.32448   1388667.98847  22036238.1954                   22036236.4924
        48.0004         45.0004
   2236660.602 6                  25042690.102
        36.000
   2354017.60945   1840171.05944  25085141.2504                   25085145.1884
        35.5004         27.2504
 25  7 15 23  0 30.0000000  0 10G01G02G03G25G10G28G31G32G04G08
  -3278688.49247  -2510062.19945  21913942.2814                   21913940.1334
        44.7504         32.2504
   -975067.48047   -739120.48846  21333151.9454                   21333146.6914
        47.2504         38.0004
  -3007283.29746  -2536985.73045  23577229.6644                   23577230.1764
        40.0004         34.5004
   -976644.54745  -1141880.85943  24463000.4064                   24463002.0824
        34.0004         22.5004
   1477242.03147   1159125.64846  22543308.4144                   22543308.8164
        44.2504         40.7504
  -1299856.37948   -990398.26246  20802748.9144                   20802746.2384
        48.2504         37.5004
  -3702063.21948  -2854175.49647  21085903.4064                   21085900.4224
        49.0004         44.7504
   1739929.24248   1362207.12147  22029776.2504                   22029775.4024
        48.2504         45.2504
   2057554.449 6                  25008607.570
        36.750
   2332551.98045   1823444.43044  25081055.4144                   25081060.6954
        35.7504         28.0004
 25  7 15 23  1  0.0000000  0 10G01G02G03G25G10G28G31G32G04G08
  -3439661.65247  -2635495.82445  21883310.5634                   21883308.2584
        44.5004         32.2504
  -1072936.97347   -815382.44546  21314528.3444                   21314523.1214
        46.2504         38.0004
  -3189369.91446  -2678871.35545  23542579.3054                   23542580.0664
        39.7504         33.7504
  -1102483.02745  -1239936.78544  24439054.9694                   24439056.1054
        33.7504         25.2504
   1438935.44547   1129276.34846  22536018.9224                   22536019.1374
        44.5004         40.5004
  -1404833.78148  -1072198.83646  20782772.4384                   20782769.5394
        48.0004         37.7504
  -3873491.56648  -2987755.99247  21053282.0784                   21053278.5204
        49.7504         44.5004
   1706169.82447   1335901.04747  22023351.9534                   22023351.5354
        47.5004         45.7504
   1878653.422 6                  24974564.594
        38.250
   2311118.46946   1806742.82444  25076978.0704                   25076981.8914
        37.7504         27.5004
 25  7 15 23  1 30.0000000  0 10G01G02G03G25G10G28G31G32G04G08
  -3600108.16047  -2760519.06645  21852778.4534                   21852775.9344
        44.5004         32.0004
  -1170196.02347   -891168.73446  21296020.0634                   21296014.8914
        46.5004         37.0004
  -3371367.86746  -2820687.88345  23507945.9774                   23507947.1454
        39.2504         35.0004
  -1227790.09845  -1337578.65644  24415208.7974                   24415211.6644
        35.5004         27.2504
   1400975.31347   1099696.98046  22528795.4774                   22528795.3204
        44.2504         40.2504
  -1509125.24248  -1153464.89846  20762926.0084                   20762923.4964
        48.0004         38.2504
  -4044357.22348  -3120898.03547  21020767.4694                   21020763.6374
        49.2504         44.7504
   1672613.33247   1309753.10947  22016966.5084                   22016965.9694
        47.2504         45.5004
   1699963.30146   2397669.06352  24940560.6094                   24940563.2974
        37.0004         14.7504
   2289719.74646   1790068.31644  25072904.9694                   25072910.1024
        38.2504         28.0004
 25  7 15 23  2  0.0000000  0 10G01G02G03G25G10G28G31G32G04G08
  -3760029.03147  -2885132.71545  21822346.9384                   21822344.0434
        45.2504         32.5004
  -1266848.15647   -966482.09846  21277628.1484                   21277623.2304
        47.0004         37.0004
  -3553279.60246  -2962437.21945  23473329.6884                   23473330.2034
        39.0004         34.0004
  -1352566.84046  -1434807.28144  24391464.9534                   24391467.6174
        37.0004         28.7504
   1363358.44147   1070385.09846  22521637.0704                   22521637.2894
        44.2504         40.0004
  -1612734.05947  -1234199.03946  20743210.1564                   20743207.3954
        47.7504         38.2504
  -4214660.94548  -3253602.20347  20988359.4064                   20988356.1844
        48.7504         45.0004
   1639255.14147   1283759.69147  22010618.4384                   22010618.2424
        47.0004         45.5004
   1521481.14146   2258592.23442  24906596.1644                   24906599.3134
        37.7504         15.5004
   2268349.92246   1773416.32844  25068839.0164                   25068843.6954
        37.7504         29.5004
 25  7 15 23  2 30.0000000  0 10G01G02G03G25G10G28G31G32G04G08
  -3919419.04347  -3009332.70345  21792015.7274                   21792012.9924
        45.0004         31.7504
  -1362890.12547  -1041320.01246  21259351.7974                   21259346.8134
        47.5004         37.5004
  -3735101.16446  -3104116.30545  23438730.2664                   23438730.5354
        40.0004         33.0004
  -1476808.44146  -1531618.91444  24367823.1724                   24367825.0314
        36.5004         28.2504
   1326088.09447   1041343.23046  22514544.6564                   22514544.9734
        44.0004         40.2504
  -1715657.19148  -1314398.87946  20723625.0004                   20723621.9264
        48.0004         38.0004
  -4384397.30548  -3385864.27047  20956059.4924                   20956056.0124
        49.0004         45.0004
   1606096.98447   1257922.14547  22004308.6254                   22004307.7114
        47.0004         45.2504
   1343210.35946   2119680.12942  24872672.2274                   24872675.4344
        38.2504         17.2504
   2247009.19946   1756787.01644  25064778.6804                   25064783.1414
        38.7504         29.2504
 25  7 15 23  3  0.0000000  0 10G01G02G03G25G10G28G31G32G04G08
  -4078275.13747  -3133116.66045  21761786.3284                   21761783.7814
        45.2504         32.2504
  -1458321.05147  -1115681.78546  21241191.8204                   21241186.9454
        46.2504         37.7504
  -3916830.97746  -3245723.89545  23404148.0164                   23404148.8714
        38.5004         33.2504
  -1600511.99246  -1628011.23844  24344283.0784                   24344284.5634
        37.0004         28.2504
   1289165.12547   1012572.04746  22507518.5864                   22507518.7074
        43.5004         39.7504
  -1817893.82448  -1394063.78146  20704169.6644                   20704167.0204
        48.0004         38.0004
  -4553562.90648  -3517681.59447  20923868.2584                   20923865.1884
        49.5004         44.7504
   1573138.39847   1232240.10547  21998036.7894                   21998035.9964
        47.2504         45.0004
   1165152.00446   1980933.52342  24838788.0784                   24838791.2384
        38.0004         16.7504
   2225695.62146   1740178.87944  25060722.8134                   25060727.3874
        38.5004         28.7504
 25  7 15 23  3 30.0000000  0 10G01G02G03G25G10G28G31G32G04G08
  -4236596.59847  -3256484.02045  21731658.5864                   21731656.3524
        44.2504         33.0004
  -1553142.57447  -1189568.70746  21223147.9534                   21223142.6724
        46.7504         37.2504
  -4098469.59846  -3387260.43045  23369582.8444                   23369583.8984
        38.0004         33.0004
  -1723676.97346  -1723983.90244  24320845.7274                   24320846.8094
        37.0004         28.0004
   1252588.18047    984070.49246  22500558.3054                   22500558.5984
        44.0004         40.2504
  -1919445.49247  -1473194.94546  20684845.0234                   20684842.4734
        47.5004         37.7504
  -4722156.78148  -3649053.41447  20891786.1254                   20891782.6174
        48.7504         45.5004
   1540376.55948   1206711.36347  21991802.7974                   21991801.3164
        48.5004         45.0004
    987304.96546   1842351.56342  24804945.3134                   24804949.1374
        36.7504         15.5004
   2204405.01646   1723588.64844  25056670.7034                   25056676.0394
        38.5004         28.0004
 25  7 15 23  4  0.0000000  0 10G01G02G03G25G10G28G31G32G04G08
  -2818954.41047  -2151827.75845  22001426.8914                   22001425.0354
        43.7504         32.5004
    -71929.93447    -35377.04346  21505013.4304                   21505008.5354
        46.2504         37.0004
  -2704588.49646  -2301119.23845  23634829.2974                   23634830.5704
        37.0004         32.2504
   -270875.87145   -591931.08644  24597303.7584                   24597305.4454
        35.2504         25.5004
   2791780.18047   2183440.84846  22793457.1884                   22793456.8134
        43.2504         39.7504
   -444887.32048   -324188.56646  20965444.0314                   20965441.6174
        48.0004         38.0004
  -3314749.77048  -2552372.59447  21159606.6414                   21159603.3014
        49.0004         45.0004
   3083232.92647   2408937.07047  22285398.3204                   22285397.8054
        47.0004         45.2504
   2385096.98046   2931540.23442  25070936.1884                   25070939.0004
        36.2504         17.7504
   3758556.95746   2934615.99244  25352416.5314                   25352421.6214
        39.2504         29.2504
 25  7 15 23  4 30.0000000  0 10G01G02G03G25G10G28G31G32G04G08
  -2976195.29347  -2274353.10245  21971504.7344                   21971502.7504
        43.5004         32.0004
   -165527.59848   -108310.30546  21487202.0944                   21487197.4654
        48.0004         37.2504
  -2886037.36346  -2442507.90645  23600301.0164                   23600301.5514
        37.5004         31.0004
   -392953.17646   -687056.25444  24574073.8674                   24574075.2734
        36.7504         25.5004
   2755900.41847   2155482.55146  22786629.3674                   22786629.5984
        45.0004         39.7504
   -545064.49648   -402248.70346  20946380.9144                   20946378.0554
        48.0004         38.0004
  -3482188.69548  -2682844.44547  21127743.8364                   21127740.6294
        49.5004         45.2504
   3050865.65247   2383715.80147  22279238.8594                   22279238.7234
        47.0004         45.2504
   2207678.21146   2793291.97743  25037174.5394                   25037176.7274
        37.2504         18.5004
   3737308.94546   2918058.94944  25348372.9064                   25348377.9804
        39.2504         27.7504
 25  7 15 23  5  0.0000000  0 10G01G02G03G25G10G28G31G32G04G08
  -3132891.87947  -2396454.32045  21941686.1884                   21941684.3914
        43.5004         32.5004
   -258512.41048   -180766.01646  21469508.2814                   21469502.6994
        48.0004         37.5004
  -3067389.19946  -2583820.95745  23565790.6334                   23565792.0434
        37.7504         31.0004
   -514483.05546   -781754.85944  24550946.6094                   24550949.0554
        36.5004         24.7504
   2720370.14847   2127796.59046  22779867.5864                   22779867.8794
        43.5004         39.2504
   -644553.85547   -479772.87546  20927448.6724                   20927446.1134
        47.5004         38.0004
  -3649045.63348  -2812862.80947  21095991.8834                   21095989.0084
        49.0004         45.0004
   3018694.49247   2358647.35247  22273117.4144                   22273116.8444
        47.7504         45.5004
   2030474.77346   2655211.55543  25003453.6024                   25003456.6724
        36.2504         18.2504
   3716078.91446   2901515.94144  25344333.6644                   25344338.2814
        39.0004         27.0004
 25  7 15 23  5 30.0000000  0 10G01G02G03G25G10G28G31G32G04G08
  -3289039.57847  -2518127.83645  21911972.5944                   21911970.1254
        43.7504         32.0004
   -350882.10247   -252742.41446  21451930.3524                   21451925.5204
        46.2504         37.5004
  -3248640.78946  -2725055.90645  23531300.1334                   23531300.6604
        38.0004         32.0004
   -635461.04746   -876023.38744  24527926.5164                   24527927.6724
        36.0004         26.2504
   2685191.79347   2100384.83646  22773173.8674                   22773173.9064
        43.2504         39.5004
   -743353.13347   -556759.32046  20908647.7274                   20908645.4454
        46.5004         37.7504
  -3815315.89148  -2942424.02047  21064352.1724                   21064349.0434
        49.0004         45.2504
   2986720.62547   2333732.62547  22267032.6414                   22267031.6054
        47.7504         45.0004
   1853489.34845   2517300.97343  24969773.5004                   24969776.7304
        35.7504         18.2504
   3694866.53146   2884986.67644  25340296.9064                   25340302.1374
        38.5004         27.2504
 25  7 15 23  6  0.0000000  0 10G01G02G03G25G10G28G31G32G04G08
  -3444638.59047  -2639373.79345  21882362.9454                   21882360.9844
        43.7504         33.0004
   -442639.06647   -324241.36346  21434470.1334                   21434464.7854
        46.5004         37.5004
  -3429793.41846  -2866213.73445  23496828.0314                   23496828.4654
        39.5004         32.5004
   -755887.58245   -969862.25444  24505009.0164                   24505011.0354
        35.7504         25.0004
   2650363.21147   2073245.63346  22766546.0394                   22766546.2384
        43.0004         39.7504
   -841464.78947   -633209.95746  20889977.9774                   20889974.9144
        47.5004         38.2504
  -3980999.44948  -3071528.05947  21032823.4614                   21032820.0984
        49.0004         45.5004
   2954940.46147   2308968.82847  22260985.4384                   22260983.7854
        46.5004         44.5004
   1676719.96146   2379558.67243  24936135.2814                   24936138.8834
        37.2504         19.5004
   3673666.87946   2868467.30944  25336262.6094                   25336267.3594
        38.7504         25.5004
 25  7 15 23  6 30.0000000  0 10G01G02G03G25G10G28G31G32G04G08
  -3599687.42647  -2760191.05545  21852858.4064                   21852856.5124
        44.5004         32.2504
   -533784.12147   -395263.49646  21417125.5394                   21417120.4494
        46.7504         37.5004
  -3610846.99246  -3007294.37145  23462373.9064                   23462375.0704
        38.5004         32.5004
   -875761.62545  -1063270.56244  24482198.3284                   24482199.9344
        35.7504         26.0004
   2615883.68447   2046378.42246  22759985.0474                   22759984.9614
        44.5004         39.2504
   -938889.75047   -709125.50846  20871438.6564                   20871435.8244
        47.7504         38.0004
  -4146094.68048  -3200173.66047  21001406.8054                   21001403.5434
        49.5004         45.7504
   2923352.04747   2284354.45747  22254973.9384                   22254973.3404
        47.5004         44.5004
   1500166.10946   2241984.35943  24902539.0554                   24902541.0044
        37.7504         18.2504
   3652476.43846   2851955.12544  25332231.0944                   25332234.9844
        38.7504         25.2504
 25  7 15 23  7  0.0000000  0 10G01G02G03G25G10G28G31G32G04G08
  -3754182.84847  -2880577.07445  21823459.0164                   21823456.0594
        44.7504         32.2504
   -624316.05547   -465807.87146  21399897.7344                   21399892.7074
        47.5004         37.0004
  -3791799.30546  -3148296.10545  23427939.9064                   23427940.9694
        39.2504         32.5004
   -995079.98446  -1156245.89143  24459492.2504                   24459493.9734
        37.0004         23.7504
   2581754.52047   2019784.21146  22753490.6024                   22753490.9024
        44.0004         39.2504
  -1035627.05547   -784505.21546  20853029.8674                   20853027.3674
        47.7504         38.5004
  -4310598.07448  -3328358.09847  20970102.6954                   20970099.3674
        49.5004         45.5004
   2891955.39547   2259889.51247  22248999.5634                   22248998.9694
        46.7504         44.5004
   1323829.25445   2104579.15642  24868981.8984                   24868985.8484
        35.7504         17.7504
   3631293.82046   2835449.03143  25328199.1254                   25328204.4614
        36.7504         22.5004
 25  7 15 23  7 30.0000000  0 10G01G02G03G25G10G28G31G32G04G08
  -3908120.51247  -3000528.48445  21794165.2034                   21794162.8164
        44.2504         32.5004
   -714232.89848   -535872.96146  21382787.4534                   21382782.3714
        48.0004         37.5004
  -3972647.32046  -3289216.59045  23393526.2974                   23393526.5044
        39.5004         31.5004
  -1113838.74646  -1248785.14144  24436893.7194                   24436894.6414
        37.2504         25.0004
   2547977.87147   1993464.69946  22747063.0554                   22747062.7624
        43.2504         39.2504
  -1131674.77347   -859347.59846  20834752.7894                   20834750.2114
        46.5004         38.2504
  -4474505.31648  -3456077.98447  20938912.0314                   20938908.9064
        49.5004         45.5004
   2860751.38747   2235574.68447  22243061.5944                   22243061.1214
        46.0004         44.5004
   1147711.87546   1967344.94143  24835468.2974                   24835470.6644
        36.7504         18.5004
   3610118.39846   2818948.52343  25324170.5554                   25324175.1804
        37.0004         23.0004
 25  7 15 23  8  0.0000000  0 10G01G02G03G25G10G28G31G32G04G08
  -4061502.14847  -3120046.63345  21764978.1484                   21764975.0744
        44.2504         32.5004
   -803538.78147   -605461.97346  21365792.8594                   21365787.8714
        47.5004         37.5004
  -4153393.79746  -3430057.94945  23359131.7664                   23359131.2504
        39.7504         32.0004
  -1232039.88746  -1340889.89544  24414401.0234                   24414401.5044
        38.0004         26.0004
   2514550.09847   1967417.03146  22740702.0234                   22740702.3834
        43.7504         39.7504
  -1227036.93447   -933655.77046  20816605.6174                   20816603.0514
        47.0004         38.0004
  -4637817.97748  -3583334.57447  20907834.8364                   20907831.8714
        49.2504         45.5004
   2829735.07047   2211406.10547  22237159.4454                   22237158.6994
        46.2504         44.0004
    971810.46946   1830278.98443  24801995.5004                   24801997.8014
        37.0004         19.7504
   3588943.87146   2802448.69943  25320141.3834                   25320145.7384
        36.5004         22.5004
 25  7 15 23  8 30.0000000  0 11G01G02G03G25G10G28G31G32G04G26G08
  -4214325.02347  -3239129.37945  21735896.7424                   21735894.0084
        44.2504         32.2504
   -892232.92647   -674574.30946  21348914.8364                   21348910.2424
        47.2504         37.0004
  -4334037.12146  -3570818.94145  23324755.9534                   23324756.3444
        39.5004         31.0004
  -1349680.94946  -1432558.23044  24392014.9774                   24392015.9964
        38.7504         26.7504
   2481471.78547   1941641.66446  22734407.6334                   22734407.6994
        44.5004         39.0004
  -1321713.27047  -1007429.53546  20798589.6724                   20798586.9414
        47.2504         37.5004
  -4800533.02748  -3710125.49647  20876871.5234                   20876867.9184
        49.0004         45.5004
   2798905.82447   2187383.30147  22231292.8054                   22231291.7344
        46.7504         43.7504
    796125.85546   1693381.99643  24768564.2504                   24768566.0634
        36.7504         18.5004
   4517763.38755   3564216.16054  25170392.9224                   25170398.4224
        33.5004         25.0004
   3567768.06646   2785947.91043  25316112.6254                   25316115.9774
        37.5004         21.0004
 25  7 15 23  9  0.0000000  0 11G01G02G03G25G10G28G31G32G04G26G08
  -4366591.22747  -3357778.35245  21706921.6804                   21706918.4224
        44.5004         32.0004
   -980320.03147   -743213.62946  21332152.5164                   21332147.8444
        47.7504         37.5004
