     2.11           OBSERVATION DATA    G (GPS)             RINEX VERSION / TYPE
teqc  2019Feb25     K Rivera            20250728 19:48:41UTCPGM / RUN BY / DATE
Linux 2.6.32-573.12.1.x86_64|x86_64|gcc -static|Linux 64|=+ COMMENT
teqc  2019Feb25                         20250728 19:46:53UTCCOMMENT
BIT 2 OF LLI FLAGS DATA COLLECTED UNDER A/S CONDITION       COMMENT
HECT                                                        MARKER NAME
                                                            MARKER NUMBER
K Baraggiotta, K RivUniversity of California, Riverside     OBSERVER / AGENCY
0220340422          TRIMBLE 5700        2.32                REC # / TYPE / VERS
60179255            TRM41249.00                             ANT # / TYPE
 -2333615.6799 -4696775.2857  3618643.5689                  APPROX POSITION XYZ
        1.0801        0.0000        0.0000                  ANTENNA: DELTA H/E/N
     1     1                                                WAVELENGTH FACT L1/2
     7    L1    L2    C1    P1    P2    S1    S2            # / TYPES OF OBSERV
    18                                                      LEAP SECONDS
 SNR is mapped to RINEX snr flag value [0-9]                COMMENT
  L1 & L2: min(max(int(snr_dBHz/6), 0), 9)                  COMMENT
  2025     7    16     0     0   30.0000000     GPS         TIME OF FIRST OBS
                                                            END OF HEADER
 25  7 16  0  0 30.0000000  0  5G01G02G10G28G31
     -9504.11357     -6377.92655  21118527.8674                   21118526.5784
        46.2504         34.7504
     74583.85557     50544.77055  21957419.0784                   21957416.0904
        46.2504         34.7504
    123048.85956     71144.85555  24138304.4534                   24138307.7034
        39.5004         32.0004
     79162.89557     51450.69955  21330747.2504                   21330745.7194
        45.7504         35.0004
    -18182.04758    -11740.30558  20071291.4384                   20071289.4144
        48.0004         48.2504
 25  7 16  0  1  0.0000000  0 10G01G02G32G10G03G04G28G31G26G25
    -15139.44147    -10769.10245  21117455.4844                   21117454.3164
        46.0004         34.5004
    125314.08647     90074.76245  21967072.6724                   21967069.4694
        46.2504         34.7504
     88596.40657     54287.80956  23506906.2734                   23506908.6524
        42.5004         36.7504
    205679.93446    135532.59445  24154027.6724                   24154032.2854
        37.5004         31.7504
   -106255.09057    -75050.95757  21655099.0164                   21655100.4924
        46.5004         42.0004
    -98812.46956    -50831.18754  23284749.4144                   23284751.0594
        40.0004         25.5004
    130853.32447     91728.93845  21340583.5164                   21340581.8954
        46.0004         35.0004
    -29271.74648    -20381.62948  20069181.4144                   20069179.4184
        49.0004         48.5004
   -126848.81256    -65672.09455  23329152.0634                   23329155.7854
        39.7504         33.2504
     35849.12556     21485.20354  24417347.4454                   24417349.1804
        36.5004         26.5004
 25  7 16  0  1 30.0000000  0 10G01G02G32G10G03G04G28G31G26G25
    -20215.58247    -14724.56245  21116489.6414                   21116488.6484
        46.2504         35.0004
    176408.05547    129888.18445  21976795.5704                   21976792.1374
        46.2504         34.0004
    152293.98447    103922.20746  23519027.6334                   23519029.4844
        43.0004         36.2504
    288501.52746    200068.73844  24169789.2504                   24169792.4614
        39.2504         29.2504
   -188645.59847   -139251.32047  21639420.6644                   21639421.8244
        47.0004         42.2504
   -170646.59446   -106805.77344  23271079.8364                   23271081.4654
        39.7504         25.2504
    182956.12547    132328.50445  21350498.2814                   21350497.1174
        46.5004         35.0004
    -39771.83648    -28563.52048  20067183.4614                   20067181.3404
        49.5004         48.5004
   -218329.12945   -136955.34844  23311743.1254                   23311747.7194
        34.7504         26.2504
     64291.27746     43647.75443  24422759.7894                   24422763.5664
        36.5004         22.5004
 25  7 16  0  2  0.0000000  0 10G01G02G32G10G03G04G28G31G26G25
    -24697.23047    -18216.77045  21115636.8134                   21115636.0354
        46.5004         34.7504
    227898.27347    170010.39545  21986594.2664                   21986590.9534
        46.2504         33.2504
    216016.92647    153576.41046  23531154.0314                   23531155.9184
        43.5004         37.0004
    371548.05146    264780.22744  24185591.6254                   24185595.5394
        37.5004         28.0004
   -270856.02747   -203311.36347  21623776.3674                   21623777.7734
        46.7504         43.0004
   -242348.32846   -162677.15643  23257435.3754                   23257436.7624
        39.2504         22.5004
    235504.37547    173275.14846  21360498.1414                   21360497.0124
        46.5004         36.2504
    -49647.44948    -36258.80948  20065303.9774                   20065302.0664
        48.5004         48.5004
                                  23294364.6254                   23294368.5704
        28.2504         22.5004
     93273.18045     66231.13344  24428275.5704                   24428279.0744
        34.7504         27.7504
 25  7 16  0  2 30.0000000  0 10G01G02G32G10G03G04G28G31G26G25
    -28572.73447    -21236.65245  21114899.3444                   21114898.1094
        46.2504         34.5004
    279794.74247    210449.14545  21996469.4924                   21996466.8594
        46.7504         34.0004
    279776.74647    203259.36346  23543287.0864                   23543288.3364
        43.7504         37.2504
    454830.56346    329675.62945  24201439.7664                   24201444.0634
        37.5004         31.2504
   -352872.53547   -267220.34047  21608169.5234                   21608170.5824
        46.5004         42.5004
   -313905.99246   -218436.33243  23243818.1414                   23243820.1804
        38.7504         22.0004
    288507.52047    214576.30145  21370584.3674                   21370583.2504
        46.5004         34.7504
    -58886.96148    -43458.44148  20063545.9304                   20063544.0514
        49.0004         48.2504
   -400809.16046   -279147.45345  23277018.7894                   23277021.9304
        40.5004         33.5004
    122805.87555     89243.67653  24433894.2664                   24433895.6174
        35.7504         22.5004
 25  7 16  0  3  0.0000000  0 10G01G02G32G10G03G04G28G31G26G25
    -31840.30947    -23782.83245  21114277.4534                   21114276.2504
        46.0004         34.7504
    332097.17647    251204.23445  22006422.4064                   22006419.4924
        46.7504         34.5004
    343575.05547    252972.27346  23555427.1174                   23555429.3674
        43.2504         36.7504
    538349.77746    394755.37144  24217334.5784                   24217337.1374
        38.5004         29.2504
   -434691.22747   -330975.14547  21592599.9774                   21592600.9064
        46.2504         42.5004
   -385317.86746   -274081.87943  23230228.8674                   23230230.5314
        39.5004         22.7504
    341965.11347    256231.54345  21380756.6094                   21380755.8014
        46.0004         35.5004
    -67489.09048    -50161.39848  20061909.0234                   20061907.1094
        48.5004         48.5004
   -491788.80546   -350040.57445  23259705.4064                   23259708.9654
        39.2504         32.2504
    152890.53546    112686.19143  24439620.2344                   24439621.6994
        37.0004         23.0004
 25  7 16  0  3 30.0000000  0 10G01G02G32G10G03G04G28G31G26G25
    -34501.90247    -25856.82045  21113771.1724                   21113770.1994
        47.7504         34.5004
    384801.60947    292272.57845  22016451.6334                   22016448.5744
        46.2504         35.0004
    407409.83247    302713.62145  23567574.9454                   23567575.9614
        44.2504         35.5004
    622103.21946    460017.68845  24233271.6804                   24233275.0704
        37.2504         30.0004
   -516311.78147   -394575.54747  21577067.5554                   21577068.6564
        46.5004         42.7504
   -456585.89146   -329615.32444  23216667.1954                   23216668.7854
        41.0004         24.5004
    395873.18047    298237.80545  21391015.2734                   21391014.0514
        46.0004         35.0004
    -75456.13348    -56369.48448  20060392.6564                   20060390.2504
        48.0004         48.5004
   -582591.67346   -420795.97445  23242426.5554                   23242430.0124
        38.5004         32.2504
    183524.66445    136556.84044  24445449.3204                   24445452.5274
        35.5004         25.7504
 25  7 16  0  4  0.0000000  0 10G01G02G32G10G03G04G28G31G26G25
    -36557.71147    -27458.76245  21113379.7814                   21113378.8914
        46.0004         34.7504
    437905.76647    333652.37945  22026557.3134                   22026554.3634
        46.0004         34.5004
    471280.81347    352483.16445  23579728.7584                   23579730.3324
        43.7504         35.2504
    706089.94945    525461.78544  24249252.5234                   24249257.1954
        35.7504         28.2504
   -597732.16447   -458019.98047  21561574.0474                   21561575.2544
        47.0004         42.5004
   -527710.12546   -385036.72343  23203132.5704                   23203134.0164
        41.0004         23.2504
    450229.35947    340593.25046  21401358.4304                   21401357.5314
        46.2504         36.0004
    -82788.20748    -62082.78548  20058997.5314                   20058995.4734
        48.5004         48.5004
   -673214.55946   -491411.12145  23225181.0554                   23225185.1604
        39.7504         33.0004
    214707.49245    160855.11743  24451383.6804                   24451384.4734
        35.2504         22.0004
 25  7 16  0  4 30.0000000  0 10G01G02G32G10G03G04G28G31G26G25
    -38007.11747    -28588.19545  21113103.9774                   21113103.2854
        47.2504         34.7504
    491408.50047    375342.77745  22036738.3594                   22036735.1884
        46.5004         34.0004
    535188.55947    402281.36345  23591890.5554                   23591891.4964
        43.5004         35.0004
    790309.73046    591087.46544  24265279.8284                   24265283.4654
        36.7504         27.2504
   -678949.46547   -521306.17247  21546118.5944                   21546119.8954
        47.2504         42.5004
   -598689.99246   -440345.66844  23189625.5314                   23189627.0164
        40.5004         24.0004
    505032.12147    383296.67245  21411787.5234                   21411786.3054
        46.0004         35.0004
    -89484.97748    -67301.05548  20057722.8594                   20057720.8404
        49.0004         48.5004
   -763653.41446   -561882.89845  23207971.2664                   23207975.0314
        40.5004         33.0004
    246439.00845    185580.78543  24457419.6094                   24457425.4344
        31.7504         21.7504
 25  7 16  0  5  0.0000000  0 10G01G02G32G10G03G04G28G31G26G25
    -38853.06247    -29247.38345  21112943.1174                   21112942.3284
        46.5004         34.5004
    545304.72747    417339.78945  22046994.5314                   22046991.6644
        47.2504         34.5004
    599130.17647    452105.96146  23604058.2034                   23604059.6454
        43.7504         36.0004
    874759.10546    656892.07044  24281349.5784                   24281354.3364
        37.0004         27.2504
   -759964.28547   -584434.59447  21530701.9694                   21530703.1884
        47.0004         42.7504
   -669528.27746   -495544.23444  23176145.4224                   23176146.9144
        41.0004         25.2504
    560276.46947    426344.19145  21422300.4304                   21422299.3204
        46.5004         35.0004
    -95549.81247    -72026.90248  20056569.0944                   20056566.7194
        47.7504         48.5004
   -853907.69146   -632210.84445  23190796.5704                   23190799.7234
        41.0004         32.2504
    278715.80945    210731.57444  24463562.6644                   24463568.4344
        33.5004         24.0004
 25  7 16  0  5 30.0000000  0 10G01G02G32G10G03G04G28G31G26G25
    -39103.57447    -29442.60945  21112895.1884                   21112894.1054
        47.7504         34.5004
    599584.98847    459636.04745  22057323.4534                   22057320.8554
        46.5004         34.0004
    663097.59447    501950.66045  23616230.9844                   23616231.7934
        44.0004         35.2504
    959429.18746    722868.62444  24297464.7344                   24297466.7194
        39.0004         29.5004
   -840782.39147   -647409.72347  21515323.3754                   21515323.8794
        47.7504         42.7504
   -740232.98046   -550638.75443  23162691.1884                   23162691.8754
        40.7504         23.0004
    615952.26247    469727.91045  21432894.9384                   21432893.7854
        46.2504         35.0004
   -100990.64548    -76266.51648  20055533.6884                   20055531.8134
        48.0004         48.5004
   -943981.94546   -702398.50445  23173655.5554                   23173659.5984
        39.5004         32.5004
    311529.11345    236300.47343  24469805.9144                   24469810.0704
        33.0004         19.0004
 25  7 16  0  6  0.0000000  0 10G01G02G32G10G03G04G28G31G26G25
    -38760.78947    -29175.51645  21112960.9774                   21112959.8484
        47.5004         35.2504
    654244.54747    502227.86345  22067725.1804                   22067722.1804
        46.5004         34.0004
    727088.73047    551813.84045  23628408.1884                   23628409.5474
        42.7504         35.0004
   1044317.30546    789015.12144  24313617.7894                   24313620.2814
        38.5004         28.0004
   -921403.47347   -710231.32447  21499981.6174                   21499982.1684
        47.0004         43.0004
   -810806.02746   -605630.66844  23149261.1484                   23149262.0474
        41.0004         25.2504
    672055.31347    513444.54345  21443570.9224                   21443569.7894
        45.7504         35.0004
   -105810.19148    -80022.01648  20054616.5634                   20054614.4304
        48.2504         48.5004
  -1033874.82046   -772444.80145  23156550.1804                   23156553.2034
        40.0004         32.0004
    344876.16045    262285.23043  24476152.8914                   24476156.4654
        34.2504         19.5004
 25  7 16  0  6 30.0000000  0 10G01G02G32G10G03G04G28G31G26G25
    -37831.45347    -28451.38345  21113137.2344                   21113136.6524
        47.2504         34.5004
    709274.90247    545108.60945  22078197.1484                   22078194.2034
        45.7504         34.0004
    791096.97347    601690.33645  23640588.1804                   23640589.9224
        42.5004         35.2504
   1129416.07046    855325.70744  24329811.3204                   24329813.4614
        38.2504         29.2504
  -1001831.87547   -772902.78547  21484676.2814                   21484677.4264
        47.5004         43.0004
   -881254.10546   -660525.19544  23135855.2974                   23135856.6914
        41.5004         24.7504
    728576.78147    557487.21945  21454326.6174                   21454325.3484
        45.7504         34.5004
   -110015.48048    -83298.87548  20053816.4534                   20053814.2584
        48.0004         48.5004
  -1123589.50846   -842352.26645  23139478.1414                   23139481.2624
        39.5004         32.2504
    378749.66845    288680.16043  24482598.3524                   24482602.3674
        31.2504         20.0004
 25  7 16  0  7  0.0000000  0 10G01G02G32G10G03G04G28G31G26G25
    -36320.13348    -27273.74645  21113424.8914                   21113424.0704
        48.0004         35.0004
    764669.68847    588273.33245  22088738.4614                   22088735.5314
        46.7504         33.5004
    855117.87547    651576.68845  23652771.2274                   23652772.9844
        42.5004         35.5004
   1214720.17246    921796.34844  24346043.3524                   24346047.1524
        37.5004         28.7504
  -1082069.73447   -835425.78147  21469407.4304                   21469408.7034
        47.2504         43.0004
   -951581.46146   -715325.67644  23122471.8914                   23122473.8094
        41.2504         24.5004
    785510.17647    601850.89145  21465160.2194                   21465159.4414
        45.7504         35.0004
   -113611.37948    -86100.87548  20053132.2974                   20053129.5434
        48.0004         48.5004
  -1213126.98846   -912121.65645  23122439.5704                   23122442.7814
        40.0004         33.5004
    413144.91055    315481.77353  24489142.9534                   24489147.7854
        31.5004         22.0004
 25  7 16  0  7 30.0000000  0 10G01G02G32G10G03G04G28G31G26G25
    -34226.42247    -25642.30545  21113823.5634                   21113822.3554
        46.2504         35.0004
    820427.53947    631720.96145  22099349.0634                   22099346.2624
        46.2504         33.7504
    919151.94147    701473.28545  23664956.2974                   23664958.1054
        42.2504         35.5004
   1300229.48846    988426.85944  24362316.4064                   24362318.8324
        39.7504         29.0004
  -1162114.16847   -897798.04347  21454175.7974                   21454176.8484
        47.5004         43.0004
  -1021787.60946   -770031.68443  23109112.4614                   23109113.1214
        41.2504         23.5004
    842853.80147    646534.20745  21476072.7424                   21476071.4024
        45.7504         35.2504
   -116597.54347    -88427.76648  20052564.1414                   20052561.6954
        47.7504         48.5004
  -1302483.21946   -981749.83245  23105435.9454                   23105438.5944
        40.5004         32.5004
    448061.05545    342689.02343  24495788.3444                   24495792.2274
        32.5004         21.2504
 25  7 16  0  8  0.0000000  0 10G01G02G32G10G03G04G28G31G26G25
    -31553.75847    -23559.72745  21114332.4224                   21114330.9064
        47.5004         35.0004
    876542.82847    675447.10945  22110027.4304                   22110024.4804
        46.7504         34.2504
    983195.96947    751377.63745  23677143.2894                   23677145.3554
        42.0004         35.5004
   1385939.93846   1055214.05944  24378625.3594                   24378629.2934
        36.7504         26.0004
  -1241966.10948   -960020.31247  21438980.5164                   21438981.3324
        48.0004         43.2504
  -1091875.75046   -824645.78143  23095774.8754                   23095776.3324
        41.0004         23.5004
    900602.26647    691532.98845  21487062.3134                   21487060.5474
        46.5004         34.7504
   -118977.66048    -90282.39848  20052111.3364                   20052108.8324
        48.0004         48.5004
  -1391658.09846  -1051236.70345  23088466.0394                   23088468.9024
        39.7504         33.5004
    483494.39145    370299.33644  24502531.0704                   24502536.3594
        33.2504         25.2504
 25  7 16  0  8 30.0000000  0 10G01G02G32G10G03G04G28G31G26G25
    -28302.54748    -21026.34045  21114950.8364                   21114949.6564
        48.0004         35.0004
    933013.53547    719450.21545  22120773.6254                   22120770.6914
        45.7504         34.0004
   1047249.70347    801289.55945  23689333.0554                   23689334.8204
        42.5004         35.5004
   1471850.62546   1122157.36344  24394974.4614                   24394976.6054
        37.7504         25.7504
  -1321623.44147  -1022090.94147  21423822.3204                   21423823.1564
        47.2504         43.2504
  -1161845.99246   -879167.98444  23082460.2894                   23082461.4654
        41.5004         24.0004
    958753.16047    736845.35545  21498127.5784                   21498126.3794
        46.0004         34.5004
   -120752.51648    -91665.40648  20051773.4384                   20051771.2344
        48.7504         48.2504
  -1480648.32446  -1120579.66845  23071531.3594                   23071534.2274
        39.7504         33.0004
                                  24509371.9064                   24509376.2624
        32.5004         22.5004
 25  7 16  0  9  0.0000000  0 10G01G02G32G10G03G04G28G31G26G25
    -24471.90247    -18041.44545  21115679.6724                   21115679.2934
        47.7504         34.7504
    989838.65647    763729.49645  22131586.9534                   22131584.1764
        45.7504         33.7504
   1111314.42647    851210.05946  23701524.0554                   23701525.6644
        43.0004         36.0004
   1557961.78546   1189256.92244  24411360.9614                   24411364.0314
        38.2504         28.7504
  -1401082.64847  -1084007.18447  21408701.2664                   21408702.2854
        47.2504         43.5004
  -1231697.13747   -933597.38344  23069168.1334                   23069169.1914
        42.0004         24.2504
   1017305.50447    782470.53145  21509270.0314                   21509268.8484
        45.2504         34.5004
   -121921.40648    -92576.23048  20051550.7504                   20051548.5704
        48.0004         48.5004
  -1569449.32446  -1189775.19545  23054633.2504                   23054636.1564
        39.5004         33.5004
    555909.87144    426726.99243  24516309.3914                   24516313.8714
        27.5004         20.0004
 25  7 16  0  9 30.0000000  0 10G01G02G32G10G03G04G28G31G26G25
    -20068.77348    -14610.45345  21116517.4224                   21116516.5864
        48.5004         34.5004
   1047009.35247    808278.04345  22142466.3364                   22142463.5664
        46.0004         33.2504
   1175383.32847    901133.82846  23713716.1024                   23713717.6844
        43.5004         36.2504
   1644265.83646   1256506.71945  24427784.3674                   24427787.5514
        40.0004         30.5004
  -1480348.12948  -1145772.47347  21393617.8054                   21393618.6374
        48.0004         43.5004
  -1301435.91846   -987939.23844  23055897.1644                   23055897.7974
        41.0004         25.2504
   1076250.32847    828401.53945  21520486.2814                   21520485.3484
        45.2504         34.7504
   -122491.22348    -93020.24248  20051442.5944                   20051440.3674
        48.2504         48.5004
  -1658064.36746  -1258825.81245  23037770.2814                   23037773.3444
        39.7504         33.2504
    592884.95755    455538.62553  24523347.6414                   24523351.2544
        32.0004         21.7504
 25  7 16  0 10  0.0000000  0 10G01G02G32G10G03G04G28G31G26G25
    -15096.81247    -10736.22345  21117463.7734                   21117462.6724
        47.5004         34.5004
   1104520.19547    853091.64545  22153410.3364                   22153407.4224
        45.5004         34.0004
   1239453.13347    951058.30945  23725908.4924                   23725909.4964
        43.0004         34.7504
   1730758.80146   1323903.68045  24444242.4774                   24444246.7894
        39.0004         31.0004
  -1559420.82047  -1207387.53547  21378570.5234                   21378571.3444
        47.5004         43.5004
  -1371065.52747  -1042196.04744  23042647.2894                   23042647.8054
        42.5004         24.2504
   1135582.13747    874634.09045  21531777.3364                   21531776.2544
        45.5004         34.2504
   -122466.30547    -93000.82448  20051447.1884                   20051444.8524
        47.7504         48.2504
  -1746493.30146  -1327731.40245  23020943.0864                   23020945.6524
        40.7504         34.0004
    630364.83245    484743.77344  24530478.8984                   24530483.6724
        33.7504         25.7504
 25  7 16  0 10 30.0000000  0 10G01G02G32G10G03G04G28G31G26G25
     -9556.09847     -6418.80545  21118518.2114                   21118517.1294
        47.2504         34.7504
   1162369.09847    898168.66445  22164418.3054                   22164415.5044
        45.5004         33.2504
   1303524.14547   1000983.71545  23738100.5164                   23738101.8914
        42.5004         35.5004
   1817439.98846   1391447.40645  24460739.5084                   24460741.6644
        40.7504         31.5004
  -1638298.21947  -1268850.41847  21363560.6724                   21363561.6524
        47.7504         43.7504
  -1440585.79747  -1096367.62144  23029417.6564                   23029418.1334
        42.0004         26.5004
   1195298.87547    921166.59045  21543140.7814                   21543139.3134
        45.2504         34.5004
   -121847.09048    -92518.33248  20051564.9144                   20051562.9304
        48.0004         48.2504
  -1834732.43746  -1396489.12145  23004151.4224                   23004154.7814
        40.2504         34.0004
    668348.88346    514341.75043  24537708.1804                   24537708.8404
        36.5004         23.0004
 25  7 16  0 11  0.0000000  0 10G01G02G32G10G03G04G28G31G26G25
     -3448.29747     -1659.50045  21119680.4064                   21119679.1724
        47.5004         34.7504
   1220552.71147    943506.48845  22175490.2584                   22175487.1914
        45.2504         34.0004
   1367594.99646   1050909.00045  23750292.4774                   23750294.1484
        41.2504         33.5004
   1904307.19546   1459136.03144  24477267.9304                   24477272.2814
        37.5004         28.2504
  -1716979.30147  -1330160.33247  21348588.0864                   21348589.2854
        47.2504         43.7504
  -1509997.99647  -1150455.01644  23016208.8594                   23016209.9384
        42.2504         25.7504
   1255397.03547    967996.30545  21554577.1884                   21554575.9534
        45.5004         34.7504
   -120635.30947    -91574.08648  20051795.3134                   20051793.1844
        47.7504         48.2504
  -1922779.77346  -1465097.36745  22987395.9224                   22987399.1724
        40.5004         33.7504
    706834.78946    544330.67644  24545032.2034                   24545036.1844
        36.7504         28.5004
 25  7 16  0 11 30.0000000  0 10G01G02G32G10G03G04G28G31G26G25
      3224.80948      3540.30945  21120950.5864                   21120949.3954
        48.0004         34.5004
   1279067.57447    989102.42645  22186625.2114                   22186622.2734
        45.7504         33.2504
   1431664.41846   1100833.16845  23762484.9924                   23762486.2624
        40.7504         34.0004
   1991358.41846   1526967.95744  24493832.6804                   24493837.2814
        36.7504         28.7504
  -1795463.00447  -1391316.44547  21333653.0944                   21333653.9964
        47.0004         44.0004
  -1579303.44946  -1204459.21144  23003020.2034                   23003021.1414
        41.5004         25.7504
   1315873.03147   1015120.43445  21566085.3674                   21566083.9064
        45.2504         34.0004
   -118832.77348    -90169.52348  20052138.5474                   20052136.6254
        48.5004         48.5004
  -2010633.15646  -1533554.45745  22970678.8444                   22970681.6254
        40.0004         34.2504
    745820.28146    574709.02744  24552451.2274                   24552453.7274
        37.5004         29.2504
 25  7 16  0 12  0.0000000  0 10G01G02G32G10G03G04G28G31G26G25
     10459.07048      9177.37545  21122326.9064                   21122325.8244
        48.0004         34.5004
   1337908.03547   1034952.06645  22197822.2894                   22197819.4534
        45.2504         33.2504
   1495728.62946   1150753.25045  23774674.9534                   23774677.6214
        40.2504         33.5004
   2078588.69946   1594939.44544  24510434.4064                   24510437.2544
        39.5004         29.7504
  -1873750.82447  -1452319.92647  21318756.0084                   21318756.6724
        47.7504         44.0004
  -1648505.93747  -1258383.19144  22989851.7974                   22989852.4384
        42.0004         25.2504
   1376720.80147   1062534.25445  21577664.3054                   21577663.2154
        45.7504         34.7504
   -116444.23448    -88308.32048  20052593.1334                   20052590.8634
        48.2504         48.2504
  -2098292.93746  -1601860.73045  22953997.6564                   22953999.9144
        41.0004         34.2504
    785300.68046    605472.94944  24559963.2504                   24559966.6334
        37.2504         28.5004
 25  7 16  0 12 30.0000000  0 10G01G02G32G10G03G04G28G31G26G25
     18257.07847     15253.72745  21123810.8594                   21123809.8524
        47.7504         34.2504
   1397074.60547   1081055.82445  22209081.6414                   22209078.9654
        45.0004         33.0004
   1559790.73846   1200671.72745  23786866.1804                   23786867.6804
        41.0004         33.0004
   2166000.40246   1663052.44545  24527067.7274                   24527070.8324
        40.2504         30.5004
  -1951837.31247  -1513166.52047  21303896.3204                   21303897.3834
        47.2504         44.0004
  -1717602.32446  -1312224.48444  22976702.4384                   22976703.7774
        40.7504         25.5004
   1437941.19547   1110238.44145  21589314.1644                   21589313.3714
        45.2504         34.2504
   -113467.23448    -85988.57848  20053159.4924                   20053157.4614
        48.2504         48.0004
  -2185752.66046  -1670011.11745  22937354.3364                   22937357.1454
        41.5004         35.0004
    825278.17646    636624.14144  24567571.3364                   24567574.6884
        37.5004         29.7504
 25  7 16  0 13  0.0000000  0 10G01G02G32G10G03G04G28G31G26G25
     26612.90647     21764.73845  21125400.7814                   21125400.0394
        47.5004         34.7504
   1456559.63347   1127407.73445  22220401.2734                   22220398.5554
        45.7504         33.0004
   1623845.34046   1250584.33245  23799055.3444                   23799057.5004
        40.0004         33.0004
   2253587.09446   1731301.69945  24543735.7344                   24543738.5234
        41.7504         32.0004
  -2029725.54747  -1573858.62947  21289074.4224                   21289075.7234
        47.0004         44.5004
  -1786598.14846  -1365987.41844  22963573.8054                   22963574.3014
        41.7504         25.2504
   1499526.44547   1158226.91845  21601034.0164                   21601032.8134
        45.5004         34.2504
   -109907.77047    -83214.96548  20053836.9224                   20053834.9264
        47.7504         48.2504
  -2273014.39846  -1738007.20745  22920748.6884                   22920751.9224
        41.2504         34.7504
    865746.23446    668157.69545  24575272.5784                   24575275.2344
        37.2504         30.0004
 25  7 16  0 13 30.0000000  0 10G01G02G32G10G03G04G28G31G26G25
     35525.25447     28709.40245  21127097.1254                   21127096.1844
        47.2504         34.7504
   1516360.00447   1174005.36745  22231781.0704                   22231778.5474
        46.0004         32.7504
   1687891.61346   1300490.44545  23811243.1954                   23811244.9224
        39.5004         32.0004
   2341347.07046   1799686.02345  24560434.7974                   24560438.4574
        39.0004         31.2504
  -2107414.01647  -1634395.08647  21274291.2114                   21274291.9024
        47.2504         44.0004
  -1855494.18446  -1419672.57844  22950463.1564                   22950464.0514
        41.7504         24.2504
   1561473.48447   1206497.32445  21612821.8364                   21612820.7304
        46.0004         34.5004
   -105767.68748    -79988.93048  20054624.9454                   20054622.8284
        49.7504         48.2504
  -2360075.49246  -1805846.96145  22904181.2584                   22904185.2934
        40.7504         34.7504
    906702.87546    700071.93844  24583066.6954                   24583068.0314
        37.2504         27.7504
 25  7 16  0 14  0.0000000  0 10G01G02G32G10G03G04G28G31G26G25
     44991.44147     36085.63345  21128898.6724                   21128897.5744
        47.5004         34.7504
   1576471.58247   1220845.50445  22243219.8834                   22243216.7194
        46.0004         32.5004
   1751927.49646   1350388.48845  23823428.6724                   23823430.3204
        40.5004         33.2504
   2429277.40246   1868202.99645  24577166.6094                   24577172.5514
        37.5004         30.7504
  -2184902.49247  -1694775.69547  21259545.3834                   21259546.3524
        47.2504         44.0004
  -1924292.59447  -1473281.71144  22937370.8754                   22937371.6334
        42.5004         25.5004
   1623777.89847   1255046.19545  21624677.9534                   21624677.0824
        45.5004         35.0004
   -101049.69548    -76312.57048  20055522.5084                   20055520.1914
        48.7504         48.2504
  -2446934.70346  -1873529.40245  22887652.7114                   22887656.0354
        41.0004         34.5004
    948145.06646    732364.53944  24590951.6564                   24590954.9224
        36.5004         29.2504
 25  7 16  0 14 30.0000000  0 11G01G02G32G10G03G04G28G31G26G25G16
     55007.59447     43890.39545  21130804.6094                   21130803.7734
        47.2504         34.5004
   1636888.60247   1267923.64545  22254716.6644                   22254714.2814
        46.0004         33.0004
   1815949.68846   1400275.85245  23835612.2274                   23835613.9184
        40.7504         34.5004
   2517373.75446   1936849.32444  24593931.5474                   24593935.8134
        37.5004         28.0004
  -2262191.97347  -1755001.25047  21244837.6094                   21244838.5984
        47.0004         44.2504
  -1992996.64546  -1526817.27044  22924296.2974                   22924298.2114
        41.5004         25.5004
   1686434.05947   1303869.16045  21636600.8674                   21636599.9654
        45.5004         35.0004
    -95757.98048    -72189.16048  20056529.2814                   20056527.0984
        48.7504         48.0004
  -2533591.94946  -1941054.47345  22871162.3834                   22871165.3554
        40.5004         34.7504
    990068.28946    765031.97345  24598929.8284                   24598933.2234
        38.5004         30.0004
   -227776.21955    -91014.33652  25102538.9534                   25102539.4494
        30.5004         16.2504
 25  7 16  0 15  0.0000000  0 10G01G02G32G10G03G04G28G31G26G25
     65560.27047     52113.23845  21132812.5784                   21132811.9384
        46.2504         35.0004
   1697596.18447   1315228.20745  22266268.9144                   22266266.6294
        46.0004         32.5004
   1879945.38746   1450142.55945  23847790.2974                   23847791.9384
        40.7504         35.0004
   2605622.23446   2005614.25444  24610725.7974                   24610728.9884
        38.0004         29.0004
  -2339292.86747  -1815079.85247  21230165.3594                   21230166.5594
        46.2504         44.5004
  -2061619.18746  -1580289.34844  22911238.3134                   22911239.9064
        41.7504         26.5004
   1749426.82847   1352954.41445  21648588.3134                   21648587.3134
        46.0004         34.5004
    -89906.22748    -67629.35248  20057643.1954                   20057641.0274
        48.5004         48.2504
  -2620056.60946  -2008429.48045  22854708.7424                   22854711.6914
        40.5004         34.5004
   1032458.62546    798063.44144  24606996.1724                   24606999.5944
        37.5004         29.7504
 25  7 16  0 15 30.0000000  0 11G01G02G32G10G03G04G28G31G26G25G16
     76651.78947     60755.94945  21134922.8524                   21134922.1724
        47.0004         34.2504
   1758594.98047   1362759.68845  22277876.8594                   22277874.3834
        45.0004         33.0004
   1943917.56646   1499990.96146  23859963.8594                   23859965.5084
        41.5004         36.2504
   2694025.05546   2074499.32044  24627549.3054                   24627551.2704
        38.5004         28.5004
  -2416199.91447  -1875007.40647  21215530.6644                   21215531.8954
        46.5004         44.2504
  -2130157.39147  -1633695.67644  22898196.5394                   22898196.9384
        42.5004         25.5004
   1812756.81347   1402302.43445  21660639.6644                   21660638.2584
        45.7504         33.7504
    -83492.26648    -62631.46548  20058863.7504                   20058861.4574
        49.0004         48.2504
  -2706322.42246  -2075649.53545  22838292.9924                   22838295.5474
        41.0004         35.0004
   1075317.98445    831460.27744  24615152.1884                   24615155.8364
        35.5004         25.2504
                                  25063412.359
        26.750
 25  7 16  0 16  0.0000000  0 11G01G02G32G10G03G04G28G31G26G25G16
     88281.20747     69817.81645  21137136.0474                   21137135.3484
        47.0004         34.5004
   1819882.27747   1410515.97345  22289539.8134                   22289536.7384
        45.0004         31.5004
   2007866.01247   1549820.86745  23872132.3754                   23872134.4924
        42.7504         35.5004
   2782580.53145   2143503.69944  24644396.6954                   24644402.2344
        34.7504         27.2504
  -2492911.05947  -1934782.31247  21200932.6884                   21200934.4024
        46.5004         44.5004
  -2198611.46147  -1687036.46144  22885169.6724                   22885170.6374
        42.0004         25.7504
   1876421.38347   1451911.18045  21672754.4304                   21672753.2664
        45.7504         33.7504
    -76517.64548    -57196.69548  20060190.9304                   20060188.4024
        49.0004         48.0004
  -2792386.25846  -2142712.22345  22821914.9694                   22821918.0594
        41.5004         35.2504
   1118644.72755    865221.45354  24623398.6174                   24623398.6914
        35.5004         25.0004
   -536492.56615                  25043793.383
        30.750
 25  7 16  0 16 30.0000000  0 11G01G02G32G10G03G04G28G31G26G25G16
    100453.89147     79302.99645  21139452.4614                   21139451.8094
        47.5004         34.2504
   1881461.81347   1458499.96945  22301257.9064                   22301254.9534
        45.5004         32.2504
   2071796.75846   1599636.96145  23884298.2034                   23884300.3874
        41.5004         35.5004
   2871294.09446   2212630.99645  24661279.6884                   24661285.3094
        36.2504         30.7504
  -2569417.89547  -1994398.00847  21186374.2194                   21186375.5704
        47.2504         44.7504
  -2266975.47747  -1740307.10244  22872160.0864                   22872160.7464
        42.0004         24.5004
   1940424.30547   1501783.54745  21684933.5864                   21684932.6954
        47.0004         34.0004
    -68976.93448    -51320.82447  20061625.6954                   20061623.0984
        49.2504         47.7504
  -2878238.77046  -2209610.21945  22805578.6094                   22805581.3754
        40.7504         35.0004
   1162440.93455    899347.52753  24631733.2114                   24631735.6214
        34.5004         22.5004
   -639812.37945   -175465.05552  25024128.0784                   25024131.9144
        33.0004         16.2504
 25  7 16  0 17  0.0000000  0 11G01G02G32G10G03G04G28G31G26G25G16
    113171.78947     89213.02045  21141872.6804                   21141871.5704
        47.0004         34.5004
   1943333.89147   1506711.91845  22313031.6564                   22313028.8404
        46.2504         32.2504
   2135712.60546   1649441.46145  23896461.3834                   23896463.3014
        41.5004         34.5004
   2960167.33246   2281882.70344  24678194.2974                   24678196.9264
        38.2504         29.2504
  -2645715.34847  -2053850.55947  21171855.4924                   21171856.3284
        47.7504         44.7504
  -2335246.76247  -1793505.45744  22859168.4384                   22859170.3014
        42.2504         26.2504
   2004765.87147   1551919.81645  21697177.6024                   21697176.2704
        46.2504         33.7504
    -60868.36748    -45002.47348  20063168.9844                   20063166.4774
        49.5004         48.0004
  -2963873.77346  -2276338.73845  22789282.7584                   22789285.0904
        41.5004         35.7504
   1206713.85555    926957.98852  24640158.0164                   24640158.8914
        33.2504         17.7504
   -743329.87145   -256127.83642  25004430.8594                   25004433.8634
        32.5004         16.2504
 25  7 16  0 17 30.0000000  0 11G01G02G32G10G03G04G28G31G26G25G16
    126433.07047     99546.46945  21144396.1644                   21144395.7384
        47.7504         34.5004
   2005495.39147   1555149.40245  22324860.6334                   22324858.0004
        45.2504         32.0004
   2199612.50046   1699233.51245  23908621.0634                   23908623.0234
        41.7504         34.2504
   3049198.21555   2351257.23054  24695133.9384                   24695138.7384
        34.7504         25.2504
  -2721802.18048  -2113138.98047  21157376.6804                   21157377.5084
        48.0004         45.0004
  -2403426.43747  -1846632.43444  22846194.6334                   22846195.1484
        42.0004         27.0004
   2069442.68847   1602317.31645  21709485.0394                   21709484.1414
        46.5004         33.0004
    -52194.27348    -38243.44548  20064819.4064                   20064817.1684
        49.5004         48.2504
  -3049289.13347  -2342896.11345  22773028.5634                   22773031.3284
        42.0004         35.5004
   1251458.40255    955533.77053  24648672.4614                   24648672.7584
        35.5004         20.7504
   -847043.36745   -336943.19142  24984694.2194                   24984697.7544
        33.2504         15.5004
 25  7 16  0 18  0.0000000  0 10G01G02G32G10G03G04G28G31G26G16
    140236.17247    110302.11345  21147023.0704                   21147021.8054
        47.7504         34.2504
   2067942.97747   1603809.78145  22336744.0634                   22336741.2814
        45.2504         32.5004
   2263495.63346   1749012.50845  23920777.2584                   23920779.5514
        40.5004         33.7504
   3138384.53545   2420753.03144  24712107.9844                   24712111.1644
        34.7504         25.7504
  -2797676.82048  -2172262.06647  21142938.1644                   21142938.8404
        48.2504         45.5004
  -2471515.32847  -1899688.66844  22833237.9064                   22833238.5204
        42.0004         25.5004
   2134451.55947   1652973.56345  21721855.7734                   21721854.9844
        47.0004         33.2504
    -42956.39848    -31045.09448  20066577.5004                   20066575.3054
        49.7504         48.0004
  -3134482.22346  -2409280.30145  22756816.1564                   22756819.0864
        41.0004         35.5004
   -950950.85246   -417909.92242  24964920.9924                   24964925.5084
        36.7504         16.7504
 25  7 16  0 18 30.0000000  0 11G01G02G32G10G03G04G28G31G26G25G16
    154582.06348    121480.69545  21149752.2974                   21149751.6764
        48.2504         34.7504
   2130675.75847   1652692.41845  22348681.6484                   22348679.3484
        45.5004         32.7504
   2327363.85246   1798779.89145  23932930.9384                   23932932.9844
        40.0004         32.7504
   3227728.74656   2477839.90653  24729109.2424                   24729110.8674
        38.2504         21.5004
  -2873335.12947  -2231216.58247  21128540.5784                   21128541.8594
        47.5004         45.0004
  -2539511.68046  -1952672.79744  22820298.1884                   22820299.4104
        41.7504         25.5004
   2199791.89847   1703888.09045  21734289.7894                   21734288.6684
        47.0004         33.7504
    -33153.71148    -23406.64848  20068442.7114                   20068440.4184
        49.2504         48.0004
  -3219447.91846  -2475487.28945  22740648.0474                   22740651.1524
        41.7504         35.5004
   1342350.97755   1016195.06353  24665970.1094                   24665970.8094
        33.2504         21.0004
  -1055047.91845   -499024.27742  24945111.6484                   24945116.0354
        35.5004         17.7504
 25  7 16  0 19  0.0000000  0 11G01G02G32G10G03G04G28G31G26G25G16
    169470.78147    133082.28145  21152586.2274                   21152585.3284
        47.7504         34.2504
   2193692.54347   1701796.34045  22360673.8444                   22360670.7854
        45.0004         33.0004
   2391218.06646   1848536.36345  23945082.3524                   23945083.7734
        40.2504         33.0004
   3317227.93846   2547579.49244  24746138.7734                   24746143.3054
        37.0004         28.7504
  -2948773.91047  -2290000.03147  21114184.9454                   21114186.5234
        47.5004         45.0004
  -2607414.78947  -2005584.26244  22807376.4924                   22807378.0274
        42.0004         25.5004
   2265462.16847   1755059.71145  21746786.4384                   21746785.1994
        45.0004         33.7504
    -22786.71548    -15328.46548  20070415.6564                   20070413.1094
        49.5004         48.0004
  -3304181.96146  -2541513.77345  22724523.7344                   22724526.4964
        41.5004         35.5004
   1388504.28114                  24674751.250
        29.500
  -1159331.25046   -580283.78942  24925267.2584                   24925270.8634
        37.7504         17.2504
 25  7 16  0 19 30.0000000  0 10G01G02G32G10G03G04G28G31G26G16
    184901.30947    145106.03545  21155522.4924                   21155522.0514
        47.7504         35.0004
   2256991.02347   1751119.77045  22372719.1564                   22372716.3404
        46.2504         32.2504
   2455058.27746   1898281.91045  23957229.9384                   23957232.8984
        40.2504         32.0004
   3406882.37946   2617439.77343  24763201.3284                   24763205.1294
        37.7504         22.7504
  -3023990.87147  -2348610.63347  21099871.9774                   21099872.9184
        47.2504         45.2504
  -2675224.71146  -2058423.11744  22794472.8914                   22794473.5744
        41.7504         26.2504
   2331459.90247   1806486.49645  21759345.5474                   21759344.5274
        47.0004         34.0004
    -11856.59448     -6811.49248  20072495.5314                   20072493.5004
        48.7504         48.0004
  -3388681.17647  -2607357.27045  22708444.2424                   22708446.8404
        42.0004         35.7504
  -1263797.72745   -661686.05142  24905387.7894                   24905392.0204
        35.7504         16.2504
 25  7 16  0 20  0.0000000  0 11G01G02G32G10G03G04G28G31G26G25G16
    200871.64847    157550.43445  21158561.6414                   21158560.7734
        47.7504         34.0004
   2320567.50847   1800659.83645  22384817.0864                   22384814.4964
        46.5004         32.5004
   2518883.30946   1948015.65245  23969376.5394                   23969377.1954
        40.7504         32.2504
   3496689.67646   2687419.52043  24780289.3444                   24780294.7034
        36.5004         22.5004
  -3098984.84447  -2407047.47747  21085600.7194                   21085601.7974
        47.2504         45.5004
  -2742942.70347  -2111190.35244  22781586.2114                   22781587.3324
        42.0004         26.7504
   2397781.57447   1858165.69545  21771965.7894                   21771965.1294
        46.5004         33.7504
      -365.64548      2142.49648  20074682.0944                   20074679.9804
        49.5004         48.2504
  -3472943.39146  -2673016.09446  22692409.9064                   22692412.0004
        41.7504         36.5004
     25163.31655   1060730.94553  24692583.2664                   24692587.8714
        34.0004         22.2504
  -1368446.22346   -743230.05942  24885474.3594                   24885477.9454
        38.7504         16.2504
 25  7 16  0 20 30.0000000  0 11G01G02G32G10G03G04G28G31G26G25G16
    217381.75847    170415.42645  21161703.5314                   21161702.6844
        47.0004         34.5004
   2384420.63747   1850415.46545  22396968.2424                   22396965.6994
        46.7504         33.0004
   2582694.12546   1997738.32845  23981518.9614                   23981521.1254
        41.0004         33.0004
   3586648.82816                  24797410.500
        36.000
  -3173752.54747  -2465308.00847  21071373.1414                   21071373.8874
        47.0004         45.5004
  -2810567.95747  -2163885.31244  22768718.0634                   22768718.6954
        42.5004         25.7504
   2464425.64547   1910096.11345  21784647.7814                   21784647.0084
        45.7504         33.0004
     11686.05548     11533.43048  20076975.0944                   20076972.7934
        49.0004         48.0004
  -3556964.40647  -2738486.96946  22676420.5004                   22676423.4654
        42.0004         36.5004
     72713.01255   1091119.18053  24701631.5314                   24701636.9804
        32.0004         19.5004
  -1473272.89546   -824913.03142  24865526.2194                   24865530.1414
        38.0004         12.5004
 25  7 16  0 21  0.0000000  0 10G01G02G32G10G03G04G28G31G26G16
    234430.12947    183699.84445  21164947.5394                   21164946.6764
        46.7504         34.5004
   2448546.95747   1900383.95745  22409170.7734                   22409168.3954
        45.5004         32.2504
   2646490.17647   2047449.49245  23993659.4454                   23993660.4804
        42.0004         33.7504
   3676759.74646   2816041.37154  24814557.3674                   24814561.7274
        41.2504         29.5004
  -3248292.19947  -2523390.83247  21057188.6724                   21057189.4454
        46.5004         45.5004
  -2878101.09847  -2216508.48044  22755867.0554                   22755867.4224
        42.5004         26.0004
   2531389.18847   1962275.48045  21797390.7734                   21797389.8014
        45.0004         33.2504
     24296.71548     21359.91048  20079375.0394                   20079372.7934
        49.2504         48.0004
  -3640741.38747  -2803767.68446  22660478.2814                   22660481.3244
        42.2504         36.2504
  -1578275.45746   -861455.12953  24845544.1024                   24845546.7194
        38.0004         19.0004
 25  7 16  0 21 30.0000000  0 10G01G02G32G10G03G04G28G31G26G16
    252021.29347    197407.21945  21168294.8444                   21168293.9264
        47.2504         34.2504
   2512949.71547   1950567.86345  22421426.5474                   22421423.8554
        46.2504         32.2504
   2710277.08647   2097153.54345  24005797.6644                   24005799.2074
        43.5004         34.7504
   3767026.19545   2886378.86344  24831733.8914                   24831738.6254
        34.5004         26.0004
  -3322595.95747  -2581289.84047  21043049.0084                   21043050.2074
        46.7504         45.5004
  -2945536.68746  -2269055.66444  22743034.2274                   22743034.8674
        41.2504         26.7504
   2598675.23847   2014706.14545  21810194.9224                   21810194.1844
        47.0004         33.0004
     37470.59048     31625.26248  20081882.0944                   20081879.5274
        49.0004         48.0004
  -3724265.56646  -2868851.40646  22644584.3834                   22644587.1954
        41.2504         36.0004
  -1683445.945 6                  24825530.211
        36.000
 25  7 16  0 22  0.0000000  0 10G01G02G32G10G03G04G28G31G26G16
    270159.68447    211541.00045  21171746.6884                   21171745.8984
        47.5004         33.7504
   2577632.00447   2000969.59445  22433734.8284                   22433732.4344
        44.7504         31.2504
   2774060.29747   2146854.68045  24017935.0704                   24017937.0864
        42.0004         35.0004
   3857452.59446   2956840.79744  24848940.5084                   24848946.4344
        37.7504         28.7504
  -3396655.89547  -2638998.85547  21028956.1174                   21028957.5044
        47.5004         45.5004
  -3012869.30946  -2321522.58644  22730221.1954                   22730222.3594
        41.7504         26.5004
   2666286.87947   2067390.51645  21823061.0394                   21823059.9344
        46.5004         33.5004
     51211.74648     42332.65647  20084497.0234                   20084494.8014
        49.5004         47.7504
  -3807528.16846  -2933731.30545  22628739.7114                   22628742.9774
        41.5004         35.7504
  -1788775.656 6                  24805487.484
        36.250
 25  7 16  0 22 30.0000000  0 10G01G02G32G10G03G04G28G31G26G16
    288847.94547    226103.25445  21175302.7974                   21175302.2544
        46.0004         33.5004
   2642595.17247   2051590.18445  22446096.5784                   22446094.6024
        44.2504         31.5004
   2837843.61746   2196555.90645  24030073.1414                   24030073.8634
        41.5004         33.2504
   3948041.18846   3027429.12544  24866178.7664                   24866184.7774
        38.0004         28.2504
  -3470466.15247  -2696513.32047  21014910.3914                   21014911.2734
        46.5004         45.7504
  -3080095.44946  -2373906.56244  22717428.0234                   22717428.7774
        41.5004         27.5004
   2734225.34447   2120329.54745  21835989.3754                   21835988.4344
        46.5004         33.5004
     65522.68448     53484.03547  20087220.2504                   20087217.9844
        48.5004         47.7504
  -3890522.25047  -2998401.97745  22612946.5084                   22612949.2384
        42.0004         35.7504
  -1894258.195 6                  24785415.047
        36.250
 25  7 16  0 23  0.0000000  0 10G01G02G32G10G03G04G28G31G26G16
    308082.81647    241091.43845  21178963.4384                   21178962.1134
        46.5004         34.0004
   2707834.34847   2102425.84445  22458511.8984                   22458509.2584
        46.0004         31.7504
   2901624.86746   2246255.54345  24042209.4924                   24042212.6024
        41.5004         33.7504
   4038788.82846   3098141.46543  24883448.7034                   24883453.8554
        37.5004         22.5004
  -3544026.50447  -2753833.06647  21000912.3914                   21000913.0354
        46.7504         45.7504
  -3147217.35246  -2426209.29344  22704654.9224                   22704656.5164
        41.2504         27.0004
   2802486.00847   2173519.65245  21848978.9064                   21848977.9224
        45.7504         32.5004
     80400.11748     65076.83247  20090051.5084                   20090049.1954
        49.2504         47.7504
  -3973246.78546  -3062862.61345  22597204.5234                   22597207.6804
        41.5004         35.5004
  -1999893.64845   -959957.99652  24765313.3204                   24765312.5274
        32.0004         16.2504
 25  7 16  0 23 30.0000000  0 10G01G02G32G10G03G04G28G31G26G16
    327853.70747    256497.30145  21182725.4694                   21182724.5904
        46.7504         34.5004
   2773337.60247   2153467.27045  22470976.2664                   22470974.3054
        45.5004         31.5004
   2965394.68046   2295946.19545  24054345.1414                   24054347.2154
        41.0004         33.2504
   4129684.72347   3168969.38745  24900746.2584                   24900749.6804
        42.7504         30.2504
  -3617344.03547  -2810963.59047  20986960.3594                   20986961.4064
        47.5004         45.5004
  -3214244.55547  -2478438.25844  22691900.8524                   22691901.1604
        42.0004         27.0004
   2871056.92247   2226951.51245  21862027.8134                   21862026.5824
        45.7504         33.2504
     95833.08648     77102.52347  20092987.9144                   20092985.7304
        48.2504         47.5004
  -4055707.84447  -3127117.93746  22581512.9454                   22581515.6454
        42.2504         36.2504
  -2105688.027 5                  24745181.094
        33.750
 25  7 16  0 24  0.0000000  0 10G01G02G32G10G03G04G28G31G26G16
    348161.44547    272321.48445  21186589.9614                   21186589.1484
        45.7504         34.5004
   2839104.50047   2204714.12945  22483491.6094                   22483489.2074
        44.0004         31.5004
   3029154.95346   2345629.47745  24066477.8674                   24066479.9734
        40.0004         32.5004
   4220729.68846   3239913.35945  24918070.8674                   24918075.9804
        38.0004         30.2504
  -3690414.51247  -2867901.60247  20973055.8134                   20973056.5664
        47.0004         46.0004
  -3281175.29346  -2530592.03944  22679164.1414                   22679164.9304
        41.5004         26.5004
   2939937.66447   2280624.78545  21875134.9844                   21875134.0434
        44.7504         33.5004
    111822.17248     89561.54747  20096030.7584                   20096028.2704
        48.5004         47.7504
  -4137900.33647  -3191164.00045  22565871.8204                   22565874.7664
        42.0004         35.7504
  -2211636.68745  -1064444.16052  24725019.1954                   24725021.0664
        34.7504         16.2504
 25  7 16  0 24 30.0000000  0 10G01G02G32G10G03G04G28G31G26G16
    369000.27347    288559.50445  21190555.7664                   21190554.7584
        47.0004         34.2504
   2905127.78547   2256160.78545  22496055.7344                   22496053.3834
        44.0004         31.7504
   3092901.22346   2395301.78945  24078608.1414                   24078611.2074
        40.5004         32.2504
   4311918.26615                  24935425.422
        35.500
  -3763240.16447  -2924648.84447  20959197.2114                   20959198.5984
        47.5004         46.0004
  -3348014.22346  -2582674.28944  22666445.0474                   22666445.8754
        41.5004         26.2504
   3009121.09847   2334533.93045  21888300.1334                   21888299.1484
        45.0004         32.5004
    128361.46548    102449.30547  20099178.1484                   20099175.9734
        49.0004         47.5004
  -4219825.53547  -3255001.77346  22550282.2504                   22550284.8244
        42.5004         36.2504
  -2317741.24245  -1147122.85242  24704827.5864                   24704830.5204
        33.5004         16.2504
 25  7 16  0 25  0.0000000  0 10G01G02G32G10G03G04G28G31G26G16
    390368.62547    305210.13345  21194621.7894                   21194620.9774
        46.7504         34.2504
   2971404.41447   2307804.84045  22508667.5084                   22508665.4064
        44.0004         30.5004
   3156633.13746   2444962.95745  24090736.7814                   24090738.7894
        40.2504         32.0004
   4403248.27346   3319043.63354  24952803.5634                   24952808.0634
