     2.11           OBSERVATION DATA    G (GPS)             RINEX VERSION / TYPE
teqc  2019Feb25     K Rivera            20250821 01:42:32UTCPGM / RUN BY / DATE
Linux 2.6.32-573.12.1.x86_64|x86_64|gcc -static|Linux 64|=+ COMMENT
teqc  2019Feb25                         20250821 01:38:15UTCCOMMENT
BIT 2 OF LLI FLAGS DATA COLLECTED UNDER A/S CONDITION       COMMENT
0705                                                        MARKER NAME
                                                            MARKER NUMBER
KMR & KMB           University of California, Riverside     OBSERVER / AGENCY
0220340422          TRIMBLE 5700        2.32                REC # / TYPE / VERS
1441040465          TRM57971.00                             ANT # / TYPE
 -2451918.9649 -4657352.9294  3592211.3998                  APPROX POSITION XYZ
        1.4868        0.0000        0.0000                  ANTENNA: DELTA H/E/N
     1     1                                                WAVELENGTH FACT L1/2
     7    L1    L2    C1    P1    P2    S1    S2            # / TYPES OF OBSERV
    18                                                      LEAP SECONDS
 SNR is mapped to RINEX snr flag value [0-9]                COMMENT
  L1 & L2: min(max(int(snr_dBHz/6), 0), 9)                  COMMENT
  2025     6    30    21    16   30.0000000     GPS         TIME OF FIRST OBS
                                                            END OF HEADER
 25  6 30 21 16 30.0000000  0  3G27G32G08
     13446.52057      6906.48057  21494881.0164                   21494880.2504
        47.7504         47.7504
    -82644.89858    -41755.55958  21001778.6644                   21001777.7894
        49.7504         51.0004
    -77039.37557    -42520.35256  22877148.1724                   22877147.8554
        42.5004         37.0004
 25  6 30 21 17  0.0000000  0  6G10G27G18G32G23G08
    -13696.21958     -9049.25058  21052857.9844                   21052856.7814
        50.5004         52.0004
     26467.80547     17052.91048  21497358.8914                   21497357.9734
        47.0004         48.0004
     96574.71557     63735.48455  22237061.4224                   22237059.8754
        44.0004         32.7504
   -141334.83648    -87487.94948  20990610.5554                   20990609.6804
        49.5004         51.0004
     51954.49257     31524.10955  21671401.1174                   21671397.8364
        46.0004         34.2504
   -126187.75046    -80817.77746  22867794.9304                   22867795.2774
        41.5004         36.7504
 25  6 30 21 17 30.0000000  0  6G10G27G18G32G23G08
    -22581.25048    -15972.65248  21051167.5704                   21051166.2114
        51.2504         52.2504
     40024.51247     27616.54347  21499938.7734                   21499937.5784
        47.7504         47.7504
    161125.79747    114034.96545  22249345.8984                   22249343.2234
        45.0004         32.5004
   -199603.60548   -132892.16448  20979522.3754                   20979521.1024
        49.5004         50.7504
     97310.93847     66866.77045  21680032.3364                   21680029.5354
        45.2504         34.0004
   -174861.71146   -118745.53946  22858533.0084                   22858532.4224
        41.2504         36.2504
 25  6 30 21 18  0.0000000  0  6G10G27G18G32G23G08
    -31331.29348    -22790.87948  21049502.3054                   21049500.6334
        51.2504         52.0004
     54124.95347     38603.89847  21502621.8364                   21502621.0354
        47.2504         47.7504
    225975.91047    164567.42645  22261686.3984                   22261684.1994
        44.0004         33.5004
   -257440.89848   -177960.14848  20968516.5234                   20968514.8284
        50.2504         51.0004
    142742.57847    102268.03145  21688677.9614                   21688674.7344
        46.5004         34.7504
   -223050.63346   -156295.35246  22849362.0474                   22849362.9574
        41.5004         36.5004
 25  6 30 21 18 30.0000000  0  7G10G27G18G32G23G24G08
    -39938.81648    -29498.03948  21047864.3134                   21047862.6764
        51.5004         52.2504
     68776.02747     50020.30147  21505409.9144                   21505408.5474
        47.7504         47.7504
    291132.50847    215338.77045  22274084.6024                   22274081.9734
        45.2504         32.2504
   -314837.81248   -222684.98048  20957594.0474                   20957592.7154
        50.2504         51.0004
    188257.01647    137733.78545  21697338.7734                   21697335.2114
        46.5004         34.2504
      6725.53956      4465.71156  23195483.7114                   23195484.0434
        41.5004         36.0004
   -270745.33647   -193460.05946  22840287.2584                   22840286.5784
        42.0004         37.7504
 25  6 30 21 19  0.0000000  0  7G10G27G18G32G23G24G08
    -48391.89548    -36084.85548  21046255.6174                   21046254.1844
        49.7504         51.7504
     83989.05148     61874.58247  21508304.6804                   21508303.7384
        48.0004         47.5004
    356607.48447    266358.17245  22286544.4384                   22286541.9654
        44.5004         32.5004
   -371780.96548   -267056.23048  20946757.9304                   20946756.8054
        50.2504         51.0004
    233866.31647    173273.45745  21706018.4844                   21706014.8284
        46.5004         34.5004
     12432.41847      8912.61745  23196570.2974                   23196570.1024
        42.7504         35.7504
   -317932.09447   -230228.96546  22831307.5314                   22831307.5554
        42.5004         37.5004
 25  6 30 21 19 30.0000000  0  7G10G27G18G32G23G24G08
    -56678.97748    -42542.32048  21044678.9454                   21044677.3204
        49.0004         51.7504
     99774.87148     74175.20347  21511309.2114                   21511307.5984
        48.0004         47.5004
    422412.31347    317634.59845  22299066.9384                   22299064.0314
        44.5004         32.7504
   -428257.41048   -311063.82048  20936010.6644                   20936009.6214
        50.0004         51.0004
    279582.17647    208896.17645  21714717.7504                   21714715.2464
        47.2504         34.7504
     18739.76246     13827.41445  23197771.4694                   23197770.0784
        41.0004         34.7504
   -364597.74247   -266591.78146  22822427.7194                   22822427.5314
        42.7504         38.2504
 25  6 30 21 20  0.0000000  0  7G10G27G18G32G23G24G08
    -64798.55948    -48869.26648  21043133.8754                   21043131.7154
        51.5004         52.0004
    116134.28148     86922.77747  21514421.8204                   21514420.6724
        48.0004         47.5004
    488548.36747    369169.10545  22311652.0084                   22311649.5824
        43.5004         32.2504
   -484264.32848   -354705.53148  20925353.0554                   20925351.7814
        50.0004         51.0004
    325406.09447    244603.11345  21723437.8444                   21723434.4654
        47.5004         34.0004
     25649.75846     19211.80145  23199085.5314                   23199085.4734
        41.5004         35.2504
   -410739.05147   -302546.01646  22813647.0394                   22813646.7814
        43.0004         37.5004
 25  6 30 21 20 30.0000000  0  7G10G27G18G32G23G24G08
    -72748.37548    -55063.91848  21041620.9614                   21041619.1724
        49.0004         51.7504
    133068.80147    100118.48447  21517643.9774                   21517643.0824
        47.0004         47.0004
    555017.71147    420963.37545  22324301.6564                   22324298.0744
        44.5004         32.2504
   -539798.12148   -397978.57848  20914785.4144                   20914783.9804
        50.2504         50.7504
    371340.48047    280396.10945  21732178.8834                   21732175.0394
        46.2504         34.7504
     33165.31347     25068.05945  23200516.1334                   23200516.0554
        42.5004         35.5004
   -456352.23447   -338088.71545  22804966.8594                   22804966.6994
        43.2504         35.7504
 25  6 30 21 21  0.0000000  0  7G10G27G18G32G23G24G08
    -80526.56648    -61124.84048  21040140.9844                   21040139.1334
        51.0004         51.5004
    150579.55547    113763.20347  21520976.2274                   21520975.0984
        46.5004         46.7504
    621822.20347    473018.73045  22337014.8444                   22337010.8794
        44.7504         32.0004
   -594855.63348   -440880.50848  20904308.3674                   20904306.6644
        50.5004         50.5004
    417387.40647    316276.78945  21740941.1564                   21740937.9144
        46.2504         34.2504
     41288.98046     31398.18445  23202061.9304                   23202061.9804
        41.5004         35.0004
   -501433.75846   -373217.11345  22796387.7194                   22796387.3094
        41.5004         34.7504
 25  6 30 21 21 30.0000000  0  7G10G27G18G32G23G24G08
    -88134.58648    -67053.15248  21038692.8674                   21038691.3204
        51.0004         51.2504
    168664.24247    127855.14547  21524418.0864                   21524417.0044
        46.2504         46.7504
    688960.12547    525333.96945  22349789.3524                   22349786.5984
        45.0004         31.7504
   -649437.02348   -483411.42648  20893921.8284                   20893920.3204
        50.2504         50.7504
    463545.40247    352244.04345  21749724.4844                   21749722.0744
        46.0004         35.0004
     50019.89846     38201.48845  23203723.1954                   23203722.9414
        41.5004         35.0004
   -545983.59846   -407931.22745  22787909.8134                   22787909.9774
        41.2504         34.0004
 25  6 30 21 22  0.0000000  0  7G10G27G18G32G23G24G08
    -95580.37548    -72855.07448  21037276.0084                   21037274.2464
        50.7504         51.0004
    187314.11347    142387.49247  21527966.4614                   21527965.8834
        46.2504         46.7504
    756423.39847    577902.68445  22362627.3984                   22362624.8714
        45.5004         31.0004
   -703549.00848   -525576.57848  20883624.5164                   20883622.6724
        50.0004         51.0004
    509806.70347    388291.78145  21758527.8984                   21758524.9734
        47.5004         34.2504
     59350.67646     45472.21545  23205499.2274                   23205497.9064
        41.7504         34.7504
   -590008.08646   -442235.98045  22779532.6564                   22779532.8794
        39.7504         34.7504
 25  6 30 21 22 30.0000000  0  7G10G27G18G32G23G24G08
   -102863.88348    -78530.52748  21035890.0634                   21035888.0944
        50.5004         51.5004
    206528.36347    157359.61747  21531622.7664                   21531622.4574
        46.0004         46.7504
    824211.89847    630724.82045  22375527.5394                   22375525.3954
        45.0004         32.7504
   -757190.25848   -567374.92648  20873416.9304                   20873415.5044
        50.0004         51.5004
    556171.50847    424420.16045  21767350.9844                   21767347.9694
        46.5004         34.0004
     69281.94146     53210.85545  23207388.1724                   23207387.9144
        40.7504         34.0004
   -633505.68446   -476130.19545  22771255.1484                   22771255.3324
        40.2504         35.0004
 25  6 30 21 23  0.0000000  0  7G10G27G18G32G23G24G08
   -109989.39848    -84082.86348  21034534.0864                   21034532.8484
        49.5004         51.7504
    226301.80947    172767.47347  21535385.8204                   21535385.1764
        45.5004         46.7504
    892321.09047    683796.86345  22388487.9144                   22388486.2664
        43.7504         31.0004
   -810363.90248   -608808.89148  20863298.5314                   20863297.0004
        51.2504         51.7504
    602635.59447    460625.93045  21776192.8204                   21776189.9224
        46.7504         35.0004
     79809.87146     61414.42245  23209391.5554                   23209391.7384
        40.5004         34.0004
   -676479.17646   -509616.01646  22763077.8444                   22763078.3834
        41.7504         37.0004
 25  6 30 21 23 30.0000000  0  7G10G27G18G32G23G24G08
   -116958.91448    -89513.64848  21033207.8134                   21033206.6884
        50.5004         51.7504
    246631.55147    188608.81347  21539254.5004                   21539253.8674
        45.5004         47.0004
    960748.81647    737117.13745  22401509.8914                   22401507.6024
        45.5004         32.5004
   -863070.72748   -649879.10548  20853268.5234                   20853266.8834
        50.2504         51.5004
    649197.10547    496907.60545  21785052.8284                   21785050.2704
        47.0004         34.2504
     90932.98446     70081.77745  23211508.7344                   23211509.1454
        40.7504         34.5004
   -718929.14847   -542693.89546  22755000.1094                   22755000.4654
        42.0004         38.7504
 25  6 30 21 24  0.0000000  0  7G10G27G18G32G23G24G08
   -123771.60548    -94822.23448  21031911.4454                   21031909.8364
        49.5004         51.2504
    267517.50047    204883.55947  21543228.8674                   21543227.9694
        45.5004         46.7504
   1029495.58647    790685.96145  22414591.8674                   22414589.2154
        45.2504         31.5004
   -915308.73048   -690584.01248  20843328.1954                   20843326.3984
        51.0004         51.2504
    695857.01247    533265.94545  21793932.2894                   21793928.9344
        46.0004         34.5004
    102652.50446     79213.87545  23213738.7034                   23213738.6684
        41.0004         34.0004
   -760853.31647   -575362.04746  22747022.1024                   22747022.2544
        43.0004         40.2504
 25  6 30 21 24 30.0000000  0  7G10G27G18G32G23G24G08
   -130428.92648   -100009.74248  21030644.2734                   21030643.0164
        49.5004         51.0004
    288957.19147    221589.78947  21547309.1094                   21547307.6214
        45.7504         46.7504
   1098559.73847    844502.14145  22427733.7344                   22427731.9924
        44.5004         31.7504
   -967078.23448   -730923.84448  20833476.5864                   20833474.4654
        50.7504         51.2504
    742613.95347    569699.91045  21802829.6484                   21802826.5864
        47.2504         34.5004
    114967.46946     88809.93845  23216081.5394                   23216081.8874
        40.7504         34.2504
   -802251.68447   -607620.48846  22739144.8134                   22739144.2854
        44.0004         41.0004
 25  6 30 21 25  0.0000000  0  7G10G27G18G32G23G24G08
   -136932.94548   -105077.82048  21029406.9774                   21029405.2464
        49.2504         51.5004
    310947.51247    238725.08647  21551493.9064                   21551492.6644
        46.0004         47.0004
   1167938.87947    898563.73445  22440936.9774                   22440934.8634
        45.2504         32.0004
  -1018380.27048   -770899.41448  20823713.9614                   20823712.3634
        50.7504         51.5004
    789465.92647    606207.93045  21811745.3594                   21811742.4614
        46.5004         34.5004
    127876.01646     98868.52045  23218538.5554                   23218538.6174
        40.5004         34.2504
   -843125.02747   -639469.81646  22731366.6724                   22731366.4104
        42.5004         41.0004
 25  6 30 21 25 30.0000000  0  9G10G27G18G32G02G23G24G28G08
   -143288.14848   -110029.91048  21028197.6334                   21028196.4384
        50.5004         52.0004
    333483.05547    256285.22747  21555782.0474                   21555780.9534
        46.5004         47.0004
   1237628.31647    952867.16445  22454197.9924                   22454195.5824
        44.2504         31.0004
  -1069218.09848   -810513.27748  20814039.8984                   20814038.0944
        51.0004         51.7504
  -1042480.82856   -774286.09053  24920653.5864                   24920649.8634
        39.7504         20.2504
    836408.69947    642786.69545  21820678.3674                   21820674.5744
        46.2504         34.2504
    141374.16446    109386.54345  23221107.3364                   23221107.2504
        40.5004         35.0004
   -304700.39556   -200462.14853  25174447.0554                   25174453.7624
        41.0004         19.0004
   -883476.32847   -670912.35946  22723687.2734                   22723688.0164
        42.0004         40.0004
 25  6 30 21 26  0.0000000  0  9G10G27G18G32G02G23G24G28G08
   -149495.62948   -114866.89848  21027016.4144                   21027014.9494
        50.5004         52.2504
    356561.56347    274268.46547  21560174.1254                   21560172.5664
        47.5004         47.0004
   1307626.52747   1007411.15645  22467518.4454                   22467515.9494
        44.7504         31.0004
  -1119591.86348   -849765.51648  20804454.0634                   20804452.9304
        51.0004         52.0004
  -1138946.72146   -849454.25543  24902296.9064                   24902293.2774
        38.2504         21.5004
    883441.15247    679435.34045  21829628.0314                   21829624.6024
        46.0004         34.0004
    155461.03147    120363.32045  23223787.4844                   23223788.1414
        42.0004         35.5004
   -407609.58646   -280650.68743  25154863.6724                   25154870.2894
        40.5004         19.2504
   -923305.50047   -701948.04746  22716108.7734                   22716108.3484
        42.0004         38.5004
 25  6 30 21 26 30.0000000  0  9G10G27G18G32G02G23G24G28G08
   -155553.84448   -119587.57848  21025863.4844                   21025861.8094
        50.2504         51.7504
    380183.53147    292675.17647  21564668.7974                   21564667.7194
        47.5004         47.0004
   1377934.85547   1062196.81345  22480897.8674                   22480894.8834
        44.7504         32.5004
  -1169498.88348   -888654.06648  20794957.2734                   20794955.4924
        51.5004         52.0004
  -1235430.98846   -924636.67643  24883936.3834                   24883933.0434
        38.7504         22.0004
    930565.09047    716155.25845  21838595.5004                   21838592.8794
        46.5004         34.7504
    170138.43846    131800.26245  23226580.6024                   23226581.6374
        41.2504         35.0004
   -510672.95346   -360959.39143  25135251.2344                   25135257.6524
        39.7504         19.0004
   -962609.57046   -732574.56646  22708628.9614                   22708629.0394
        41.2504         38.2504
 25  6 30 21 27  0.0000000  0  9G10G27G18G32G02G23G24G28G08
   -161463.43748   -124192.44948  21024739.0864                   21024736.8554
        50.5004         51.5004
    404347.25847    311504.03947  21569267.1334                   21569266.2154
        47.5004         47.0004
   1448552.19547   1117223.25045  22494335.1804                   22494334.0164
        44.5004         31.7504
  -1218938.84848   -927178.67648  20785548.8134                   20785547.1524
        51.7504         52.0004
  -1331932.16046   -999832.29743  24865572.5864                   24865569.5434
        37.5004         21.7504
    977779.93447    752946.02745  21847580.6724                   21847578.0474
        46.2504         34.2504
    185406.06346    143697.10245  23229486.2274                   23229486.6914
        40.5004         33.2504
   -613888.36346   -441386.51243  25115609.5314                   25115615.6254
        39.5004         18.2504
  -1001387.99246   -762791.49246  22701249.6254                   22701249.7504
        40.5004         37.0004
 25  6 30 21 27 30.0000000  0  9G10G27G18G32G02G23G24G28G08
   -167229.40248   -128685.41448  21023641.5394                   21023639.6414
        50.7504         51.5004
    429046.50447    330750.19547  21573967.0864                   21573966.0274
        46.5004         46.5004
   1519473.29347   1172486.40245  22507831.2194                   22507828.6524
        44.2504         31.5004
  -1267915.77748   -965342.48048  20776228.7974                   20776227.0944
        51.5004         51.7504
  -1428453.81245  -1075043.84043  24847204.8914                   24847202.1644
        33.0004         19.7504
   1025080.81347    789803.84845  21856581.2504                   21856578.3164
        47.0004         34.5004
    201259.00846    156050.03945  23232502.5864                   23232502.4264
        41.0004         33.2504
   -717257.89146   -521933.77043  25095938.4924                   25095944.0474
        39.7504         18.5004
  -1039644.50846   -792601.74646  22693969.6804                   22693969.5664
        41.7504         37.2504
 25  6 30 21 28  0.0000000  0  9G10G27G18G32G02G23G24G28G08
   -172851.27348   -133066.09448  21022571.7274                   21022569.7934
        50.2504         51.7504
    454280.65647    350413.15247  21578769.1884                   21578767.7664
        46.5004         46.7504
   1590698.21547   1227986.25845  22521384.4844                   22521382.7664
        44.0004         31.0004
  -1316428.17648  -1003144.30948  20766997.2424                   20766995.1604
        51.7504         51.5004
  -1524993.60555  -1150269.53152  24828833.0474                   24828830.9924
        31.0004         17.2504
   1072468.38347    826729.19145  21865599.3364                   21865595.7664
        46.7504         34.5004
    217698.03546    168859.66045  23235631.0864                   23235630.2584
        40.0004         33.0004
   -820778.20746   -602598.52942  25076238.9144                   25076244.3914
        39.0004         17.7504
  -1077377.38746   -822003.94946  22686789.2894                   22686789.3794
        41.5004         37.7504
 25  6 30 21 28 30.0000000  0  9G10G27G18G32G02G23G24G28G08
   -178331.43748   -137336.33648  21021528.9064                   21021527.7274
        50.7504         52.0004
    480046.03947    370490.05947  21583672.3674                   21583670.9064
        46.0004         46.7504
   1662224.06647   1283720.66845  22534995.8754                   22534993.3554
        43.7504         31.2504
  -1364477.56248  -1040585.36748  20757853.7974                   20757851.8204
        51.5004         51.5004
                                  24810459.6724                   24810456.6954
        32.5004         18.5004
   1119940.27347    863720.25845  21874632.7194                   21874629.7464
        47.0004         34.0004
    234720.78946    182124.12945  23238870.9774                   23238870.2464
        40.2504         34.0004
   -924448.96546   -683380.52342  25056510.3594                   25056515.9884
        36.7504         17.2504
  -1114587.93747   -850999.15246  22679708.8984                   22679708.9064
        42.5004         39.0004
 25  6 30 21 29  0.0000000  0  9G10G27G18G32G02G23G24G28G08
   -183669.74248   -141496.05548  21020512.9144                   21020511.3014
        50.0004         51.5004
    506341.62147    390980.10947  21588676.2274                   21588675.2504
        46.5004         47.0004
   1734050.77047   1339689.44145  22548664.7504                   22548663.1054
        44.5004         32.2504
  -1412062.81648  -1077664.75448  20748798.4384                   20748796.6914
        51.0004         51.5004
  -1718126.91446  -1300762.78143  24792081.5084                   24792078.2624
        36.5004         20.0004
   1167496.78947    900777.25445  21883682.2734                   21883678.9264
        46.5004         34.0004
    252327.50846    195843.63345  23242220.6644                   23242221.1644
        41.0004         34.0004
  -1028266.96545   -764277.19943  25036754.5394                   25036760.8674
        35.5004         18.2504
  -1151274.78546   -879586.26646  22672727.2274                   22672727.4574
        41.7504         39.0004
 25  6 30 21 29 30.0000000  0  9G10G27G18G32G02G23G24G28G08
   -188854.36348   -145536.01648  21019526.7034                   21019524.6254
        49.0004         51.0004
    533177.99647    411891.55547  21593782.9224                   21593781.6764
        45.7504         46.5004
   1806189.60247   1395901.45745  22562391.8444                   22562389.7934
        44.5004         30.7504
  -1459171.19548  -1114372.54748  20739834.0314                   20739832.4414
        50.5004         51.7504
  -1814704.63746  -1376018.03143  24773702.2814                   24773699.8634
        36.5004         22.2504
   1215150.00047    937909.60545  21892750.3834                   21892747.5164
        45.5004         34.0004
    270530.20346    210027.53545  23245684.8914                   23245685.1564
        40.5004         33.7504
  -1132217.49245   -845277.18442  25016973.2114                   25016980.1954
        34.0004         16.2504
  -1187424.89847   -907755.14546  22665847.8284                   22665848.3754
        43.0004         40.0004
 25  6 30 21 30  0.0000000  0  9G10G27G18G32G02G23G24G28G08
   -193868.30548   -149442.97748  21018572.4534                   21018570.6604
        49.2504         51.2504
    560570.82047    433236.59047  21598995.6174                   21598994.0784
        46.5004         46.7504
   1878657.15647   1452369.61745  22576182.3914                   22576181.1254
        44.5004         32.5004
  -1505784.85548  -1150694.84448  20730963.6484                   20730962.1524
        50.7504         51.7504
  -1911266.43046  -1451260.91443  24755327.9144                   24755324.6094
        37.7504         22.5004
   1262916.91447    975130.57045  21901840.1254                   21901837.5084
        46.0004         33.2504
    289345.84046    224689.05945  23249265.5704                   23249265.3874
        40.5004         33.7504
  -1236280.77745   -926365.07842  24997171.0234                   24997176.5864
        33.2504         15.5004
  -1223020.30547   -935491.78946  22659074.1174                   22659074.4384
        42.5004         40.0004
 25  6 30 21 30 30.0000000  0  9G10G27G18G32G02G23G24G28G08
   -198711.59848   -153216.97748  21017650.6724                   21017649.0634
        49.5004         51.5004
    588518.82047    455014.23447  21604313.9304                   21604312.6844
        46.7504         46.5004
   1951452.94147   1509093.51645  22590034.8054                   22590032.9694
        43.7504         30.7504
  -1551902.98448  -1186631.01648  20722187.6804                   20722186.0124
        50.2504         52.0004
  -2007810.48046  -1526489.93444  24736956.8204                   24736952.9534
        39.2504         24.5004
   1310797.68847   1012440.25045  21910951.6564                   21910948.6804
        44.7504         33.0004
    308774.40246    239828.18845  23252962.6564                   23252962.0164
        40.2504         33.5004
  -1340453.832 5                  24977347.633
        31.750
  -1258059.86747   -962795.32046  22652406.6644                   22652406.2074
        42.2504         39.5004
 25  6 30 21 31  0.0000000  0  9G10G27G18G32G02G23G24G28G08
   -203396.44948   -156867.50048  21016759.0554                   21016757.7274
        48.5004         51.5004
    617008.34047    477213.84447  21609735.1254                   21609734.5164
        46.0004         46.5004
   2024564.14847   1566063.24245  22603947.4844                   22603945.5864
        44.0004         31.0004
  -1597537.03548  -1222189.96948  20713503.7274                   20713502.1684
        50.5004         52.2504
  -2104347.25446  -1601713.30144  24718586.1334                   24718582.1644
        40.0004         24.7504
   1358780.21947   1049829.19545  21920082.5704                   21920079.6684
        45.0004         34.0004
    328803.58646    255435.35545  23256774.0634                   23256773.2194
        39.7504         34.0004
                                  24957499.688
        29.000
  -1292554.84846   -989674.50046  22645841.8754                   22645842.1644
        41.5004         39.5004
 25  6 30 21 31 30.0000000  0  9G10G27G18G32G02G23G24G28G08
   -207934.88748   -160403.93748  21015895.3134                   21015893.8054
        48.5004         51.5004
    646026.05947    499825.03147  21615257.1024                   21615255.7854
        46.2504         46.5004
   2097978.44947   1623269.10545  22617917.4924                   22617915.3244
        43.2504         30.5004
  -1642698.14148  -1257380.41048  20704909.9384                   20704908.3484
        50.5004         52.2504
  -2200886.81646  -1676938.83244  24700215.4064                   24700211.8524
        40.2504         24.5004
   1406852.57847   1087288.16845  21929230.1804                   21929227.6374
        44.5004         33.2504
    349421.37946    271501.18445  23260697.4534                   23260696.7154
        39.5004         33.7504
  -1549166.75815                  24937628.961
        31.000
  -1326516.13346  -1016137.83246  22639378.8754                   22639379.5864
        40.7504         39.0004
 25  6 30 21 32  0.0000000  0  9G10G27G18G32G02G23G24G28G08
   -212336.06648   -163833.42648  21015058.0784                   21015056.1954
        50.5004         51.5004
    675561.42247    522839.58247  21620877.4064                   21620876.1724
        46.7504         46.7504
   2171685.97747   1680703.53144  22631943.1484                   22631941.2074
        43.0004         29.5004
  -1687394.72348  -1292208.88348  20696404.3914                   20696402.8324
        50.5004         52.5004
  -2297436.68746  -1752172.38744  24681842.6174                   24681838.6724
        39.5004         25.0004
   1455005.75447   1124810.10945  21938393.6414                   21938390.8634
        44.0004         33.0004
    370618.59846    288018.46345  23264730.6094                   23264731.1174
        38.0004         33.2504
  -1653721.66055   -991342.97353  24917733.2734                   24917736.7774
        33.7504         19.5004
  -1359951.95746  -1042191.71146  22633016.7424                   22633016.9104
        40.0004         38.7504
 25  6 30 21 32 30.0000000  0  9G10G27G18G32G02G23G24G28G08
   -216598.75848   -167155.00448  21014247.0164                   21014245.3094
        51.0004         51.5004
    705614.18847    546257.29747  21626596.5474                   21626595.1564
        47.2504         47.0004
   2245687.55147   1738366.98444  22646026.0634                   22646023.5984
        44.2504         29.2504
  -1731624.82048  -1326673.85948  20687987.8754                   20687985.8244
        50.7504         52.2504
  -2393993.67246  -1827411.48443  24663467.9614                   24663464.1414
        39.0004         22.7504
   1503241.14147   1162396.09845  21947572.7814                   21947569.3164
        44.7504         33.0004
    392396.10546    304987.96145  23268874.8914                   23268874.7584
        39.0004         32.5004
  -1758407.02056  -1072915.53553  24897811.5554                   24897816.1954
        36.2504         19.2504
  -1392860.09046  -1067834.40646  22626754.3284                   22626755.0434
        40.7504         37.5004
 25  6 30 21 33  0.0000000  0  9G10G27G18G32G02G23G24G28G08
   -220728.73848   -170373.17248  21013460.7814                   21013459.7424
        49.2504         51.7504
    736177.20347    570072.60247  21632412.6174                   21632411.4734
        47.7504         47.0004
   2319976.80947   1796254.69544  22660162.3594                   22660159.6484
        42.5004         29.7504
  -1775393.44948  -1360779.25848  20679658.8524                   20679657.0904
        52.0004         52.5004
  -2490561.50446  -1902659.05543  24645091.7894                   24645088.3164
        38.5004         22.0004
   1551553.06347   1200041.74245  21956765.8914                   21956762.8094
        45.5004         32.7504
    414748.23846    322405.18845  23273128.5554                   23273128.4884
        37.7504         32.5004
  -1863225.55946  -1154591.94143  24877865.1094                   24877869.2154
        36.0004         19.2504
  -1425245.42646  -1093069.72346  22620592.0394                   22620592.1214
        41.2504         37.5004
 25  6 30 21 33 30.0000000  0  9G10G27G18G32G02G23G24G28G08
   -224723.32048   -173485.82048  21012700.9844                   21012699.5554
        50.5004         51.7504
    767251.60547    594286.39547  21638325.7734                   21638324.7074
        47.5004         47.0004
   2394555.83247   1854368.11745  22674355.1954                   22674352.8524
        43.0004         30.7504
  -1818697.27748  -1394522.46948  20671418.3594                   20671416.4654
        50.5004         52.2504
  -2587135.83646  -1977911.68043  24626713.6024                   24626710.5084
        36.7504         20.7504
   1599944.27747   1237749.16445  21965974.2974                   21965971.6334
        44.5004         34.0004
    437677.28946    340271.97745  23277491.6334                   23277491.6374
        37.7504         32.7504
  -1968171.87145  -1236367.85542  24857893.6564                   24857897.9654
        35.0004         17.2504
  -1457104.31246  -1117894.82446  22614529.5784                   22614529.2274
        40.5004         38.0004
 25  6 30 21 34  0.0000000  0  9G10G27G18G32G02G23G24G28G08
   -228582.69948   -176493.11748  21011966.3754                   21011964.9774
        51.2504         51.7504
    798835.76248    618897.39547  21644335.7504                   21644335.1954
        48.2504         47.2504
   2469423.94547   1912706.83644  22688601.4924                   22688598.6644
        42.2504         29.0004
  -1861535.77748  -1427903.07848  20663266.4304                   20663264.4654
        50.5004         52.2504
  -2683714.96946  -2053168.03543  24608335.7194                   24608332.2624
        36.7504         20.5004
   1648414.87147   1275518.42645  21975198.0314                   21975194.8134
        44.5004         32.7504
    461182.92646    358588.05945  23281965.0234                   23281964.7384
        39.0004         33.5004
  -2073242.98046  -1318241.02043  24837898.8914                   24837903.4804
        36.0004         18.5004
  -1488436.08246  -1142309.18046  22608567.1884                   22608566.7814
        41.2504         37.5004
 25  6 30 21 34 30.0000000  0  9G10G27G18G32G02G23G24G28G08
   -232313.48048   -179400.21148  21011256.5084                   21011255.0904
        49.7504         51.7504
    830921.46947    643899.22347  21650441.8674                   21650440.5904
        47.5004         47.2504
   2544573.82847   1971265.12545  22702901.8834                   22702900.9104
        43.5004         31.0004
  -1903914.96948  -1460925.78948  20655201.8594                   20655200.0784
        50.7504         52.2504
  -2780303.69146  -2128431.88743  24589955.6724                   24589951.3714
        37.5004         20.2504
   1696958.26647   1313344.42245  21984435.8524                   21984432.4454
        43.7504         32.7504
    485258.19146    377348.02745  23286545.9224                   23286545.8794
        39.2504         33.7504
  -2178442.84446  -1400214.51643  24817879.3984                   24817884.2504
        36.5004         19.2504
  -1519246.54747  -1166317.31246  22602704.6254                   22602704.2274
        42.0004         37.0004
 25  6 30 21 35  0.0000000  0  9G10G27G18G32G02G23G24G28G08
   -235916.19948   -182207.52748  21010570.8204                   21010568.9414
        50.5004         51.5004
    863506.71148    669290.29747  21656642.8914                   21656641.6294
        48.5004         47.0004
   2620004.48847   2030042.19545  22717256.5314                   22717253.2974
        43.7504         30.0004
  -1945834.68448  -1493590.46548  20647224.8284                   20647222.9924
        50.7504         52.2504
  -2876900.61346  -2203702.14543  24571573.1254                   24571569.3754
        38.5004         21.0004
   1745574.09847   1351226.87145  21993686.8134                   21993684.2344
        43.7504         33.0004
    509902.39846    396551.30145  23291235.3984                   23291236.2034
        38.5004         34.2504
  -2283768.94146  -1482286.37943  24797837.1724                   24797841.5394
        36.5004         19.7504
  -1549535.35947  -1189918.96146  22596940.1564                   22596939.9734
        43.0004         38.0004
 25  6 30 21 35 30.0000000  0  9G10G27G18G32G02G23G24G28G08
   -239390.55148   -184914.79748  21009909.4224                   21009908.3364
        49.0004         51.5004
    896590.18048    695069.60547  21662938.2814                   21662936.8444
        48.0004         46.7504
   2695715.36347   2089037.62545  22731662.7344                   22731662.2194
        42.0004         30.5004
  -1987294.04348  -1525896.42648  20639335.4224                   20639333.8754
        50.7504         52.2504
  -2973503.60546  -2278977.12143  24553190.4454                   24553186.2274
        39.0004         20.5004
   1794262.75447   1389166.05945  22002951.7114                   22002949.8364
        45.0004         32.7504
    535115.45746    416197.81345  23296033.3674                   23296034.9344
        38.7504         34.7504
  -2389218.00846  -1564454.03543  24777769.7114                   24777774.8404
        37.5004         20.5004
  -1579301.47347  -1213113.29346  22591275.7664                   22591275.3914
        42.7504         37.5004
 25  6 30 21 36  0.0000000  0  9G10G27G18G32G02G23G24G28G08
   -242740.21948   -187524.91848  21009272.4694                   21009270.7814
        49.2504         51.7504
    930166.51647    721232.96547  21669327.2664                   21669326.4264
        47.7504         46.5004
   2771702.25447   2148248.10245  22746124.0554                   22746120.7814
        43.7504         30.2504
  -2028296.24248  -1557846.15248  20631532.9224                   20631530.8164
        50.5004         52.2504
  -3070114.27346  -2354258.07043  24534806.2114                   24534801.9144
        39.0004         20.7504
   1843020.71547   1427159.26645  22012229.9534                   22012227.3484
        43.5004         31.5004
    560893.28446    436284.40745  23300938.5314                   23300939.5234
        38.7504         33.5004
  -2494790.97346  -1646718.25443  24757679.8594                   24757684.6414
        37.7504         20.7504
  -1608547.78547  -1235902.58646  22585710.5864                   22585710.2734
        44.0004         38.2504
 25  6 30 21 36 30.0000000  0  9G10G27G18G32G02G23G24G28G08
   -245965.03148   -190037.74648  21008658.7114                   21008656.8404
        51.0004         51.7504
    964234.34447    747779.30547  21675810.0004                   21675808.8284
        46.7504         46.2504
   2847964.64847   2207673.28544  22760635.1564                   22760633.4494
        42.7504         29.5004
  -2068840.49648  -1589439.05148  20623817.4144                   20623816.0004
        50.2504         52.2504
  -3166730.98846  -2429543.75043  24516420.7584                   24516416.3874
        38.0004         21.7504
   1891848.24247   1465206.67645  22021521.7344                   22021518.1054
        44.0004         32.5004
    587235.67646    456810.91445  23305951.0704                   23305951.1954
        36.5004         32.0004
  -2600484.63746  -1729076.53143  24737566.2894                   24737571.7234
        37.0004         22.0004
  -1637273.46547  -1258286.20346  22580244.1334                   22580243.5824
        43.7504         38.5004
 25  6 30 21 37  0.0000000  0  9G10G27G18G32G02G23G24G28G08
   -249064.59848   -192452.98448  21008068.8204                   21008067.3794
        50.5004         51.0004
    998792.40647    774707.64147  21682386.4144                   21682385.5234
        46.7504         46.0004
   2924502.32447   2267312.94944  22775201.0314                   22775198.5824
        42.7504         29.7504
  -2108925.80948  -1620674.33248  20616189.5944                   20616187.5044
        50.0004         52.5004
  -3263351.27746  -2504832.20343  24498034.0784                   24498029.8324
        37.5004         21.5004
   1940745.97347   1503308.77045  22030826.8134                   22030824.3954
        44.7504         33.2504
    614142.60946    477777.33145  23311071.3444                   23311071.6844
        38.0004         33.2504
  -2706295.67646  -1811526.23043  24717431.4384                   24717435.6454
        39.0004         22.7504
  -1665477.27747  -1280263.16446  22574877.4384                   22574876.7274
        44.2504         39.5004
 25  6 30 21 37 30.0000000  0  9G10G27G18G32G02G23G24G28G08
   -252040.35948   -194771.74248  21007502.3444                   21007500.8524
        50.5004         51.5004
   1033837.48847    802015.48847  21689055.2584                   21689054.4384
        46.5004         46.0004
   3001313.03547   2327165.39844  22789816.6724                   22789814.0744
        42.5004         28.5004
  -2148553.27048  -1651552.83648  20608648.6174                   20608646.8014
        50.5004         52.5004
  -3359974.99646  -2580123.30543  24479647.2814                   24479643.7424
        36.0004         21.7504
   1989712.42247   1541464.43845  22040144.7814                   22040142.3954
        44.2504         32.2504
    641612.28946    499182.23445  23316299.2034                   23316299.7584
        38.2504         33.2504
  -2812222.58646  -1894066.26644  24697274.3524                   24697277.7624
        41.2504         26.2504
  -1693160.07847  -1301834.14846  22569609.6334                   22569609.1094
        43.0004         39.2504
 25  6 30 21 38  0.0000000  0  9G10G27G18G32G02G23G24G28G08
   -254892.81248   -196994.42648  21006959.6484                   21006958.1024
        52.0004         51.5004
   1069367.42247    829701.12947  21695816.1564                   21695815.3484
        47.5004         46.0004
   3078395.54747   2387229.59845  22804485.6254                   22804484.1604
        43.2504         31.0004
  -2187722.84848  -1682074.54748  20601194.5474                   20601193.2424
        50.5004         52.5004
  -3456600.45346  -2655415.75843  24461260.6724                   24461256.3524
        36.7504         22.0004
   2038747.34047   1579673.44545  22049475.7814                   22049473.0824
        43.7504         32.2504
    669643.57446    521024.76245  23321633.7664                   23321633.6914
        38.7504         33.2504
  -2918263.00846  -1976694.73844  24677095.0164                   24677098.2704
        41.5004         25.0004
  -1720321.74247  -1322999.07046  22564440.7194                   22564440.3554
        43.0004         39.2504
 25  6 30 21 38 30.0000000  0  9G10G27G18G32G02G23G24G28G08
   -257624.55148   -199123.03548  21006439.9534                   21006438.3714
        49.7504         51.5004
   1105377.92247    857761.23047  21702669.1644                   21702668.3444
        46.7504         46.0004
   3155746.67247   2447503.13744  22819205.3754                   22819202.7624
        43.0004         29.7504
  -2226436.62948  -1712241.08648  20593827.7974                   20593826.2234
        50.2504         52.5004
  -3553228.46946  -2730710.16843  24442871.8364                   24442868.9224
        36.5004         22.5004
   2087848.30147   1617933.91445  22058819.3594                   22058816.8484
        44.5004         33.5004
    698233.36746    543302.53145  23327074.2194                   23327074.2544
        40.0004         33.7504
  -3024416.52046  -2059411.38344  24656894.2734                   24656896.9924
        41.0004         24.5004
  -1746964.19147  -1343759.40646  22559370.7424                   22559370.4654
        43.0004         39.5004
 25  6 30 21 39  0.0000000  0  9G10G27G18G32G02G23G24G28G08
   -260236.77348   -201158.52348  21005942.9064                   21005941.2194
        49.5004         51.5004
   1141865.97347    886193.46147  21709612.4774                   21709611.4694
        47.0004         46.0004
   3233364.30547   2507984.35545  22833975.0864                   22833973.5944
        44.0004         30.7504
  -2264695.43048  -1742053.10548  20586547.2814                   20586545.3324
        50.0004         52.7504
  -3649858.34046  -2806006.07843  24424483.2424                   24424480.0944
        37.2504         22.5004
   2137014.13747   1656244.92645  22068175.1334                   22068172.2384
        45.0004         33.0004
    727380.01646    566014.19545  23332620.1884                   23332621.5864
        37.5004         33.7504
  -3130681.48046  -2142214.87144  24636672.3364                   24636675.3524
        41.7504         24.0004
  -1773088.04747  -1364115.64546  22554399.6094                   22554399.2274
        42.2504         39.2504
 25  6 30 21 39 30.0000000  0  9G10G27G18G32G02G23G24G28G08
   -262728.70348   -203100.27348  21005468.5394                   21005466.8834
        49.5004         51.2504
   1178830.52747    914996.99247  21716646.3984                   21716645.6884
        47.2504         46.0004
   3311248.52347   2568673.23845  22848796.4144                   22848795.0354
        43.5004         30.2504
  -2302498.08648  -1771509.68748  20579353.6334                   20579351.8324
        51.0004         52.7504
  -3746487.39846  -2881301.36343  24406096.1414                   24406092.2814
        39.5004         22.7504
   2186245.84447   1694607.28545  22077544.1094                   22077541.0124
        44.0004         33.2504
    757083.64146    589159.85945  23338273.1884                   23338273.1374
        37.5004         34.0004
  -3237054.14546  -2225102.25844  24616430.0234                   24616433.2974
        40.2504         24.5004
  -1798692.02047  -1384066.78946  22549527.5004                   22549527.1134
        43.2504         39.0004
 25  6 30 21 40  0.0000000  0  9G10G27G18G32G02G23G24G28G08
   -265103.21548   -204950.53548  21005016.8834                   21005015.1804
        50.5004         51.5004
   1216266.95747    944168.20747  21723770.6414                   21723769.3324
        47.0004         46.2504
   3389395.62147   2629567.05544  22863667.1484                   22863665.0004
        43.0004         28.5004
  -2339847.11348  -1800612.79748  20572246.4614                   20572244.4024
        50.2504         52.7504
  -3843116.67646  -2956596.85544  24387708.3984                   24387704.0434
        40.5004         25.0004
   2235540.54347   1733018.71945  22086924.6414                   22086921.6724
        44.2504         32.5004
    787340.71546    612736.78145  23344031.0314                   23344031.3164
        39.2504         34.2504
  -3343534.46946  -2308073.54343  24596167.4844                   24596170.7734
        39.0004         22.5004
  -1823778.47747  -1403614.67646  22544753.4144                   22544752.9884
        42.5004         39.7504
 25  6 30 21 40 30.0000000  0  9G10G27G18G32G02G23G24G28G08
   -267355.07048   -206705.21548  21004587.8444                   21004586.4264
        50.5004         51.5004
   1254178.61347    973709.73047  21730985.0164                   21730984.0784
        47.2504         46.2504
   3467810.10947   2690669.12945  22878588.4844                   22878588.1844
        43.0004         30.0004
  -2376736.91448  -1829358.07048  20565226.7274                   20565224.8954
        50.2504         52.7504
  -3939738.88746  -3031886.82044  24369321.4064                   24369317.4734
        41.0004         24.2504
   2284903.71547   1771483.51645  22096318.5084                   22096315.0474
        46.0004         33.0004
    818155.87946    636748.57845  23349894.8284                   23349894.9964
        40.5004         35.2504
  -3450114.27046  -2391122.33243  24575885.5234                   24575888.5864
        39.0004         21.5004
  -1848341.62547  -1422754.79746  22540079.5394                   22540079.0664
        43.2504         40.0004
 25  6 30 21 41  0.0000000  0  9G10G27G18G32G02G23G24G28G08
   -269486.85548   -208366.34048  21004182.3674                   21004180.9534
        50.0004         51.5004
   1292561.07447   1003618.12547  21738289.0704                   21738288.3444
        47.2504         46.2504
   3546488.50046   2751976.93844  22893559.8594                   22893558.7274
        41.0004         28.0004
  -2413169.71148  -1857747.23048  20558293.4144                   20558291.8554
        49.5004         52.7504
  -4036354.88746  -3107171.93044  24350935.7114                   24350932.3244
        41.7504         25.2504
   2334332.81347   1809999.66445  22105723.7584                   22105721.4414
        45.5004         32.5004
    849525.81346    661192.67245  23355863.5704                   23355865.1134
        40.2504         35.5004
  -3556793.21146  -2474248.38343  24555584.5234                   24555587.4344
        39.0004         21.7504
  -1872383.61747  -1441488.81646  22535504.6804                   22535503.9104
        44.0004         39.7504
 25  6 30 21 41 30.0000000  0  9G10G27G18G32G02G23G24G28G08
   -271500.10548   -209935.09448  21003799.2034                   21003797.6094
        49.0004         51.0004
   1331410.93047   1033890.70747  21745681.9774                   21745680.7734
        46.2504         46.2504
   3625428.53147   2813488.55944  22908582.9304                   22908581.4264
        43.2504         29.0004
  -2449146.78548  -1885781.27748  20551447.0864                   20551445.7734
        49.7504         52.5004
  -4132964.47746  -3182452.05544  24332551.5394                   24332547.8164
        41.0004         25.5004
   2383826.44947   1848566.12145  22115142.7034                   22115139.5704
        45.5004         32.5004
    881448.32446    686067.31645  23361939.2814                   23361939.5204
        40.2504         35.2504
  -3663569.81246  -2557450.50443  24535264.8984                   24535267.6724
        40.0004         22.0004
  -1895905.55947  -1459817.59446  22531028.1884                   22531028.3054
        43.7504         40.2504
 25  6 30 21 42  0.0000000  0  9G10G27G18G32G02G23G24G28G08
   -273389.31248   -211407.19148  21003439.8594                   21003437.9654
        50.7504         51.0004
   1370731.73447   1064530.27347  21753164.0554                   21753163.7664
        47.0004         46.0004
   3704634.75046   2875207.59444  22923655.0944                   22923653.1884
        41.7504         28.0004
  -2484662.33648  -1913455.69548  20544688.7664                   20544687.1724
        49.7504         52.5004
  -4229560.00046  -3257721.19144  24314169.2034                   24314166.3164
        39.7504         26.0004
   2433390.29747   1887187.26245  22124574.4694                   22124570.9304
        45.7504         32.5004
    913928.24246    711376.29346  23368120.0864                   23368119.9534
        41.5004         36.0004
  -3770435.69546  -2640722.23043  24514928.3444                   24514931.8954
        39.0004         22.0004
  -1918901.56247  -1477736.55146  22526651.7114                   22526651.7704
        44.7504         40.0004
 25  6 30 21 42 30.0000000  0  9G10G27G18G32G02G23G24G28G08
   -275158.30148   -212785.61748  21003103.4144                   21003101.6954
        48.7504         51.0004
   1410517.71547   1095532.30547  21760735.5084                   21760734.6214
        47.5004         46.0004
   3784102.46147   2937130.44144  22938778.3754                   22938775.6334
        43.0004         29.5004
  -2519719.97348  -1940773.30148  20538017.5314                   20538016.1214
        49.0004         52.7504
  -4326143.39546  -3332980.87544  24295790.3444                   24295787.3874
        39.5004         25.7504
   2483020.59447   1925860.19945  22134018.6024                   22134015.7384
        44.7504         33.2504
    946960.77747    737115.91045  23374405.4384                   23374405.3054
        42.5004         35.5004
  -3877391.73846  -2724064.21943  24494576.0394                   24494578.3404
        39.0004         20.0004
  -1941375.05147  -1495248.34046  22522375.7734                   22522375.3954
        45.7504         39.5004
 25  6 30 21 43  0.0000000  0  9G10G27G18G32G02G23G24G28G08
   1298614.29748   1013530.69948  21302582.2194                   21302580.1214
        50.5004         51.0004
   3026186.95747   2354495.32047  22068187.0314                   22068186.1724
        46.7504         46.2504
   5439249.48846   4226855.29344  23253740.6254                   23253740.9654
        41.7504         29.5004
   -978896.91848   -740131.92648  20831226.6024                   20831224.9024
        50.0004         52.7504
  -2847288.53546  -2180626.33244  24577207.3834                   24577203.8134
        39.7504         27.0004
   4108137.17647   3192184.77745  22443268.2274                   22443264.9414
        46.0004         33.0004
   2555965.39147   1990885.72346  23680589.2584                   23680588.7194
        42.7504         36.0004
  -2409010.11746  -1579870.38743  24773999.2034                   24774001.7734
        38.5004         20.5004
   -387903.62547   -284751.10946  22817991.1024                   22817990.8874
        45.5004         39.5004
 25  6 30 21 43 30.0000000  0  9G10G27G18G32G02G23G24G28G08
   1297086.24648   1012340.02348  21302291.4224                   21302289.9104
        49.5004         51.0004
   3066897.98847   2386218.17647  22075934.0004                   22075932.9844
        46.5004         45.5004
   5519238.04747   4289184.01644  23268962.8444                   23268960.7934
        43.0004         28.2504
  -1013037.49648   -766734.94548  20824729.8754                   20824727.9844
        50.0004         53.0004
  -2943841.91846  -2255862.61744  24558833.6254                   24558830.1054
        40.0004         25.2504
   4157901.34447   3230962.02745  22452738.3984                   22452735.2114
        45.0004         33.0004
   2590101.36747   2017485.16045  23687085.6024                   23687084.6094
        42.0004         34.7504
  -2516137.14146  -1663345.57843  24753613.5634                   24753616.3284
        38.2504         19.5004
   -409330.58247   -301447.41046  22813913.7194                   22813913.6294
        45.5004         39.0004
 25  6 30 21 44  0.0000000  0  9G10G27G18G32G02G23G24G28G08
   1295677.83248   1011242.56348  21302023.3054                   21302021.7074
        49.5004         51.0004
   3108067.60547   2418298.37147  22083768.3754                   22083767.8954
        46.2504         45.5004
   5599484.84046   4351713.87944  23284233.2274                   23284232.6054
        41.5004         29.2504
  -1046720.14148   -792981.13348  20818320.2664                   20818318.2194
        49.2504         52.7504
  -3040378.39546  -2331085.75044  24540463.5864                   24540460.0274
        40.5004         25.0004
   4207731.72747   3269790.87145  22462220.2894                   22462217.9224
        44.5004         32.7504
   2624786.95346   2044512.87145  23693685.3444                   23693686.2344
        40.7504         35.2504
  -2623346.12146  -1746884.69943  24733211.5474                   24733214.2504
        37.0004         18.2504
   -430234.69947   -317736.30546  22809935.9144                   22809936.0434
        46.0004         38.7504
 25  6 30 21 44 30.0000000  0  9G10G27G18G32G02G23G24G28G08
   1294390.46548   1010239.41848  21301778.3674                   21301776.8134
        49.0004         51.0004
   3149695.26247   2450735.47747  22091690.2194                   22091689.3164
        46.5004         45.7504
   5679990.28147   4414445.30144  23299553.7814                   23299551.7234
        42.0004         28.5004
  -1079943.29748   -818869.27748  20811997.6804                   20811995.8554
        50.0004         52.7504
  -3136894.46546  -2406292.97744  24522097.1954                   24522093.2234
        41.5004         25.5004
   4257629.87547   3308672.51645  22471715.4384                   22471712.5824
        44.0004         32.0004
   2660022.62546   2071969.20745  23700391.1804                   23700390.8714
        41.7504         34.5004
  -2730632.68746  -1830484.24243  24712795.3054                   24712797.8794
        37.5004         18.5004
   -450614.28147   -333616.47746  22806058.0234                   22806057.5354
        45.7504         38.2504
 25  6 30 21 45  0.0000000  0  9G10G27G18G32G02G23G24G28G08
   1293223.85248   1009330.37948  21301556.5474                   21301554.8674
        49.2504         51.0004
   3191778.57847   2483527.64147  22099698.3984                   22099697.5274
        46.5004         45.5004
   5760753.18846   4477377.37944  23314921.6024                   23314920.9884
        41.5004         28.0004
  -1112707.13348   -844399.51648  20805763.1254                   20805761.5084
        50.7504         53.0004
  -3233388.64846  -2481483.16444  24503734.3674                   24503730.6294
        40.7504         25.0004
   4307595.59447   3347606.80945  22481223.8594                   22481220.7934
        45.7504         32.2504
   2695807.12147   2099853.21545  23707200.2274                   23707199.6254
        42.2504         34.5004
  -2837994.14546  -1914142.15643  24692365.3834                   24692367.8364
        38.7504         20.7504
   -470469.41047   -349087.97346  22802279.4844                   22802279.2664
        45.7504         38.5004
 25  6 30 21 45 30.0000000  0  9G10G27G18G32G02G23G24G28G08
   1292174.67248   1008512.84448  21301356.9064                   21301355.2114
        49.7504         51.0004
   3234312.14147   2516670.66447  22107792.0004                   22107791.2074
        47.0004         45.5004
   5841769.22347   4540506.65645  23330339.5634                   23330337.7234
        42.5004         30.2504
  -1145014.84048   -869574.32448  20799615.2974                   20799613.2624
        50.5004         53.2504
  -3329862.35546  -2556657.40644  24485376.5164                   24485372.0664
        41.0004         24.5004
   4357625.77747   3386591.32845  22490743.9924                   22490741.0944
        44.7504         31.7504
   2732136.19146   2128161.55545  23714113.6254                   23714112.7624
        41.2504         34.0004
  -2945430.87546  -1997858.71143  24671920.3054                   24671922.1024
        38.2504         20.7504
   -489803.22347   -364153.26246  22798600.4614                   22798600.1024
        44.7504         38.0004
 25  6 30 21 46  0.0000000  0  9G10G27G18G32G02G23G24G28G08
   1291240.88348   1007785.22748  21301179.0474                   21301177.3014
        49.5004         51.0004
   3277291.86347   2550161.32047  22115971.2274                   22115970.2584
        46.7504         46.0004
   5923035.41446   4603830.89844  23345803.0314                   23345800.6644
        41.2504         27.0004
  -1176868.35948   -894395.23048  20793553.9844                   20793552.0274
        51.2504         53.7504
  -3426315.52746  -2631815.62543  24467021.7584                   24467017.7304
        40.5004         23.5004
