     2.11           OBSERVATION DATA    G (GPS)             RINEX VERSION / TYPE
teqc  2019Feb25     K Rivera            20250804 23:58:32UTCPGM / RUN BY / DATE
Linux 2.6.32-573.12.1.x86_64|x86_64|gcc -static|Linux 64|=+ COMMENT
teqc  2019Feb25                         20250804 23:52:32UTCCOMMENT
BIT 2 OF LLI FLAGS DATA COLLECTED UNDER A/S CONDITION       COMMENT
SUNH                                                        MARKER NAME
                                                            MARKER NUMBER
K Baraggiotta       University of California, Riverside     OBSERVER / AGENCY
4549261310          TRIMBLE NETRS       1.3-2               REC # / TYPE / VERS
12606420            TRM41249.00                             ANT # / TYPE
 -2441455.3851 -4658103.3612  3598097.8843                  APPROX POSITION XYZ
        1.0789        0.0000        0.0000                  ANTENNA: DELTA H/E/N
     1     1                                                WAVELENGTH FACT L1/2
     7    L1    L2    C1    P1    P2    S1    S2            # / TYPES OF OBSERV
    18                                                      LEAP SECONDS
 SNR is mapped to RINEX snr flag value [0-9]                COMMENT
  L1 & L2: min(max(int(snr_dBHz/6), 0), 9)                  COMMENT
  2025     7    14    22    19   30.0000000     GPS         TIME OF FIRST OBS
                                                            END OF HEADER
 25  7 14 22 19 30.0000000  0  6G02G08G27G10G28G23
     -1161.18657     37459.16955  23225970.2194                   23225959.2154
        43.2504         30.5004
    154675.80457    125787.22756  22744251.2034                   22744245.1804
        43.0004         37.0004
    247017.25457    179296.01156  22802583.2664                   22802577.2424
        42.5004         38.7504
    150587.66658    125101.10458  21292857.2584                   21292849.5944
        50.5004         48.2504
    -46292.81457     20761.82154  23240678.8364                   23240671.5234
        43.0004         26.5004
    212814.31656    156156.96354  23116426.6334                   23116418.5004
        41.5004         27.0004
 25  7 14 22 19 45.0000000  0  8G18G02G08G27G10G28G23G32
    282019.89056    200109.31654  24445933.9924                   24445927.3244
        41.0004         25.5004
    -42052.07447      5596.15845  23218188.2034                   23218178.0204
        43.0004         30.5004
    166762.31047    135205.26146  22746551.2114                   22746545.3054
        42.5004         37.2504
    285099.48847    208970.44146  22809830.1644                   22809824.1994
        42.0004         39.2504
    158393.13348    131183.27548  21294342.6564                   21294335.4024
        50.2504         48.5004
    -94781.32147    -17021.37344  23231451.5704                   23231443.9064
        43.0004         26.7504
    244496.93447    180844.67644  23122455.5784                   23122447.9144
        42.0004         26.7504
    152944.21158    126849.49758  20541081.4224                   20541073.5824
        52.0004         52.0004
 25  7 14 22 20  0.0000000  0  8G18G02G08G27G10G28G23G32
    334083.38646    240678.19744  24455841.4694                   24455834.9184
        40.0004         25.5004
    -82897.17647    -26231.18545  23210416.1334                   23210405.5394
        43.7504         30.5004
    178971.75047    144719.09146  22748874.9144                   22748868.4224
        43.0004         36.7504
    323253.64347    238700.91846  22817091.2114                   22817084.9534
        42.5004         38.5004
    166235.89848    137294.50748  21295835.1884                   21295827.6994
        50.5004         48.5004
   -143230.48247    -54773.93344  23222231.9144                   23222223.9574
        43.0004         27.0004
    276204.09646    205551.53344  23128489.5944                   23128481.1094
        41.0004         27.0004
    156265.29248    129437.34948  20541713.4844                   20541705.5864
        51.5004         51.7504
 25  7 14 22 20 15.0000000  0  9G18G02G08G27G31G10G28G23G32
    386186.97446    281278.25143  24465756.3834                   24465749.7734
        39.0004         22.7504
   -123700.55647    -58026.01645  23202651.3284                   23202640.6764
        43.5004         30.2504
    191299.61947    154325.19646  22751220.6564                   22751214.3984
        43.0004         37.0004
    361475.15447    268483.88046  22824364.3444                   22824358.1454
        42.0004         38.5004
     18055.85555     46311.71053  25087311.3914                   25087310.1174
        33.5004         18.2504
    174111.72948    143431.50648  21297334.4144                   21297326.3984
        50.2504         48.5004
   -191644.15647    -92498.79744  23213019.3984                   23213011.5004
        43.0004         27.7504
    307931.59746    230274.23044  23134526.5634                   23134518.4884
        41.2504         26.5004
    159690.96648    132106.69848  20542365.4614                   20542357.3284
        51.7504         51.7504
 25  7 14 22 20 30.0000000  0  9G18G02G08G27G31G10G28G23G32
    438338.12846    321915.43443  24475679.6414                   24475674.2034
        39.7504         22.5004
   -164454.10647    -89782.01345  23194896.3364                   23194885.6254
        44.5004         30.0004
    203753.55947    164029.55546  22753590.5004                   22753584.3014
        42.5004         37.2504
    399771.44247    298325.11146  22831651.5784                   22831645.6724
        42.5004         38.0004
    -36942.12745      3456.41043  25076846.5704                   25076844.2424
        33.0004         20.0004
    182028.47148    149600.38848  21298840.8914                   21298832.2894
        49.5004         48.7504
   -240014.10547   -130189.61044  23203814.9614                   23203807.2974
        43.0004         27.5004
    339687.19646    255018.80644  23140569.1094                   23140561.3874
        41.5004         25.2504
    163228.83248    134863.46648  20543038.8524                   20543030.6604
        51.0004         51.7504
 25  7 14 22 20 45.0000000  0  9G18G02G08G27G31G10G28G23G32
    490533.25046    362586.89643  24485613.0784                   24485606.6454
        38.5004         22.5004
   -205160.93447   -121501.59945  23187149.7664                   23187139.6994
        44.2504         30.5004
    216329.97447    173829.32946  22755983.8594                   22755977.7194
        42.7504         37.2504
    438138.69346    328221.63746  22838952.5634                   22838946.5984
        41.5004         38.0004
    -91971.43045    -39423.33743  25066374.8284                   25066372.2664
        33.0004         20.2504
    189982.74648    155798.51448  21300354.5394                   21300346.1724
        50.2504         48.5004
   -288343.42747   -167848.76844  23194618.7274                   23194610.3014
        43.0004         28.5004
    371467.57946    279782.69244  23146617.0004                   23146608.9844
        41.0004         26.5004
    166875.37348    137704.91848  20543732.6484                   20543724.2814
        52.2504         51.5004
 25  7 14 22 21  0.0000000  0  9G18G02G08G27G31G10G28G23G32
    542771.55646    403291.98743  24495553.4384                   24495547.0044
        38.2504         21.7504
   -245821.29647   -153184.98045  23179412.6724                   23179402.2544
        44.2504         30.7504
    229027.99547    183723.87046  22758399.6484                   22758393.9184
        42.0004         37.0004
    476575.94947    358172.70746  22846266.6334                   22846260.7854
        42.0004         38.0004
   -147032.30145    -82327.69143  25055895.7734                   25055893.9734
        33.2504         19.2504
    197974.01548    162025.46148  21301875.1484                   21301866.8404
        50.7504         48.5004
   -336632.28147   -205476.39444  23185428.8834                   23185421.8634
        43.0004         28.5004
    403272.13846    304565.42844  23152668.9224                   23152661.1994
        41.7504         26.2504
    170629.84448    140630.47348  20544447.0554                   20544439.0394
        51.0004         51.5004
 25  7 14 22 21 15.0000000  0  9G18G02G08G27G31G10G28G23G32
    595052.84246    444030.56943  24505501.2664                   24505495.8874
        37.2504         21.5004
   -286435.15547   -184832.12745  23171684.2504                   23171673.0124
        44.5004         30.2504
    241847.53147    193713.10146  22760838.9304                   22760833.6684
        42.0004         37.2504
    515082.87247    388178.06146  22853594.5944                   22853588.6294
        42.7504         38.0004
   -202124.46145   -125256.40543  25045413.2814                   25045410.2504
        33.2504         19.7504
    206002.29148    168281.25248  21303403.1094                   21303394.6844
        50.5004         48.2504
   -384880.27047   -243072.15244  23176247.1884                   23176240.1094
        43.0004         27.2504
    435100.91646    329367.04144  23158725.6484                   23158718.1024
        41.0004         25.5004
    174492.06848    143639.99648  20545182.1484                   20545173.8404
        51.7504         51.5004
 25  7 14 22 21 30.0000000  0  9G18G02G08G27G31G10G28G23G32
    647376.73746    484802.33143  24515458.7424                   24515453.0704
        36.2504         21.5004
   -327002.07547   -216442.69344  23163964.3754                   23163953.8404
        44.2504         29.5004
    254788.14247    203796.69146  22763301.7424                   22763296.0704
        42.5004         36.7504
    553658.89747    418237.27346  22860935.5704                   22860929.4304
        42.5004         38.2504
   -257247.58645   -168209.27143  25034922.6724                   25034920.2854
        32.5004         20.7504
    214067.52548    174565.83548  21304937.7504                   21304929.4414
        50.5004         48.5004
   -433087.15547   -280635.91544  23167073.8444                   23167066.1804
        43.7504         27.2504
    466953.78046    354187.41944  23164787.4774                   23164779.4614
        41.0004         26.7504
    178461.77348    146733.26548  20545937.5554                   20545929.4224
        52.2504         51.5004
 25  7 14 22 21 45.0000000  0  9G18G02G08G27G31G10G28G23G32
    699743.42145    525607.45343  24525422.9224                   24525418.0164
        34.7504         19.5004
   -367521.54647   -248016.29244  23156253.6094                   23156242.7234
        44.5004         29.5004
    267850.07247    213974.79446  22765786.9454                   22765781.3914
        42.5004         37.2504
    592304.05047    448350.33846  22868289.1884                   22868283.0474
        42.5004         39.0004
   -312401.01545   -211185.71843  25024427.1094                   25024425.4264
        32.5004         19.7504
    222170.10248    180879.52448  21306479.3984                   21306471.2664
        50.7504         48.2504
   -481252.14747   -318167.02144  23157908.5474                   23157900.8244
        43.0004         26.5004
    498831.17847    379026.93944  23170853.5864                   23170845.7464
        42.2504         25.5004
    182539.21648    149910.49248  20546713.3754                   20546704.9494
        52.2504         51.5004
 25  7 14 22 22  0.0000000  0  9G18G02G08G27G31G10G28G23G32
    752152.81345    566445.82243  24535397.1724                   24535391.2664
        34.2504         19.2504
   -407993.18447   -279552.61645  23148552.1804                   23148541.5274
        44.5004         30.2504
    281033.17647    224247.31946  22768296.2034                   22768290.6484
        42.2504         37.5004
    631018.03346    478517.04546  22875656.3444                   22875650.4964
        41.7504         38.7504
   -367584.28655   -254185.42953  25013925.9144                   25013923.7034
        32.2504         20.0004
    230310.14548    187222.41048  21308028.7584                   21308020.0984
        50.0004         48.0004
   -529374.76147   -355665.12844  23148751.2344                   23148742.7504
        42.7504         27.0004
    530733.18446    403885.60444  23176923.7664                   23176916.1604
        41.5004         24.2504
    186724.28548    153171.57948  20547509.8754                   20547501.4494
        51.2504         51.5004
 25  7 14 22 22 15.0000000  0  9G18G02G08G27G31G10G28G23G32
    804603.61646    607316.50043  24545377.5944                   24545372.0984
        36.0004         20.2504
   -448417.76547   -311052.26845  23140859.6254                   23140848.9734
        44.5004         30.2504
    294336.27346    234613.35446  22770827.4924                   22770821.6454
        41.2504         37.2504
    669799.53346    508736.35846  22883036.2734                   22883030.4264
        41.2504         38.5004
   -422798.29645   -297209.06943  25003419.6414                   25003416.4344
        32.7504         19.0004
    238486.72148    193593.76248  21309584.2974                   21309575.9884
        50.0004         48.2504
   -577455.62847   -393130.66544  23139601.3204                   23139593.4804
        43.2504         26.5004
    562658.85947    428762.70844  23182999.4384                   23182991.2464
        42.0004         26.2504
    191015.86848    156515.66348  20548326.4064                   20548318.1564
        52.7504         51.7504
 25  7 14 22 22 30.0000000  0  9G18G02G08G27G31G10G28G23G32
    857097.24045    648220.48343  24555367.7114                   24555361.2774
        32.0004         18.5004
   -488793.50247   -342513.86445  23133176.7734                   23133165.4774
        45.0004         30.2504
    307760.73347    245073.94746  22773382.0474                   22773376.3754
        42.7504         37.0004
    708649.63747    539009.13246  22890429.3754                   22890423.1174
        42.2504         38.2504
   -478040.82345   -340254.98543  24992905.4694                   24992904.0784
        32.2504         20.0004
    246701.42248    199994.82148  21311148.1334                   21311139.6484
        50.5004         48.2504
   -625492.80747   -430562.17044  23130460.0004                   23130452.1604
        42.5004         28.2504
    594609.78746    453659.49944  23189079.4614                   23189071.5044
        41.7504         26.0004
    195415.41948    159943.87648  20549163.9064                   20549155.4804
        52.0004         51.7504
 25  7 14 22 22 45.0000000  0  9G18G02G08G27G31G10G28G23G32
    909632.21945    689156.77242  24565364.1954                   24565359.2304
        34.2504         17.7504
   -529121.22747   -373938.04845  23125501.7974                   23125491.3794
        45.5004         30.5004
    321305.11247    255627.99146  22775959.8754                   22775954.0864
        43.0004         37.2504
    747566.87947    569334.22046  22897834.9694                   22897828.9454
        42.0004         38.2504
   -533312.77445   -383323.78643  24982388.6174                   24982385.5274
        32.7504         19.7504
    254953.11248    206424.69448  21312718.2584                   21312709.8324
        50.7504         48.0004
   -673487.04447   -467960.22744  23121327.3754                   23121318.8914
        43.2504         27.2504
    626584.76747    478575.01544  23195165.0164                   23195155.8874
        42.0004         24.5004
    199921.49448    163455.09948  20550021.3054                   20550012.6454
        52.5004         51.7504
 25  7 14 22 23  0.0000000  0  9G18G02G08G27G31G10G28G23G32
    962208.47545    730125.12843  24575369.6334                   24575364.0204
        34.7504         19.2504
   -569400.58947   -405324.54845  23117837.5004                   23117826.4964
        45.5004         30.2504
    334969.32147    266275.41046  22778560.2424                   22778553.8674
        42.7504         36.7504
    786550.87447    599711.32146  22905253.2974                   22905247.6844
        42.5004         38.5004
   -588613.97145   -426415.40643  24971863.8754                   24971861.9574
        34.2504         21.0004
    263241.93048    212883.51048  21314295.4614                   21314287.4454
        51.0004         48.5004
   -721437.93747   -505324.51744  23112202.4304                   23112193.9454
        43.0004         26.5004
    658583.98446    503509.47044  23201253.5314                   23201245.5164
        41.5004         24.5004
    204534.08448    167049.31548  20550899.0784                   20550890.5944
        52.5004         51.7504
 25  7 14 22 23 15.0000000  0  9G18G02G08G27G31G10G28G23G32
   1014825.96246    771125.71143  24585382.7504                   24585376.8444
        36.5004         19.0004
   -609631.24547   -436673.09545  23110181.6644                   23110170.4844
        45.0004         30.5004
    348753.36147    277016.20446  22781182.8364                   22781177.0474
        42.2504         36.5004
    825601.54247    630140.38246  22912684.6334                   22912678.4924
        42.0004         38.2504
   -643943.76055   -469529.28853  24961335.9844                   24961332.6604
        33.2504         20.5004
    271568.08248    219371.40648  21315879.6954                   21315871.7384
        51.0004         48.5004
   -769344.82047   -542654.50444  23103085.6644                   23103077.1804
        42.7504         26.0004
    690607.61347    528462.91544  23207347.7194                   23207339.4694
        42.0004         25.2504
    209253.23048    170726.56948  20551797.0234                   20551788.6564
        53.0004         51.7504
 25  7 14 22 23 30.0000000  0  9G18G02G08G27G31G10G28G23G32
   1067489.15046    812161.84643  24595404.8134                   24595398.0864
        36.0004         19.2504
   -649808.04147   -467979.66645  23102536.2034                   23102525.5514
        45.0004         31.5004
    362661.73347    287853.87146  22783829.3134                   22783823.2894
        43.0004         37.5004
    864723.16847    660624.72646  22920129.5554                   22920123.3554
        42.7504         38.7504
                                  24950802.2894                   24950799.0234
        33.2504         20.5004
    279936.35248    225892.13848  21317472.1484                   21317464.0164
        50.5004         48.2504
   -817202.64447   -579946.25344  23093978.8444                   23093971.2384
        43.7504         27.0004
    722660.45047    553439.11044  23213447.1564                   23213438.4964
        42.0004         24.5004
    214083.51348    174490.41948  20552716.1884                   20552707.8794
        52.7504         51.7504
 25  7 14 22 23 45.0000000  0  9G18G02G08G27G31G10G28G23G32
   1120184.10946    853222.78543  24605431.6024                   24605425.9884
        37.7504         19.5004
   -689944.48347   -499254.79845  23094898.6954                   23094887.3404
        45.0004         30.5004
    376680.44347    298777.52646  22786497.3984                   22786491.7274
        43.2504         37.5004
    903901.60547    691153.33946  22927584.7274                   22927578.7624
        43.0004         39.2504
   -754687.68045   -555822.79343  24940261.1484                   24940257.7074
        32.5004         20.7504
    288332.99548    232434.96648  21319069.7664                   21319061.3404
        50.5004         48.0004
   -865024.74647   -617210.17144  23084879.0004                   23084870.3404
        43.0004         28.0004
    754728.66947    578427.30344  23219550.0474                   23219540.9184
        42.2504         25.5004
    219010.97948    178330.00248  20553653.6804                   20553645.3714
        53.2504         51.7504
 25  7 14 22 24  0.0000000  0  9G18G02G08G27G31G10G28G23G32
   1172927.47846    894321.43343  24615468.5474                   24615462.7584
        37.5004         20.7504
   -730023.34447   -530485.05145  23087271.8364                   23087260.5984
        45.0004         30.7504
    390826.23147    309800.20246  22789189.3754                   22789183.1174
        43.0004         37.2504
    943153.42847    721739.14946  22935053.9534                   22935048.0474
        42.0004         39.5004
   -810097.95745   -598999.40843  24929717.5784                   24929713.9614
        32.2504         20.2504
    296775.04848    239013.19148  21320676.4774                   21320667.8754
        50.5004         48.2504
   -912793.84247   -654432.79844  23075788.0784                   23075779.9454
        43.2504         28.0004
    786829.30847    603440.76044  23225657.7424                   23225649.4924
        42.5004         24.0004
    224052.42848    182258.39748  20554613.1804                   20554605.1644
        52.5004         52.0004
 25  7 14 22 24 15.0000000  0  9G18G02G08G27G31G10G28G23G32
   1225707.52046    935448.65343  24625512.0474                   24625506.4344
        37.5004         20.0004
   -770056.15247   -561679.42845  23079653.9694                   23079642.1454
        44.5004         30.5004
    405087.17647    320912.60246  22791902.9614                   22791897.0554
        42.7504         37.0004
    982466.58047    752372.73046  22942535.1954                   22942529.4654
        42.0004         39.2504
   -865539.46245   -642200.33843  24919167.0004                   24919162.7974
        32.2504         19.2504
    305250.78348    245617.65248  21322289.0944                   21322280.5514
        50.0004         48.0004
   -960521.17347   -691622.86844  23066706.0314                   23066697.7814
        42.5004         27.5004
    818950.70347    628470.40244  23231770.5234                   23231762.2154
        42.0004         25.0004
    229195.98848    186266.36348  20555591.8674                   20555583.5594
        53.0004         51.7504
 25  7 14 22 24 30.0000000  0  9G18G02G08G27G31G10G28G23G32
   1278527.81046    976607.23143  24635563.3914                   24635558.6024
        37.5004         19.5004
   -810038.59547   -592834.54144  23072044.9384                   23072034.1094
        44.5004         29.0004
    419467.08847    332117.72446  22794638.9224                   22794633.3674
        42.7504         37.2504
   1021844.72347    783056.95546  22950028.7504                   22950022.3754
        42.5004         38.5004
   -921007.63845   -685422.08143  24908612.2424                   24908608.3914
        35.5004         20.7504
    313764.35548    252251.59647  21323909.5084                   21323901.4344
        50.0004         47.5004
  -1008202.39747   -728777.01344  23057632.4384                   23057624.3054
        42.5004         28.2504
    851096.86547    653519.33244  23237887.6174                   23237879.3094
        42.5004         26.2504
    234445.53548    190356.91848  20556590.9144                   20556582.1954
        52.7504         51.5004
 25  7 14 22 24 45.0000000  0  9G18G02G08G27G31G10G28G23G32
   1331388.50646   1017797.24543  24645623.1024                   24645617.3714
        36.7504         19.2504
   -849970.23647   -623950.08344  23064446.7344                   23064435.2034
        44.5004         29.0004
    433965.93047    343415.51246  22797398.5784                   22797392.2034
        43.5004         37.2504
   1061287.56146    813791.60446  22957534.0084                   22957528.2194
        41.0004         38.0004
   -976501.92146   -728664.07544  24898050.7814                   24898047.8674
        36.5004         26.0004
    322315.87748    258915.11848  21325536.5314                   21325528.7504
        50.5004         48.0004
  -1055836.89447   -765894.74244  23048567.4844                   23048559.8794
        43.0004         27.7504
    883267.98947    678587.70344  23244010.0634                   23244001.6374
        42.2504         24.5004
    239801.08148    194530.06948  20557610.0944                   20557601.9024
        52.5004         51.5004
 25  7 14 22 25  0.0000000  0  9G18G02G08G27G31G10G28G23G32
   1384288.69046   1059018.06643  24655689.7974                   24655683.6564
        36.2504         19.0004
   -889851.25747   -655026.18245  23056857.1024                   23056845.8054
        44.0004         30.2504
    448582.90347    354805.34246  22800180.0944                   22800173.8364
        43.7504         38.0004
   1100794.22647    844575.97046  22965052.2424                   22965046.2194
        42.5004         38.0004
  -1032022.97146   -771927.01644  24887485.0164                   24887482.2774
        36.7504         26.7504
    330904.85848    265607.82948  21327170.8204                   21327162.9224
        50.0004         48.0004
  -1103424.88347   -802976.24144  23039512.0164                   23039503.7664
        43.5004         28.0004
    915463.53847    703675.11944  23250136.8524                   23250128.3094
        42.5004         24.2504
    245261.88148    198785.23848  20558649.3364                   20558640.7344
        52.5004         51.5004
 25  7 14 22 25 15.0000000  0  9G18G02G08G27G31G10G28G23G32
   1437228.21046   1100269.59442  24665763.7114                   24665757.5704
        37.5004         17.2504
   -929681.38747   -686062.62644  23049277.3594                   23049266.8244
        44.0004         29.7504
    463317.84547    366287.09746  22802984.5784                   22802977.7934
        42.0004         37.5004
   1140364.33246    875409.79346  22972582.7274                   22972576.2934
        41.0004         38.5004
  -1087570.11946   -815210.28944  24876914.0864                   24876911.8164
        37.2504         25.7504
    339531.43848    272329.83747  21328812.6804                   21328804.7234
        49.5004         47.7504
  -1150965.91647   -840021.14344  23030465.7344                   23030456.8404
        43.5004         28.2504
    947683.61347    728781.63944  23256268.2734                   23256259.3204
        42.0004         26.5004
    250827.82948    203122.33248  20559708.6024                   20559700.3524
        52.2504         51.5004
 25  7 14 22 25 30.0000000  0  9G18G02G08G27G31G10G28G23G32
   1490206.99946   1141551.65743  24675845.2504                   24675839.1094
        38.5004         18.5004
   -969460.32447   -717059.17844  23041708.1724                   23041696.6994
        43.7504         29.7504
    478170.65247    377860.69646  22805810.2034                   22805804.4144
        43.2504         37.2504
   1179997.72546    906292.90946  22980124.1954                   22980118.1724
        41.5004         38.5004
  -1143142.90946   -858513.55744  24866339.5004                   24866335.9414
        38.5004         26.5004
    348195.72648    279081.21647  21330461.1724                   21330452.8634
        50.0004         47.5004
  -1198459.45847   -877029.05644  23021427.5944                   23021419.4614
        43.0004         27.7504
    979928.34347    753907.35544  23262404.2814                   23262395.3874
        42.0004         26.0004
    256498.90648    207541.35348  20560787.3134                   20560779.2384
        52.7504         51.5004
 25  7 14 22 25 45.0000000  0  9G18G02G08G27G31G10G28G23G32
   1543225.11846   1182864.41742  24685934.8754                   24685928.8524
        37.7504         16.7504
  -1009187.43347   -748015.34145  23034148.7424                   23034137.0944
        43.5004         30.2504
    493141.45147    389526.23446  22808659.2894                   22808653.1484
        42.5004         37.2504
   1219694.24747    937225.23046  22987678.3204                   22987672.4144
        42.5004         38.5004
  -1198740.71846   -901836.32344  24855759.7194                   24855756.2194
        38.2504         26.7504
    356898.14348    285862.32047  21332116.7814                   21332109.1764
        50.5004         47.7504
  -1245904.80147   -913999.40444  23012399.2734                   23012391.0824
        43.2504         27.2504
   1012198.11546    779052.60944  23268544.9224                   23268536.0864
        41.7504         26.0004
    262275.27448    212042.42248  20561886.3984                   20561878.3244
        52.2504         51.5004
 25  7 14 22 26  0.0000000  0  9G18G02G08G27G31G10G28G23G32
   1596281.57746   1224207.02442  24696030.4844                   24696024.8134
        37.2504         16.2504
  -1048863.13047   -778931.44244  23026598.5394                   23026587.0084
        43.7504         29.7504
    508229.17247    401282.87746  22811530.1484                   22811524.4774
        42.7504         37.5004
   1259452.70647    968205.81146  22995244.2584                   22995238.2934
        42.0004         38.5004
  -1254364.03446   -945178.96544  24845174.5554                   24845171.0554
        39.7504         29.0004
    365637.90448    292672.52447  21333780.0474                   21333772.5594
        50.0004         47.7504
  -1293302.38647   -950932.52744  23003379.6804                   23003371.4304
        43.2504         28.7504
   1044492.08047    804216.69744  23274689.6094                   23274681.5354
        42.5004         24.7504
    268155.94648    216624.76448  20563006.0234                   20562997.4224
        52.5004         51.5004
 25  7 14 22 26 15.0000000  0  9G18G02G08G27G31G10G28G23G32
   1649377.00746   1265580.01543  24706134.0704                   24706128.5164
        39.0004         18.2504
  -1088486.32347   -809806.64444  23019058.4774                   23019046.9454
        43.2504         29.5004
    523434.42347    413131.11746  22814423.7344                   22814417.4774
        43.2504         36.7504
   1299273.60547    999235.04146  23002821.9384                   23002816.0904
        42.2504         38.5004
  -1310011.62946   -988540.54544  24834585.3754                   24834581.3484
        39.0004         25.7504
    374415.87448    299512.49447  21335450.5234                   21335442.6254
        50.0004         47.7504
  -1340650.99547   -987827.49544  22994369.5634                   22994361.1954
        43.0004         27.5004
   1076811.16546    829400.37544  23280839.8914                   23280831.6994
        41.5004         24.5004
    274141.54948    221288.86848  20564144.9534                   20564136.4104
        52.5004         51.5004
 25  7 14 22 26 30.0000000  0  9G18G02G08G27G31G10G28G23G32
   1702510.87946   1306982.98743  24716246.0864                   24716239.5354
        39.0004         18.2504
  -1128057.15647   -840641.03544  23011528.4064                   23011516.5824
        43.7504         29.7504
    538756.79047    425070.60646  22817339.6334                   22817333.4344
        43.0004         37.0004
   1339156.33147   1030312.45146  23010411.0944                   23010405.4224
        42.7504         39.0004
  -1365683.49246  -1031921.04644  24823992.0554                   24823987.0904
        39.5004         26.2504
    383231.90148    306382.12247  21337128.6024                   21337120.2344
        50.0004         47.5004
  -1387950.43047  -1024684.15744  22985368.1254                   22985360.5784
        43.0004         28.0004
   1109155.17647    854603.45044  23286994.5554                   23286986.3634
        42.0004         25.7504
    280231.78848    226034.50948  20565303.5944                   20565295.2854
        52.2504         51.5004
 25  7 14 22 26 45.0000000  0  9G18G02G08G27G31G10G28G23G32
   1755682.61146   1348415.42143  24726364.2274                   24726357.7344
        39.5004         19.0004
  -1167575.65447   -871434.64145  23004008.3524                   23003997.1134
        43.7504         30.0004
    554195.66447    437100.88746  22820277.3754                   22820271.3524
        43.0004         37.7504
   1379100.13247   1061437.45446  23018012.1804                   23018005.9804
        42.0004         38.2504
  -1421379.65946  -1075320.44944  24813392.0784                   24813388.5204
        37.5004         27.5004
    392085.65048    313281.15047  21338813.1644                   21338805.1484
        49.5004         47.7504
  -1435200.70147  -1061502.49544  22976377.1094                   22976368.9184
        43.0004         28.0004
   1141523.68246    879825.64244  23293154.5164                   23293146.0314
        41.7504         25.2504
    286426.05048    230861.21148  20566482.5944                   20566473.9924
        52.7504         51.5004
 25  7 14 22 27  0.0000000  0  9G18G02G08G27G31G10G28G23G32
   1808892.40346   1389877.50743  24736490.1804                   24736483.5704
        40.5004         18.2504
  -1207041.20347   -902186.99545  22996497.9064                   22996486.4924
        44.0004         30.5004
    569751.08347    449221.97546  22823238.0084                   22823231.5744
        42.0004         37.5004
   1419104.97347   1092610.02446  23025625.1024                   23025618.9024
        42.2504         38.5004
  -1477099.51446  -1118738.32444  24802789.3754                   24802785.4654
        38.0004         26.0004
    400977.46148    320209.82247  21340505.3594                   21340497.2274
        50.5004         47.7504
  -1482401.08747  -1098281.96944  22967395.0704                   22967386.8204
        43.7504         28.5004
   1173917.09346    905067.20644  23299318.4534                   23299310.0864
        41.5004         25.7504
    292724.52548    235769.11448  20567680.8674                   20567672.7344
        52.2504         51.5004
 25  7 14 22 27 15.0000000  0  9G18G02G08G27G31G10G28G23G32
   1862140.15046   1431369.19243  24746622.7424                   24746616.6604
        40.0004         18.2504
  -1246453.29047   -932897.68545  22988998.0004                   22988986.6454
        44.0004         30.7504
    585423.16447    461433.96946  22826219.7664                   22826213.5664
        42.7504         37.5004
   1459170.68846   1123830.02546  23033249.7734                   23033243.2814
        41.5004         38.0004
  -1532842.34146  -1162174.10444  24792181.4844                   24792177.5164
        37.7504         26.0004
    409907.67148    327168.41847  21342204.5084                   21342196.2584
        48.7504         47.7504
  -1529550.94747  -1135022.08244  22958422.3204                   22958414.4804
        43.5004         27.5004
   1206335.71646    930328.44244  23305487.4224                   23305479.6414
        41.7504         25.5004
    299127.31448    240758.29948  20568899.5314                   20568890.7544
        52.0004         51.5004
 25  7 14 22 27 30.0000000  0 10G18G02G08G27G31G10G28G24G23G32
   1915422.46846   1472887.77543  24756761.3284                   24756755.5394
        39.0004         18.2504
  -1285815.01047   -963569.12945  22981508.2034                   22981496.6134
        43.7504         30.5004
    601208.30447    473734.06046  22829224.2734                   22829217.5474
        43.0004         37.7504
   1499293.57446   1155094.57646  23040884.8754                   23040878.1484
        41.7504         37.5004
  -1588611.09646  -1205630.09144  24781569.6254                   24781565.0704
        39.5004         26.2504
    418873.01548    334154.39948  21343910.5784                   21343902.5634
        50.5004         48.0004
  -1576653.19447  -1171725.07444  22949458.6414                   22949451.2114
        43.5004         28.5004
   1039224.97455    796872.71454  24608358.3834                   24608353.3594
        35.2504         27.0004
   1238776.25447    955606.74843  23311661.1254                   23311653.5204
        42.0004         23.7504
    305630.88948    245826.01948  20570137.1644                   20570128.5044
        52.7504         51.5004
 25  7 14 22 27 45.0000000  0 10G18G02G08G27G31G10G28G24G23G32
   1968744.53046   1514437.34843  24766908.5944                   24766902.3364
        39.0004         19.0004
  -2900539.40257  -2215838.67655  22974027.9614                   22974017.1914
        43.5004         32.0004
    617111.80947    486126.39246  22832250.3674                   22832243.9344
        42.5004         37.5004
   1539478.81847   1186407.72246  23048532.1024                   23048525.4344
        42.5004         37.7504
  -1644400.06846  -1249101.84644  24770952.8204                   24770948.7344
        39.2504         26.5004
    427879.02548    341172.06347  21345624.4304                   21345616.5314
        50.2504         47.7504
  -1623701.94647  -1208386.40144  22940506.5314                   22940498.3984
        43.5004         27.5004
   1081869.24045    830101.97344  24616474.0004                   24616468.0944
        35.7504         29.2504
   1271244.20946    980906.42444  23317839.5164                   23317831.6764
        41.5004         25.0004
    312240.66148    250976.49848  20571394.9844                   20571386.3244
        53.0004         51.5004
 25  7 14 22 28  0.0000000  0 10G18G02G08G27G31G10G28G24G23G32
   2022103.53246   1556015.71043  24777062.1334                   24777056.1094
        39.2504         19.0004
  -2939790.87447  -2246424.21245  22966559.0394                   22966547.3914
        44.0004         31.0004
    633130.86747    498608.75446  22835298.4064                   22835292.2074
        42.7504         37.5004
   1579723.42147   1217767.11146  23056189.9774                   23056183.5434
        43.0004         38.0004
  -1700211.40346  -1292591.02244  24760331.1954                   24760327.8714
        38.5004         27.2504
    436923.16748    348219.44547  21347345.7504                   21347337.5004
        50.2504         47.7504
  -1670699.36347  -1245007.72344  22931563.6484                   22931554.5204
        43.5004         28.0004
   1124613.03645    863408.79044  24624608.0784                   24624601.8204
        35.2504         27.7504
   1303737.06046   1006225.48644  23324022.9144                   23324015.0744
        41.7504         24.7504
    318953.78848    256207.50848  20572672.3594                   20572663.7584
        52.2504         51.7504
 25  7 14 22 28 15.0000000  0 10G18G02G08G27G31G10G28G24G23G32
   2075499.33546   1597622.76043  24787223.2114                   24787217.1294
        39.0004         19.0004
  -2978988.03647  -2276967.41845  22959099.9614                   22959088.6054
        43.7504         31.5004
    649265.27047    511181.00046  22838368.7734                   22838362.5164
        43.5004         37.5004
   1620027.05946   1249172.50446  23063859.8754                   23063853.7344
        41.5004         38.0004
  -1756044.71846  -1336097.35744  24749707.2664                   24749702.4774
        40.0004         26.0004
    446005.57548    355296.63747  21349073.9454                   21349065.8714
        50.0004         47.7504
  -1717645.02947  -1281588.71244  22922629.3444                   22922621.5634
        43.5004         28.5004
   1167456.15745    896793.01544  24632759.9614                   24632754.6994
        35.2504         27.7504
   1336254.89347   1031564.02244  23330210.8594                   23330202.4344
        42.0004         25.2504
    325770.23148    261519.02048  20573969.6174                   20573960.8404
        52.2504         51.5004
 25  7 14 22 28 30.0000000  0 10G18G02G08G27G31G10G28G24G23G32
   2128931.80446   1639258.36943  24797391.3834                   24797385.3594
        38.5004         19.0004
  -3018130.61947  -2307468.10545  22951651.6174                   22951639.6764
        43.7504         31.5004
    665514.88547    523843.02746  22841460.8524                   22841454.7704
        43.0004         37.0004
   1660389.40147   1280623.65146  23071540.6564                   23071533.8714
        42.2504         37.7504
  -1811899.74746  -1379620.56344  24739077.8594                   24739074.1254
        40.0004         27.2504
    455126.32948    362403.71147  21350809.4144                   21350801.5164
        50.5004         47.7504
  -1764538.51447  -1318129.03044  22913705.8834                   22913697.8094
        42.7504         28.5004
   1210398.42745    930254.49244  24640932.0234                   24640926.2344
        35.0004         27.2504
   1368797.81346   1056922.12444  23336403.4844                   23336395.1174
        40.7504         24.0004
    332689.84448    266910.92548  20575286.2584                   20575277.5984
        52.0004         51.5004
 25  7 14 22 28 45.0000000  0 11G18G01G02G08G27G31G10G28G24G23G32
   2182400.09846   1680921.89043  24807566.7894                   24807560.1214
        38.5004         19.5004
   -754809.74856   -510725.87052  25152219.2734                   25152211.9024
        37.0004         15.5004
  -3057219.02947  -2337926.57945  22944213.0314                   22944201.6764
        44.5004         30.7504
    681878.86047    536594.15446  22844575.7194                   22844568.5824
        42.7504         37.7504
   1700809.51846   1312119.80946  23079231.9694                   23079225.5354
        41.5004         37.7504
  -1867776.57046  -1423160.78644  24728445.0314                   24728441.3554
        39.5004         28.0004
    464284.93448    369540.28847  21352552.3754                   21352544.5944
        49.2504         47.7504
  -1811379.94347  -1354628.79444  22904792.2974                   22904784.1054
        43.0004         28.2504
   1253438.74145    963792.37144  24649122.0474                   24649117.0824
        34.5004         27.0004
   1401365.20346   1082299.26044  23342600.4304                   23342592.7664
        41.5004         25.0004
    339711.92248    272382.67748  20576622.6644                   20576613.6524
        51.5004         51.5004
 25  7 14 22 29  0.0000000  0 11G18G01G02G08G27G31G10G28G24G23G32
   2235905.01446   1722613.90943  24817748.0784                   24817742.1134
        36.7504         18.2504
   -806624.73446   -551101.15342  25142359.8984                   25142352.2934
        36.7504         15.5004
  -3096251.80147  -2368341.69645  22936785.7274                   22936773.8444
        44.2504         31.0004
    698358.00847    549435.03246  22847710.4614                   22847704.9064
        42.2504         37.7504
   1741288.08147   1343661.51446  23086934.8594                   23086928.3094
        42.0004         37.5004
  -1923673.88846  -1466716.96844  24717807.2194                   24717804.0124
        39.2504         27.5004
    473482.46748    376707.18647  21354302.5164                   21354294.4414
        49.5004         47.7504
  -1858167.95747  -1391086.92844  22895888.4614                   22895880.6804
        44.0004         28.7504
   1296577.95545    997407.30544  24657331.5704                   24657325.9574
        34.5004         27.0004
   1433958.18446   1107696.36144  23348803.7114                   23348795.1094
        41.5004         25.0004
    346837.29848    277934.91448  20577978.3984                   20577969.5634
        51.5004         51.5004
 25  7 14 22 29 15.0000000  0 11G18G01G02G08G27G31G10G28G24G23G32
   2289446.10445   1764334.13442  24827936.3204                   24827931.2384
        34.7504         16.7504
   -858441.55846   -591477.89742  25132498.6884                   25132491.8444
        37.5004         17.2504
  -3135229.00847  -2398713.51545  22929368.5234                   22929356.8754
        44.0004         31.2504
    714951.82646    562365.26246  22850868.5234                   22850862.2074
        41.7504         38.0004
   1781824.35747   1375248.18446  23094649.0944                   23094642.6024
        42.5004         37.5004
  -1979591.66646  -1510289.07644  24707166.4614                   24707162.4924
        39.0004         28.0004
    482718.67848    383904.22947  21356060.2424                   21356052.1684
        50.0004         47.7504
  -1904902.41047  -1427503.35544  22886995.5634                   22886987.0204
        43.0004         28.2504
   1339815.38545   1031098.78644  24665559.0944                   24665553.5984
        34.0004         27.5004
   1466576.49046   1133113.19343  23355009.8284                   23355001.9304
        40.5004         23.0004
    354065.48948    283567.27648  20579353.9614                   20579345.2424
        52.2504         51.5004
 25  7 14 22 29 30.0000000  0 11G18G01G02G08G27G31G10G28G24G23G32
   2343022.73445   1806082.01742  24838131.7584                   24838126.6764
        35.5004         16.7504
   -910260.34946   -631856.15542  25122637.6484                   25122631.2734
        37.5004         16.7504
  -3174150.83947  -2429042.19345  22921962.0314                   22921950.1484
        44.0004         30.7504
    731659.64847    575384.32546  22854047.9694                   22854041.6524
        42.0004         37.2504
   1822417.58246   1406879.23046  23102372.5084                   23102366.7194
        41.5004         38.0004
  -2035530.03546  -1553877.24144  24696522.5164                   24696517.7274
        38.0004         28.0004
    491993.20648    391131.12547  21357824.9384                   21357817.1564
        48.7504         47.7504
  -1951583.34247  -1463878.05344  22878112.8754                   22878103.8054
        43.5004         29.0004
   1383150.30845   1064866.21444  24673805.0314                   24673800.0084
        33.5004         24.7504
   1499219.69746   1158549.44144  23361222.7504                   23361213.5634
        41.5004         25.7504
    361395.96948    289279.33848  20580748.9534                   20580740.2344
        50.7504         51.5004
 25  7 14 22 29 45.0000000  0 11G18G01G02G08G27G31G10G28G24G23G32
   2396634.69546   1847857.49042  24848333.6564                   24848329.2194
        36.2504         17.2504
   -962080.78946   -672235.68243  25112777.1884                   25112769.9924
        38.2504         18.5004
  -3213016.83147  -2459327.34745  22914565.8444                   22914554.2544
        44.5004         31.2504
    748481.38147    588492.14946  22857249.1094                   22857243.0274
        43.0004         38.0004
   1863067.52347   1438554.48446  23110108.7664                   23110102.9774
        42.0004         37.2504
  -2091488.29546  -1597480.90644  24685873.3594                   24685869.2154
        37.5004         26.5004
    501306.20348    398387.99847  21359597.0704                   21359589.3484
        49.5004         47.7504
  -1998210.22447  -1500210.63844  22869239.4614                   22869230.9184
        43.2504         28.7504
   1426582.57145   1098709.51644  24682069.6024                   24682064.3404
        34.0004         25.7504
   1531888.02046   1184005.24043  23367438.5944                   23367430.6954
        40.7504         23.2504
    368828.64948    295071.03848  20582163.1884                   20582154.5864
        52.0004         51.7504
 25  7 14 22 30  0.0000000  0 11G18G01G02G08G27G31G10G28G24G23G32
   2450281.96745   1889660.47942  24858543.2974                   24858537.9184
        35.5004         14.7504
  -1013902.45346   -712616.20043  25102915.7894                   25102908.6524
        38.7504         19.7504
  -3251826.53947  -2489568.64845  22907180.7584                   22907169.2274
        44.7504         30.7504
    765416.88447    601688.62746  22860472.1954                   22860465.5274
        42.7504         37.2504
   1903773.91446   1470273.70746  23117854.7114                   23117848.8634
        41.5004         37.5004
  -2147466.16246  -1641099.83944  24675220.5314                   24675216.6804
        37.2504         27.0004
    510657.92448    405675.05147  21361376.9774                   21361369.0204
        48.0004         47.7504
  -2044782.53347  -1536500.71144  22860376.9384                   22860368.7464
        43.5004         28.0004
   1470111.96445   1132628.49944  24690352.8594                   24690348.4224
        33.0004         26.0004
   1564581.57946   1209480.71544  23373660.4064                   23373651.8634
        41.7504         24.7504
    376363.50248    300942.35548  20583597.1724                   20583588.7464
        50.0004         51.5004
 25  7 14 22 30 15.0000000  0 11G18G01G02G08G27G31G10G28G24G23G32
   2503964.22245   1931490.70742  24868758.1094                   24868752.9064
        34.7504         16.2504
  -1065725.31046   -752997.64043  25093054.4774                   25093047.2814
        37.5004         19.7504
  -3290579.76147  -2519765.94645  22899806.3594                   22899794.3014
        44.2504         31.7504
    782465.83147    614973.50646  22863716.0234                   22863709.8834
        43.0004         37.5004
   1944536.32046   1502036.58546  23125612.2814                   23125605.8484
        41.5004         38.0004
  -2203463.28146  -1684733.79144  24664564.3754                   24664560.4654
        36.7504         25.5004
    520048.28448    412992.20547  21363164.0634                   21363155.8134
        49.2504         47.7504
  -2091299.98947  -1572748.03044  22851524.9534                   22851517.2304
        43.2504         28.5004
   1513738.02345   1166622.77844  24698655.5234                   24698650.3204
        33.5004         26.2504
   1597300.34046   1234975.79944  23379886.4144                   23379878.1054
        41.7504         24.5004
    384000.28748    306893.09048  20585050.2584                   20585042.1844
        52.0004         51.7504
 25  7 14 22 30 30.0000000  0 11G18G01G02G08G27G31G10G28G24G23G32
   2557680.96645   1973347.78942  24878980.3134                   24878975.2304
        35.0004         16.7504
  -1117549.36246   -793379.94443  25083192.5314                   25083185.2774
        37.7504         20.0004
  -3329276.51647  -2549919.24845  22892442.1414                   22892430.3754
        43.7504         32.0004
    799627.67347    628346.34746  22866982.3984                   22866975.9064
        42.7504         37.0004
   1985353.95247   1533842.49946  23133378.9844                   23133373.1374
        42.2504         37.7504
  -2259479.74246  -1728382.81044  24653904.8364                   24653900.3984
        37.5004         27.7504
    529477.00848    420339.25847  21364958.2114                   21364949.9024
        50.5004         47.7504
  -2137762.51047  -1608952.54844  22842683.3054                   22842674.6454
        43.5004         27.7504
   1557460.02445   1200691.83944  24706975.0314                   24706970.0084
        33.2504         26.0004
   1630043.97747   1260490.29744  23386117.2194                   23386109.1454
        42.0004         24.0004
    391738.48348    312922.86048  20586522.7734                   20586514.1134
        52.0004         51.7504
 25  7 14 22 30 45.0000000  0 11G18G01G02G08G27G31G10G28G24G23G32
   2611432.20745   2015231.81242  24889208.6334                   24889203.2544
        34.7504         16.7504
  -1169374.04446   -833762.80743  25073330.8674                   25073323.3204
        37.7504         21.0004
  -3367916.23147  -2580028.09145  22885089.1024                   22885078.0984
        44.5004         31.5004
    816902.54447    641807.26746  22870269.1484                   22870263.1254
        42.7504         37.2504
   2026226.87547   1565691.49346  23141157.0634                   23141150.8634
        42.0004         37.7504
  -2315514.83146  -1772046.35044  24643241.6484                   24643237.3874
        37.5004         26.5004
    538944.50348    427716.52047  21366759.3444                   21366751.4454
        49.2504         47.7504
  -2184169.36947  -1645113.69244  22833852.2034                   22833843.9534
        43.7504         28.2504
   1601278.20345   1234835.83544  24715313.8834                   24715308.8594
        33.5004         26.5004
   1662812.92846   1286024.52143  23392353.3754                   23392344.6564
        41.2504         22.5004
    399578.25848    319031.77248  20588014.7424                   20588006.1994
        52.5004         51.7504
 25  7 14 22 31  0.0000000  0 11G18G01G02G08G27G31G10G28G24G23G32
   2665217.83745   2057142.60342  24899443.2504                   24899438.5784
        34.0004         17.2504
  -1221199.06446   -874145.91743  25063467.9064                   25063461.3554
        37.0004         20.5004
  -3406498.68347  -2610092.30845  22877747.6174                   22877735.9104
        44.2504         31.0004
    834290.12847    655356.02046  22873578.4924                   22873571.7074
        43.5004         37.0004
   2067154.64846   1597583.23346  23148945.0864                   23148939.2974
        41.7504         37.7504
  -2371568.15145  -1815724.06944  24632574.1414                   24632570.1134
        35.7504         26.0004
    548450.84848    435124.06047  21368568.2424                   21368560.6374
        49.5004         47.5004
  -2230520.14447  -1681231.13444  22825032.4844                   22825023.4144
        43.0004         28.0004
   1645192.00045   1269054.34244  24723670.4774                   24723665.3954
        33.5004         25.5004
   1695607.15846   1311578.42343  23398593.2114                   23398584.9614
        40.7504         22.7504
    407519.46148    325219.72448  20589525.6724                   20589517.4804
        52.5004         51.7504
 25  7 14 22 31 15.0000000  0 11G18G01G02G08G27G31G10G28G24G23G32
   2719037.51545   2099079.88142  24909686.0634                   24909680.1564
        35.2504         17.2504
  -1273024.33646   -914529.23543  25053606.1644                   25053598.9694
        36.7504         20.5004
  -3445023.59347  -2640111.69945  22870416.0084                   22870404.3594
        44.5004         31.0004
    851790.19847    668992.43046  22876907.8834                   22876901.8014
        42.5004         37.2504
   2108136.86847   1629517.39346  23156744.1334                   23156737.8754
        42.0004         37.7504
  -2427639.34446  -1859415.73244  24621904.6334                   24621900.4884
        36.0004         26.2504
    557996.00348    442561.83547  21370384.8444                   21370376.5944
        50.5004         47.5004
  -2276814.54647  -1717304.63644  22816222.0944                   22816214.0204
        43.0004         28.0004
   1689201.09645   1303347.12544  24732045.0704                   24732039.6914
        34.0004         25.7504
   1728426.69946   1337152.06644  23404838.1954                   23404830.6484
        41.2504         24.0004
    415561.85348    331486.52448  20591056.0234                   20591047.6564
        51.5004         51.7504
 25  7 14 22 31 30.0000000  0 11G18G01G02G08G27G31G10G28G24G23G32
   2772890.96046   2141043.52043  24919934.2504                   24919927.7584
        36.2504         18.2504
  -1324849.67745   -954912.59843  25043743.7974                   25043736.9534
        35.7504         19.5004
  -3483490.92847  -2670086.22245  22863095.9534                   22863084.3634
        44.2504         31.5004
    869402.35847    682716.17046  22880259.5864                   22880253.5044
        43.5004         37.0004
   2149173.02646   1661493.57846  23164552.7734                   23164547.2774
        41.5004         37.2504
  -2483728.29046  -1903121.22944  24611231.1954                   24611227.0514
        37.0004         28.5004
    567579.93748    450029.83147  21372208.6484                   21372200.7504
        50.5004         47.7504
  -2323052.24847  -1753333.95644  22807423.7894                   22807415.0124
        42.7504         28.5004
   1733305.16645   1337713.89044  24740438.2814                   24740432.7854
        33.7504         26.2504
   1761271.42046   1362745.32843  23411088.8284                   23411080.5204
        41.5004         22.7504
    423705.14848    337831.95248  20592606.0164                   20592597.3554
        52.2504         51.5004
 25  7 14 22 31 45.0000000  0 11G18G01G02G08G27G31G10G28G24G23G32
   2826777.74345   2183033.10343  24930187.7034                   24930182.5004
        35.5004         19.2504
  -1376675.00046   -995295.90843  25033883.0084                   25033875.5784
        36.7504         19.2504
  -3521900.17547  -2700015.48045  22855786.9454                   22855775.1804
        45.0004         31.2504
    887126.29847    696527.01446  22883631.7734                   22883625.9264
        43.2504         36.7504
   2190262.65546   1693511.43746  23172371.9694                   23172365.9454
        41.2504         37.2504
  -2539834.58646  -1946840.26544  24600553.9144                   24600550.1214
        36.7504         28.5004
    577202.63548    457528.03747  21374040.0314                   21374031.7814
        50.5004         47.7504
  -2369232.96747  -1789318.89944  22798635.6954                   22798627.0944
        43.2504         28.0004
   1777503.65145   1372154.25544  24748848.6954                   24748843.0824
        34.0004         26.5004
   1794141.29546   1388358.19843  23417343.5474                   23417335.5314
        41.0004         23.0004
    431949.09048    344255.80448  20594174.5634                   20594166.0784
        51.7504         51.5004
 25  7 14 22 32  0.0000000  0 11G18G01G02G08G27G31G10G28G24G23G32
   2880698.02245   2225048.78843  24940448.7504                   24940443.5474
        35.5004         20.0004
  -1428499.72945  -1035678.79543  25024021.2504                   25024012.8244
        35.7504         20.2504
  -3560250.96547  -2729899.19845  22848488.9694                   22848477.7304
        44.5004         30.7504
    904961.98347    710424.92946  22887026.3524                   22887020.5634
        43.0004         36.5004
   2231405.63146   1725570.85546  23180201.3054                   23180195.6914
        41.5004         37.2504
  -2595958.00246  -1990572.61844  24589875.1954                   24589870.3484
        37.5004         28.2504
    586864.36448    465056.64947  21375878.6024                   21375870.1764
        50.5004         47.5004
  -2415356.08547  -1825258.93644  22789858.5234                   22789850.4494
        42.5004         29.0004
   1821796.50345   1406668.13544  24757276.9454                   24757272.0394
        34.0004         27.0004
   1827036.60546   1413990.88444  23423603.6804                   23423595.1954
        41.5004         24.0004
    440293.75148    350758.14148  20595762.4304                   20595753.9454
        52.5004         51.5004
 25  7 14 22 32 15.0000000  0 11G18G01G02G08G27G31G10G28G24G23G32
   2934651.30145   2267090.21643  24950716.8054                   24950710.4884
        35.2504         19.0004
  -1480323.87645  -1076061.22043  25014158.5394                   25014151.4024
        35.7504         20.7504
  -3598543.48947  -2759737.50945  22841202.3594                   22841190.4184
        45.2504         31.0004
    922909.04047    724409.63446  22890441.5864                   22890435.3874
        43.0004         36.7504
   2272601.36946   1757671.38846  23188040.6644                   23188034.6414
        41.2504         36.7504
  -2652098.12146  -2034317.98944  24579191.6024                   24579186.5784
        37.0004         27.7504
    596565.03048    472615.59947  21377724.7424                   21377716.4344
        50.5004         47.7504
