     2.11           OBSERVATION DATA    G (GPS)             RINEX VERSION / TYPE
teqc  2019Feb25     K Rivera            20250819 20:52:29UTCPGM / RUN BY / DATE
Linux 2.6.32-573.12.1.x86_64|x86_64|gcc -static|Linux 64|=+ COMMENT
teqc  2019Feb25                         20250819 20:46:36UTCCOMMENT
BIT 2 OF LLI FLAGS DATA COLLECTED UNDER A/S CONDITION       COMMENT
PASO                                                        MARKER NAME
                                                            MARKER NUMBER
katie Baraggiotta   University of California, Riverside     OBSERVER / AGENCY
0220413523          TRIMBLE R7          2.32                REC # / TYPE / VERS
12606420            TRM41249.00                             ANT # / TYPE
 -2416964.2299 -4602396.8203  3684965.9599                  APPROX POSITION XYZ
        0.9027        0.0000        0.0000                  ANTENNA: DELTA H/E/N
     1     1                                                WAVELENGTH FACT L1/2
     7    L1    L2    C1    P1    P2    S1    S2            # / TYPES OF OBSERV
    18                                                      LEAP SECONDS
 SNR is mapped to RINEX snr flag value [0-9]                COMMENT
  L1 & L2: min(max(int(snr_dBHz/6), 0), 9)                  COMMENT
  2025     8     7    20    30    0.0000000     GPS         TIME OF FIRST OBS
                                                            END OF HEADER
 25  8  7 20 30  0.0000000  0  7G27G02G10G28G32G08G23
     56935.81356     26009.73055  24404395.2194                   24404403.2504
        38.7504         34.2504
   -192473.49657   -131646.89555  21982739.1094                   21982737.5664
        46.5004         35.7504
    -21545.50857    -14543.59857  21723968.5004                   21723970.9264
        47.0004         46.5004
   -226499.28957   -150897.07855  21823488.9454                   21823490.2734
        46.7504         34.2504
     -8149.06658     -5566.52358  20972835.6644                   20972837.5704
        51.2504         50.2504
     28035.43056     14010.62155  23583636.6174                   23583642.7584
        39.7504         34.2504
     39033.14556     22230.48853  24351679.1954                   24351683.2424
        38.5004         21.2504
 25  8  7 20 30 30.0000000  0  9G27G02G31G10G01G28G32G08G23
    103446.00046     62251.19145  24413244.7894                   24413253.7704
        39.2504         34.2504
   -291076.32847   -208480.23845  21963975.6334                   21963974.0554
        46.2504         35.5004
   -317238.64856   -185930.58655  23286147.1254                   23286151.1414
        41.5004         35.2504
    -32928.01647    -23413.14547  21721802.3914                   21721804.9774
        46.7504         46.2504
   -285045.05156   -167897.75453  23720372.8364                   23720376.5394
        40.5004         23.0004
   -341699.18047   -240663.16845  21801566.8834                   21801568.3094
        47.0004         33.7504
    -12546.68448     -8993.27048  20971998.7974                   20972000.6724
        52.0004         50.5004
     47655.78546     29299.10945  23587369.2974                   23587376.6134
        40.2504         35.2504
     69606.60946     46053.83243  24357497.0554                   24357501.6954
        40.5004         19.7504
 25  8  7 20 31  0.0000000  0  9G27G02G31G10G01G28G32G08G23
    149683.43446     98280.09445  24422043.7424                   24422053.2304
        37.7504         31.7504
   -389564.25047   -285224.04345  21945234.1174                   21945231.9614
        45.5004         35.7504
   -473047.34046   -307339.75045  23256497.3594                   23256501.5824
        41.5004         35.2504
    -44382.94547    -32339.11347  21719622.3594                   21719624.9964
        47.0004         46.0004
   -428202.84046   -279449.18743  23693130.7814                   23693134.1524
        41.5004         23.5004
   -456745.09447   -330309.28145  21779674.3914                   21779675.7344
        46.5004         34.0004
    -16919.84848    -12400.96148  20971166.8524                   20971168.4964
        51.5004         50.5004
     67265.90646     44579.54345  23591100.6094                   23591108.7034
        39.0004         34.2504
    100019.85556     69752.05153  24363283.9534                   24363289.8134
        37.2504         19.0004
 25  8  7 20 31 30.0000000  0  9G27G02G31G10G01G28G32G08G23
    195672.30146    134115.32845  24430795.3914                   24430804.6414
        36.2504         31.2504
   -487908.19147   -361855.65646  21926519.9144                   21926518.2114
        46.0004         36.2504
   -628975.84446   -428842.27045  23226825.2114                   23226829.1214
        40.7504         35.7504
    -55882.62547    -41299.95347  21717433.7584                   21717436.7544
        47.5004         46.0004
   -571449.27746   -391069.68744  23665871.9224                   23665875.3754
        41.2504         25.2504
   -571607.36747   -419812.28945  21757816.7194                   21757818.2194
        46.5004         34.2504
    -21243.17248    -15769.81648  20970344.2664                   20970346.2584
        51.5004         50.5004
     86890.35246     59871.18045  23594835.5634                   23594842.9144
        41.0004         34.2504
    130301.85246     93348.25443  24369047.2734                   24369051.9694
        37.0004         20.0004
 25  8  7 20 32  0.0000000  0  9G27G02G31G10G01G28G32G08G23
    241434.44546    169773.85245  24439504.0004                   24439512.7734
        37.5004         31.0004
   -586081.12947   -438354.02346  21907838.0634                   21907836.4104
        45.5004         36.2504
   -784996.33246   -550416.46545  23197134.8594                   23197139.3914
        41.2504         35.2504
    -67401.70748    -50275.91447  21715242.0164                   21715244.9844
        48.0004         45.7504
   -714757.11346   -502738.02043  23638601.1484                   23638604.3984
        40.7504         23.7504
   -686258.63747   -509150.88745  21735999.1094                   21736000.3524
        46.5004         34.5004
    -25493.72348    -19081.97348  20969535.4454                   20969537.0514
        51.5004         50.7504
    106550.84046     75190.89845  23598577.7894                   23598584.4184
        39.5004         34.7504
    160476.48046    116860.79343  24374789.6414                   24374794.1764
        38.2504         20.0004
 25  8  7 20 32 30.0000000  0  9G27G02G31G10G01G28G32G08G23
    286983.28946    205266.22745  24448171.6644                   24448181.0234
        36.7504         31.2504
   -684065.27747   -514705.28545  21889192.2974                   21889190.4734
        46.0004         35.5004
   -941089.07046   -672046.96145  23167431.5394                   23167435.2624
        41.0004         35.2504
    -78923.39147    -59253.89147  21713049.6724                   21713052.4184
        47.5004         46.0004
   -858107.67246   -614439.66444  23611322.3754                   23611325.5984
        41.2504         24.7504
   -800680.14847   -598310.45745  21714225.5314                   21714226.9654
        46.7504         34.5004
    -29656.94148    -22326.07848  20968743.2424                   20968745.0314
        50.7504         50.5004
    126260.78146     90549.15245  23602327.8594                   23602335.0984
        40.7504         35.0004
    190560.05946    140302.35543  24380514.5864                   24380518.7544
        37.7504         20.5004
 25  8  7 20 33  0.0000000  0  9G27G02G31G10G01G28G32G08G23
    332328.94946    240600.21545  24456800.8204                   24456810.1334
        38.5004         33.5004
   -781845.97347   -590898.02345  21870585.3204                   21870583.6414
        46.2504         35.5004
  -1097237.87546   -793721.14546  23137717.1724                   23137721.5514
        41.2504         36.2504
    -90434.20748    -68223.39547  21710859.3284                   21710861.8754
        48.0004         45.7504
  -1001485.65246   -726162.67244  23584038.5234                   23584041.7934
        40.7504         24.5004
   -914856.36347   -687278.88345  21692498.6334                   21692500.1094
        46.2504         34.7504
    -33721.67648    -25493.44148  20967969.6644                   20967971.4774
        51.2504         50.5004
    146030.28146    105953.80545  23606089.8984                   23606097.2774
        40.2504         34.7504
    220565.47346    163683.05543  24386223.8594                   24386229.7774
        37.5004         21.5004
 25  8  7 20 33 30.0000000  0  9G27G02G31G10G01G28G32G08G23
    377477.41446    275780.57445  24465393.0234                   24465402.1484
        38.7504         33.7504
   -879412.20747   -666923.62945  21852018.9064                   21852016.9964
        46.2504         35.0004
  -1253430.99646   -915429.87145  23107994.3674                   23107998.6724
        41.2504         35.5004
   -101924.72348    -77177.08247  21708672.9844                   21708675.1134
        48.7504         45.7504
  -1144879.75846   -837898.24643  23556751.1724                   23556754.7194
        41.5004         23.7504
  -1028775.86747   -776047.27045  21670819.8524                   21670821.9574
        46.5004         34.5004
    -37680.83248    -28578.53548  20967216.4144                   20967218.0084
        51.5004         50.2504
    165865.34046    121409.52745  23609864.7194                   23609872.3914
        39.7504         35.0004
    250501.68046    187009.82443  24391921.2734                   24391926.2274
        38.2504         20.0004
 25  8  7 20 34  0.0000000  0  9G27G02G31G10G01G28G32G08G23
    422429.98046    310808.25045  24473946.0474                   24473956.4774
        37.7504         33.5004
   -976758.08247   -742777.55145  21833494.5634                   21833492.9734
        46.2504         35.7504
  -1409661.27346  -1037167.55546  23078264.7894                   23078268.9184
        41.7504         36.0004
   -113390.16047    -86111.23047  21706491.5394                   21706493.7894
        47.7504         46.0004
  -1288283.29746   -949641.19144  23529462.4924                   23529465.4654
        41.2504         25.5004
  -1142432.05547   -864610.48445  21649192.1094                   21649193.4614
        46.7504         34.2504
    -41531.97348    -31579.46948  20966483.6334                   20966484.9924
        51.0004         50.2504
    185767.18846    136917.28145  23613652.1094                   23613659.2974
        40.5004         35.2504
    280372.80946    210285.82443  24397604.9924                   24397610.8054
        38.2504         20.0004
 25  8  7 20 34 30.0000000  0  9G27G02G31G10G01G28G32G08G23
    467188.51646    345684.74245  24482463.7814                   24482473.7814
        37.7504         32.0004
  -1073876.82447   -818454.48846  21815013.5864                   21815011.5864
        46.2504         36.0004
  -1565920.94947  -1158928.15246  23048529.4774                   23048533.6054
        42.5004         36.5004
   -124825.49648    -95021.92647  21704315.4144                   21704317.3754
        48.7504         46.0004
  -1431689.25846  -1061386.01644  23502173.4224                   23502176.3244
        41.7504         24.5004
  -1255817.75447   -952962.93745  21627615.4844                   21627616.9804
        47.0004         33.7504
    -45272.23048    -34493.99648  20965771.6174                   20965773.5044
        50.2504         50.0004
    205737.63746    152478.50445  23617451.7424                   23617459.5084
        39.2504         34.5004
    310183.44146    233514.71943  24403278.6804                   24403283.4184
        36.5004         19.7504
 25  8  7 20 35  0.0000000  0  9G27G02G31G10G01G28G32G08G23
    511756.46146    380412.71545  24490945.9844                   24490955.3054
        38.5004         31.5004
  -1170760.23447   -893948.03545  21796577.1884                   21796575.6454
        46.2504         35.5004
  -1722200.24247  -1280704.02346  23018790.4064                   23018794.1804
        42.0004         36.5004
   -136223.67648   -103903.65647  21702146.2274                   21702148.4614
        48.7504         46.0004
  -1575088.79746  -1173125.80544  23474885.0704                   23474888.8794
        41.7504         25.2504
  -1368924.11747  -1041097.71145  21606091.9924                   21606093.4964
        47.0004         33.5004
    -48896.97348    -37318.49248  20965081.8524                   20965083.6994
        51.5004         49.7504
    225780.15246    168095.89845  23621266.2974                   23621273.8594
        39.7504         34.5004
    339940.25846    256701.68443  24408940.6484                   24408946.3594
        39.0004         18.5004
 25  8  7 20 35 30.0000000  0  9G27G02G31G10G01G28G32G08G23
    556134.77746    414992.93845  24499391.9304                   24499400.4774
        39.0004         30.7504
  -1267402.73047   -969253.85545  21778186.5554                   21778185.2504
        46.2504         35.7504
  -1878492.31247  -1402489.84446  22989048.6724                   22989052.3404
        42.5004         36.5004
   -147580.57448   -112753.21147  21699985.2194                   21699987.3164
        48.0004         45.5004
  -1718475.80546  -1284855.85244  23447599.2894                   23447602.6484
        41.7504         26.0004
  -1481744.98047  -1129010.02345  21584622.8674                   21584624.2274
        47.0004         34.0004
    -52404.33248    -40051.51648  20964414.6334                   20964416.2894
        50.2504         49.5004
    245895.52746    183770.05145  23625093.8204                   23625102.2074
        39.5004         34.7504
    369646.64146    279849.45643  24414594.0164                   24414598.9454
        38.0004         21.0004
 25  8  7 20 36  0.0000000  0  9G27G02G31G10G01G28G32G08G23
    600322.00446    449424.30145  24507800.1254                   24507809.1954
        37.7504         30.5004
  -1363801.40647  -1044369.68445  21759842.7034                   21759840.9924
        45.7504         35.7504
  -2034792.96146  -1524282.35546  22959305.6024                   22959309.1134
        41.7504         37.0004
   -158894.16048   -121569.02747  21697832.3594                   21697834.9104
        48.7504         45.7504
  -1861846.38346  -1396573.10243  23420316.7344                   23420319.9264
        41.5004         23.7504
  -1594276.45347  -1216696.83245  21563208.7814                   21563209.9104
        45.5004         34.2504
    -55794.65648    -42693.35248  20963769.2584                   20963771.3364
        50.5004         49.7504
    266082.30546    199499.83645  23628935.6884                   23628943.3094
        40.7504         35.0004
    399304.19546    302959.05143  24420237.6884                   24420242.5474
        37.7504         21.7504
 25  8  7 20 36 30.0000000  0  9G27G02G31G10G01G28G32G08G23
    644319.00046    483707.39845  24516172.2504                   24516181.1564
        37.2504         30.7504
  -1459950.31647  -1119290.88745  21741546.3524                   21741544.4654
        46.2504         35.5004
  -2191095.13347  -1646076.04746  22929562.1954                   22929565.5904
        42.5004         37.0004
   -170160.25448   -130347.84047  21695687.9924                   21695690.8134
        48.0004         45.7504
  -2005194.39546  -1508272.75844  23393038.6024                   23393041.2344
        41.0004         25.0004
  -1706512.52047  -1304153.45345  21541850.8594                   21541851.9264
        46.5004         34.5004
    -59066.00448    -45242.46948  20963147.0084                   20963148.5704
        50.0004         49.7504
    286341.14146    215285.75845  23632790.8674                   23632798.2034
        41.0004         34.0004
    428916.55946    326033.47743  24425873.2664                   24425877.1094
        37.0004         18.5004
 25  8  7 20 37  0.0000000  0  9G27G02G31G10G01G28G32G08G23
    688127.51646    517843.64144  24524508.4534                   24524518.0744
        38.2504         29.7504
  -1555843.32847  -1194012.69946  21723298.1954                   21723296.7384
        46.5004         36.2504
  -2347391.19947  -1767864.99246  22899819.6254                   22899823.2304
        42.5004         36.7504
   -181373.67248   -139085.60547  21693553.9924                   21693556.8014
        48.7504         45.5004
  -2148512.84446  -1619949.38744  23365765.7034                   23365768.5824
        41.0004         26.0004
  -1818446.02747  -1391374.31245  21520550.3444                   21520551.8914
        46.0004         34.7504
    -62215.57848    -47696.70748  20962547.3984                   20962549.2194
        50.2504         49.7504
    306673.91846    231129.35945  23636659.9454                   23636667.8594
        39.7504         34.0004
    458488.18846    349076.21143  24431500.4694                   24431504.4574
        37.2504         20.2504
 25  8  7 20 37 30.0000000  0  9G27G02G31G10G01G28G32G08G23
    731743.56646    551829.90645  24532808.7734                   24532818.0044
        37.7504         30.2504
  -1651480.03147  -1268534.79345  21705099.4304                   21705097.2074
        46.5004         35.7504
  -2503679.31647  -1889647.75046  22870078.8674                   22870082.6684
        43.0004         36.7504
   -192535.17648   -147782.91047  21691430.7274                   21691433.5354
        48.5004         45.5004
  -2291800.48046  -1731601.98844  23338499.3914                   23338501.9064
        40.5004         25.0004
  -1930075.91047  -1478358.58245  21499308.2974                   21499309.2544
        46.5004         34.7504
    -65246.37548    -50058.40248  20961970.7504                   20961972.7704
        51.0004         50.0004
    327076.28546    247027.14145  23640542.7274                   23640550.0164
        39.7504         33.5004
    488018.01646    372086.29343  24437118.9694                   24437124.5514
        36.0004         21.5004
 25  8  7 20 38  0.0000000  0  9G27G02G31G10G01G28G32G08G23
    775168.17646    585667.00445  24541072.8444                   24541082.1914
        37.5004         30.0004
  -1746854.93047  -1342852.88345  21686950.0704                   21686948.5234
        46.2504         35.5004
  -2659952.24647  -2011418.67246  22840341.1724                   22840344.3874
        42.7504         37.0004
   -203640.36348   -156436.34047  21689317.1334                   21689320.0164
        48.7504         45.7504
  -2435050.96946  -1843225.65244  23311239.3444                   23311242.4414
        41.0004         24.5004
  -2041395.93447  -1565101.40645  21478124.6414                   21478125.8164
        46.5004         34.0004
    -68156.33648    -52325.92248  20961416.9844                   20961419.2704
        50.5004         49.7504
    347549.18846    262979.87945  23644439.2734                   23644446.6884
        39.5004         33.5004
    517509.66845    395066.54743  24442731.0864                   24442737.9694
        32.5004         20.2504
 25  8  7 20 38 30.0000000  0  9G27G02G31G10G01G28G32G08G23
    818401.44146    619354.98044  24549299.5234                   24549310.2584
        37.0004         29.5004
  -1841962.54747  -1416962.70746  21668851.2664                   21668849.5044
        46.0004         36.0004
  -2816204.12547  -2133173.21146  22810607.0314                   22810610.7584
        42.7504         37.2504
   -214685.77748   -165043.20347  21687215.3594                   21687218.4454
        48.0004         46.0004
  -2578258.94946  -1954816.21544  23283987.8134                   23283990.6174
        40.7504         24.7504
  -2152400.76247  -1651598.63345  21457001.0474                   21457002.2584
        46.5004         34.2504
    -70944.29748    -54498.38748  20960886.6484                   20960888.2934
        50.2504         50.0004
    368092.70746    278987.63345  23648348.0084                   23648355.9384
        39.0004         31.5004
    546966.05945    418019.42243  24448337.1804                   24448342.9884
        35.5004         19.5004
 25  8  7 20 39  0.0000000  0  9G27G02G31G10G01G28G32G08G23
    861442.09046    652892.82445  24557489.7894                   24557500.1604
        37.5004         31.2504
  -1936800.08647  -1490862.07845  21650804.6254                   21650802.6214
        47.0004         35.5004
  -2972430.18447  -2254907.63746  22780878.2974                   22780881.2304
        43.0004         36.5004
   -225669.28148   -173601.81647  21685125.5864                   21685128.2034
        48.5004         45.7504
  -2721420.34046  -2066370.46144  23256745.3134                   23256748.1374
        41.2504         25.5004
  -2263086.50447  -1737847.22345  21435938.1724                   21435939.5664
        45.7504         34.5004
    -73610.46548    -56575.95748  20960379.3284                   20960380.9884
        51.2504         50.0004
    388705.43446    295049.33645  23652270.7814                   23652278.8284
        39.0004         33.0004
    576388.90245    440946.09443  24453936.9614                   24453942.5314
        35.0004         20.7504
 25  8  7 20 39 30.0000000  0  9G27G02G31G10G01G28G32G08G23
    904292.05146    686282.12945  24565644.2424                   24565655.0864
        39.5004         31.7504
  -2031360.89547  -1564545.80945  21632810.0784                   21632808.4654
        46.0004         35.5004
  -3128622.77747  -2376615.98046  22751155.5864                   22751158.7504
        43.5004         36.2504
   -236585.83248   -182108.26247  21683048.1414                   21683050.7774
        48.0004         45.5004
  -2864528.13746  -2177882.92644  23229512.6094                   23229515.1334
        40.7504         25.5004
  -2373446.27047  -1823841.80145  21414937.5944                   21414938.6524
        46.0004         34.5004
    -76152.03948    -58556.41848  20959895.9534                   20959897.3874
        50.7504         50.0004
    409389.04746    311166.27345  23656206.6724                   23656214.5944
        38.5004         32.2504
    605782.60246    463850.16043  24459529.8834                   24459535.8674
        36.5004         20.0004
 25  8  7 20 40  0.0000000  0  9G27G02G31G10G01G28G32G08G23
    946948.76246    719520.81345  24573762.4774                   24573771.8874
        37.7504         31.5004
  -2125643.33247  -1638012.62545  21614868.9064                   21614866.9224
        45.7504         35.5004
  -3284778.47347  -2498295.56246  22721439.6644                   22721442.9024
        43.2504         36.5004
   -247434.58648   -190561.87147  21680983.7034                   21680986.4384
        49.5004         45.7504
  -3007579.62946  -2289351.52344  23202290.0784                   23202293.0554
        40.7504         24.2504
  -2483477.44547  -1909580.32845  21393998.7584                   21394000.1764
        46.0004         34.2504
    -78570.52748    -60440.96548  20959435.5784                   20959437.3484
        50.7504         50.0004
    430140.80946    327336.30945  23660156.4304                   23660163.9924
        39.5004         32.7504
    635147.52045    486731.73843  24465117.6024                   24465124.2464
        34.7504         19.0004
 25  8  7 20 40 30.0000000  0  9G27G02G31G10G01G28G32G08G23
   2564830.40646   1980207.53545  24881635.1254                   24881645.5744
        38.5004         32.0004
   -644219.87147   -483656.66845  21896774.2274                   21896772.3284
        46.0004         35.5004
  -1865466.48847  -1392338.00046  22991525.7344                   22991528.6844
        43.0004         36.7504
   1317207.73048   1028639.89547  21978725.0784                   21978727.6994
        48.0004         45.5004
  -1575145.03146  -1173168.60944  23474873.5394                   23474876.3594
        41.2504         26.2504
  -1017751.65647   -767456.29745  21672917.0234                   21672918.4264
        45.7504         34.0004
   1494554.80148   1165370.96548  21258791.0944                   21258793.1174
        51.0004         50.0004
   2026379.60946   1571158.60245  23963911.0164                   23963918.2194
        40.0004         32.2504
   2239904.92246   1737191.91043  24770492.7584                   24770499.2114
        37.0004         19.5004
 25  8  7 20 41  0.0000000  0  9G27G02G31G10G01G28G32G08G23
   2607103.41446   2013147.27045  24889679.8054                   24889689.7734
        39.0004         30.5004
   -737929.05547   -556676.78545  21878942.1954                   21878940.1454
        46.5004         35.5004
  -2021527.74247  -1513944.00046  22961828.5234                   22961831.3204
        43.5004         36.5004
   1306507.25447   1020301.79747  21976688.9144                   21976691.7704
        47.5004         45.2504
  -1718065.16446  -1284534.83244  23447676.6174                   23447679.2194
        41.0004         26.0004
  -1127107.62547   -852668.69145  21652107.7194                   21652108.5744
        46.2504         34.7504
   1492388.35548   1163682.81348  21258378.9304                   21258381.4144
        50.5004         50.0004
   2047270.11346   1587436.77745  23967886.3054                   23967893.3014
        39.2504         33.0004
   2269223.06646   1760037.09043  24776073.1884                   24776077.8674
        38.5004         22.0004
 25  8  7 20 41 30.0000000  0  9G27G02G31G10G01G28G32G08G23
   2649187.57446   2045939.89545  24897687.1804                   24897698.2974
        37.5004         30.5004
   -831341.79347   -629465.91046  21861166.2194                   21861164.1954
        46.5004         36.2504
  -2177529.69547  -1635503.79346  22932141.8204                   22932144.6054
        43.0004         37.0004
   1295888.94947   1012027.78547  21974668.8134                   21974670.7704
        47.5004         45.5004
  -1860908.71146  -1395841.37944  23420494.2814                   23420497.0664
        41.7504         25.5004
  -1236115.46547   -937609.82445  21631364.2114                   21631365.3014
        46.5004         35.7504
   1490352.39548   1162096.33248  21257991.5164                   21257993.1294
        50.7504         49.7504
   2068232.68846   1603771.09045  23971874.8204                   23971882.8754
        39.2504         32.0004
   2298524.95746   1782869.57043  24781649.1644                   24781654.6684
        36.7504         22.2504
 25  8  7 20 42  0.0000000  0  9G27G02G31G10G01G28G32G08G23
   2691082.32046   2078584.88344  24905660.4384                   24905670.4184
        38.2504         29.0004
   -924454.11347   -702020.95346  21843447.2274                   21843445.4774
        46.5004         36.2504
  -2333467.11747  -1757013.30546  22902467.4694                   22902470.6174
        43.5004         36.5004
   1285355.43047   1003819.81347  21972663.9384                   21972666.3554
        47.7504         45.2504
  -2003671.05147  -1507084.66444  23393327.3914                   23393330.3244
        42.5004         26.7504
  -1344770.66847  -1022276.16445  21610688.1094                   21610688.8834
        47.0004         35.0004
   1488447.35948   1160611.87948  21257629.1414                   21257630.8794
        50.2504         49.7504
   2089266.57446   1620160.97345  23975878.5554                   23975885.5314
        39.7504         32.0004
   2327812.68046   1805691.05543  24787222.1724                   24787227.6884
        36.5004         19.2504
 25  8  7 20 42 30.0000000  0  9G27G02G31G10G01G28G32G08G23
   2732784.40646   2111079.73045  24913596.4224                   24913606.8444
        38.0004         30.0004
  -1017264.97347   -774341.09046  21825785.9384                   21825784.1054
        46.7504         36.0004
  -2489337.64147  -1878470.69146  22872806.6254                   22872809.1414
        43.5004         36.0004
   1274906.57848    995677.80947  21970675.9534                   21970678.1644
        48.5004         45.2504
  -2146350.28946  -1618263.18044  23366176.4694                   23366179.0354
        41.7504         26.0004
  -1453071.65247  -1106666.49245  21590078.8134                   21590079.7704
        47.0004         35.0004
   1486670.89548   1159227.60248  21257291.2034                   21257292.6174
        51.5004         49.7504
   2110368.28946   1636603.71145  23979893.2424                   23979901.2624
        38.5004         33.0004
   2357085.59046   1828500.98843  24792792.2664                   24792797.7974
        37.2504         18.2504
 25  8  7 20 43  0.0000000  0  9G27G02G31G10G01G28G32G08G23
   2774290.79346   2143422.08644  24921495.1644                   24921505.6764
        37.5004         29.7504
  -1109773.07047   -846425.30946  21808182.3054                   21808180.7274
        47.2504         36.5004
  -2645138.35547  -1999873.67645  22843158.3754                   22843161.0394
        43.5004         35.5004
   1264542.89848    987602.17647  21968703.9454                   21968706.3444
        49.0004         45.7504
  -2288944.00847  -1729375.07044  23339041.6414                   23339044.2384
        42.0004         26.7504
  -1561016.32047  -1190779.16845  21569537.2344                   21569538.0664
        46.7504         34.5004
   1485021.11748   1157942.04348  21256977.1954                   21256979.0864
        51.2504         49.5004
   2131534.73046   1653096.89045  23983921.2344                   23983929.3244
        38.0004         32.5004
   2386343.32746   1851299.03543  24798360.3834                   24798365.5944
        38.2504         19.2504
 25  8  7 20 43 30.0000000  0  9G27G02G31G10G01G28G32G08G23
   2815601.37546   2175611.83644  24929356.1024                   24929366.2274
        37.0004         29.5004
  -1201973.96148   -918270.15245  21790636.9774                   21790635.4104
        48.0004         35.2504
  -2800863.37947  -2121217.68046  22813525.3284                   22813528.0554
        43.7504         36.7504
   1254267.34448    979595.20347  21966748.5084                   21966750.7774
        48.5004         45.7504
  -2431447.08647  -1840416.32844  23311924.7974                   23311927.3054
        42.5004         27.5004
  -1668599.95347  -1274610.52345  21549064.8754                   21549065.9024
        47.5004         34.7504
   1483498.78148   1156755.80148  21256687.5864                   21256689.0594
        51.5004         49.5004
   2152765.36746   1669640.06645  23987960.8444                   23987969.6804
        37.5004         31.7504
   2415588.64145   1874087.39543  24803925.5554                   24803931.0514
        35.0004         18.2504
 25  8  7 20 44  0.0000000  0  9G27G02G31G10G01G28G32G08G23
   2856710.32046   2207644.48045  24937178.7664                   24937189.9414
        37.0004         30.0004
  -1293869.07847   -989876.71946  21773150.2034                   21773147.9844
        47.5004         36.2504
  -2956512.77347  -2242502.75446  22783905.7274                   22783908.4574
        43.7504         37.2504
   1244077.37548    971654.93047  21964809.2664                   21964811.7424
        48.0004         45.5004
  -2573860.34047  -1951387.59444  23284824.3364                   23284826.0234
        43.0004         28.0004
  -1775823.50047  -1358161.27745  21528660.9774                   21528661.8484
        46.5004         35.2504
   1482099.01248   1155665.05148  21256421.0314                   21256422.7464
        51.2504         49.2504
   2174054.19946   1686228.61745  23992011.7194                   23992020.3324
        37.7504         32.0004
   2444818.15646   1896863.47743  24809488.0394                   24809493.0124
        36.5004         19.2504
 25  8  7 20 44 30.0000000  0  9G27G02G31G10G01G28G32G08G23
   2897616.80946   2239519.33644  24944963.4774                   24944974.4304
        36.7504         27.7504
  -1385455.02348  -1061242.37545  21755722.0784                   21755719.7544
        48.0004         35.7504
  -3112081.44147  -2363724.93046  22754301.6804                   22754304.7154
        44.0004         37.5004
   1233975.52348    963783.32447  21962886.8364                   21962889.2034
        48.2504         45.2504
  -2716179.14147  -2062285.28544  23257741.9614                   23257743.9454
        42.5004         25.7504
  -1882682.78947  -1441428.20346  21508326.3444                   21508327.3014
        46.7504         36.0004
   1480821.99248   1154669.95348  21256178.2664                   21256179.6214
        51.5004         49.2504
   2195400.35946   1702861.80545  23996074.8914                   23996083.1174
        38.0004         32.0004
   2474033.84046   1919628.79743  24815047.2274                   24815053.0904
        37.2504         18.5004
 25  8  7 20 45  0.0000000  0  9G27G02G31G10G01G28G32G08G23
   2938321.50445   2271236.98844  24952709.6334                   24952720.4184
        35.5004         28.0004
  -1476726.59047  -1132363.06246  21738353.3444                   21738351.3794
        47.2504         36.0004
  -3267562.87547  -2484879.13346  22724714.7344                   22724717.3914
        44.0004         38.0004
   1223965.46948    955983.23447  21960981.8914                   21960985.0084
        48.0004         45.0004
  -2858397.80547  -2173104.93444  23230678.0944                   23230680.4144
        42.5004         25.5004
  -1989172.46547  -1524407.10945  21488061.5004                   21488063.1214
        46.2504         35.0004
   1479669.26648   1153771.71148  21255958.6094                   21255960.1294
        51.0004         49.2504
   2216804.02046   1719539.80945  24000148.5004                   24000156.0314
        38.7504         32.0004
   2503238.84045   1942385.75043  24820604.6174                   24820611.4614
        35.7504         19.2504
 25  8  7 20 45 30.0000000  0  9G27G02G31G10G01G28G32G08G23
   2978821.04745   2302794.76644  24960416.8134                   24960427.7664
        34.7504         25.7504
  -1567683.01247  -1203238.17646  21721045.0474                   21721042.9774
        47.7504         36.2504
  -3422954.57047  -2605963.41446  22695144.6724                   22695147.1484
        44.2504         37.7504
   1214047.16848    948254.64147  21959094.6724                   21959097.0784
        48.5004         44.7504
  -3000514.38747  -2283845.03144  23203634.5004                   23203636.5664
        42.0004         27.5004
  -2095290.99247  -1607096.81645  21467868.0084                   21467869.5164
        46.2504         35.0004
   1478638.41848   1152968.44148  21255762.2814                   21255764.5084
        51.2504         49.2504
   2238261.58246   1736259.81645  24004231.5554                   24004239.4924
        39.2504         31.5004
   2532432.39146   1965133.73043  24826161.5944                   24826166.9774
        36.2504         19.7504
 25  8  7 20 46  0.0000000  0  9G27G02G31G10G01G28G32G08G23
   3019113.92645   2334191.52744  24968085.0554                   24968094.8324
        35.5004         26.5004
  -1658321.51248  -1273865.55546  21703797.0634                   21703794.7584
        48.0004         36.0004
  -3578252.08247  -2726974.30546  22665592.0394                   22665595.1644
        44.2504         37.2504
   1204222.26648    940598.84047  21957225.0394                   21957227.9414
        48.2504         44.5004
  -3142525.22747  -2394502.73444  23176610.4924                   23176613.0824
        42.5004         26.2504
  -2201035.08247  -1689494.75045  21447745.8054                   21447746.3674
        47.0004         35.2504
   1477728.91048   1152259.71548  21255589.5164                   21255590.9344
        50.7504         49.5004
   2259771.27346   1753020.46145  24008325.7034                   24008332.7304
        39.0004         31.0004
   2561615.59046   1987873.66843  24831714.1644                   24831720.3404
        38.2504         19.7504
 25  8  7 20 46 30.0000000  0  9G27G02G31G10G01G28G32G08G23
   3059199.49245   2365426.74244  24975713.3834                   24975722.8914
        35.7504         28.0004
  -1748638.33247  -1344242.27346  21686610.4384                   21686608.2544
        47.7504         37.0004
  -3733450.35947  -2847907.86746  22636058.7814                   22636061.4384
        44.2504         37.7504
   1194493.39147    933017.85247  21955373.5164                   21955376.5554
        47.7504         44.5004
  -3284425.65647  -2505074.43444  23149607.4384                   23149609.7234
        42.2504         25.2504
  -2306400.60947  -1771597.69945  21427695.0474                   21427695.8874
        46.0004         35.2504
   1476941.00048   1151645.74648  21255439.4224                   21255441.4224
        51.0004         49.5004
   2281332.25846   1769821.09045  24012426.9454                   24012435.4844
        38.2504         30.5004
   2590790.55146   2010607.21543  24837267.2664                   24837272.3244
        38.5004         19.5004
 25  8  7 20 47  0.0000000  0  9G27G02G31G10G01G28G32G08G23
   3099074.56346   2396497.91844  24983300.5554                   24983311.1564
        36.0004         27.7504
  -1838632.48047  -1414367.55146  21669485.1564                   21669482.7774
        47.5004         36.5004
  -3888546.62147  -2968761.94146  22606544.9694                   22606547.2234
        44.5004         37.5004
   1184860.57447    925511.71947  21953540.5394                   21953543.5044
        47.5004         44.5004
  -3426213.65246  -2615558.51644  23122625.4304                   23122628.2384
        41.5004         25.2504
  -2411385.91047  -1853404.35945  21407717.1174                   21407717.9734
        47.5004         34.7504
   1476272.58648   1151124.88348  21255312.5704                   21255313.9104
        50.5004         49.5004
   2302941.04346   1786658.94545  24016539.5634                   24016548.1214
        37.0004         30.2504
   2619956.61746   2033333.87543  24842816.9774                   24842822.8524
        37.0004         18.5004
 25  8  7 20 47 30.0000000  0 10G27G02G31G10G01G03G28G32G08G23
   3138736.35246   2427402.87144  24990849.2504                   24990859.1844
        36.0004         28.2504
  -1928302.50447  -1484240.27746  21652421.2344                   21652418.9924
        47.0004         36.7504
  -4043538.19547  -3089534.44546  22577051.0314                   22577053.2304
        44.2504         37.2504
   1175324.16847    918080.71547  21951726.1954                   21951728.7274
        47.7504         44.2504
  -3567886.91047  -2725953.16444  23095666.1254                   23095668.4574
        42.2504         26.5004
   1357275.92256   1090446.34455  24879679.4304                   24879687.1684
        38.7504         30.5004
  -2515989.19947  -1934913.35545  21387811.8444                   21387812.1134
        46.5004         35.5004
   1475721.64548   1150695.56648  21255207.4694                   21255209.5824
        50.5004         49.2504
   2324594.52746   1803531.60244  24020660.3834                   24020668.4964
        38.7504         29.2504
   2649113.45346   2056053.28142  24848365.0704                   24848371.6024
        37.2504         16.7504
 25  8  7 20 48  0.0000000  0 10G27G02G31G10G01G03G28G32G08G23
   3178179.51646   2458137.48044  24998355.4534                   24998365.7504
        36.7504         28.5004
  -2017649.60247  -1553861.37146  21635419.1564                   21635416.6644
        46.7504         36.7504
  -4198424.41447  -3210224.85546  22547576.8134                   22547579.2624
        44.7504         38.0004
   1165881.87147    910723.03547  21949929.3674                   21949931.9574
        47.5004         44.2504
  -3709445.51647  -2836258.48044  23068728.7424                   23068730.7464
        43.0004         27.5004
   1222379.53545    985332.39144  24854009.0864                   24854018.4144
        35.0004         29.5004
  -2620211.14847  -2016125.20745  21367978.7734                   21367979.5514
        46.0004         35.5004
   1475283.72748   1150354.32448  21255124.2974                   21255126.1764
        50.7504         49.2504
   2346286.95746   1820434.62545  24024789.6724                   24024796.3404
        39.5004         30.5004
   2678258.23446   2078763.30943  24853911.5084                   24853917.4454
        36.7504         19.2504
 25  8  7 20 48 30.0000000  0 10G27G02G31G10G01G03G28G32G08G23
   3217401.09446   2488699.44544  25005818.4384                   25005830.0704
        37.0004         27.5004
  -2106672.38747  -1623229.75846  21618478.5634                   21618476.2894
        46.5004         36.2504
  -4353202.00047  -3330830.61746  22518123.3364                   22518125.9344
        45.0004         38.0004
   1156534.08647    903439.00847  21948150.6884                   21948153.0124
        47.5004         44.5004
  -3850887.19547  -2946472.69544  23041813.2664                   23041815.5474
        42.5004         27.0004
   1087317.26645    880089.19944  24828307.9774                   24828316.6724
        35.5004         28.0004
  -2724049.89847  -2097038.45346  21348218.9534                   21348219.6134
        46.7504         36.2504
   1474956.93848   1150099.67248  21255061.9614                   21255063.7854
        50.0004         49.0004
   2368015.27346   1837365.62144  24028923.9614                   24028931.6174
        39.5004         29.2504
   2707390.88345   2101463.88742  24859454.2344                   24859461.2114
        34.7504         17.7504
 25  8  7 20 49  0.0000000  0 10G27G02G31G10G01G03G28G32G08G23
   3256397.79746   2519086.23044  25013239.8754                   25013250.5944
        37.5004         28.5004
  -2195370.36347  -1692345.03546  21601600.2664                   21601598.0864
        46.7504         36.5004
  -4507868.89147  -3451350.13746  22488690.9844                   22488693.8444
        44.2504         37.5004
   1147280.47347    896228.36347  21946389.2734                   21946392.3204
        47.5004         44.5004
  -3992210.22347  -3056594.46544  23014920.3754                   23014922.6094
        42.0004         27.5004
    952088.53546    774716.28945  24802573.7344                   24802582.7664
        37.0004         31.5004
  -2827504.28547  -2177652.19145  21328532.3524                   21328532.8164
        46.5004         35.2504
   1474738.69148   1149929.60248  21255020.4844                   21255022.0274
        50.7504         49.0004
   2389775.62146   1854321.57444  24033065.0474                   24033072.6134
        39.5004         28.7504
   2736510.19955   2124153.99252  24864996.4694                   24865002.9734
        33.7504         15.5004
 25  8  7 20 49 30.0000000  0 10G27G02G31G10G01G03G28G32G08G23
   3295167.49246   2549296.10544  25020617.0944                   25020628.2974
        37.2504         28.7504
  -2283741.01247  -1761205.25845  21584783.6094                   21584781.3984
        46.5004         35.5004
  -4662421.52347  -3571780.62546  22459280.6724                   22459283.0744
        44.2504         38.0004
   1138122.16847    889091.98447  21944646.6884                   21944649.5984
        47.2504         44.2504
  -4133411.35247  -3166621.23444  22988050.4924                   22988052.5554
        43.0004         28.7504
    816694.40245    669214.51644  24776809.9144                   24776818.7074
        35.0004         29.2504
  -2930571.65247  -2257964.36745  21308919.0944                   21308919.5904
        46.2504         35.5004
   1474627.97748   1149843.31348  21254999.4384                   21255001.3954
        50.7504         49.0004
   2411565.73046   1871300.73445  24037210.7504                   24037219.4654
        38.5004         30.0004
   2765616.87945   2146834.29742  24870535.4224                   24870542.0554
        35.2504         16.2504
 25  8  7 20 50  0.0000000  0 10G27G02G31G10G01G03G28G32G08G23
   3333709.28946   2579328.39544  25027952.0474                   25027962.6024
        37.5004         29.5004
  -2371781.30147  -1829808.06246  21568029.9384                   21568027.5164
        47.0004         36.7504
  -4816854.89147  -3692118.17646  22429893.2584                   22429895.4454
        44.0004         37.2504
   1129061.38747    882031.60247  21942922.2584                   21942925.2974
        47.2504         44.7504
  -4274486.42647  -3276549.80144  22961205.0784                   22961206.9184
        43.0004         28.5004
    681136.73045    563585.32844  24751013.2504                   24751021.8524
        33.0004         28.0004
  -3033248.41847  -2337972.17245  21289380.1804                   21289380.8714
        46.0004         35.5004
   1474624.70348   1149840.74248  21254998.8914                   21255000.8874
        50.5004         49.0004
   2433384.29346   1888302.04344  24041362.4454                   24041371.0394
        37.7504         29.0004
   2794712.30145   2162855.90653  24876071.8594                   24876078.0824
        34.5004         18.5004
 25  8  7 20 50 30.0000000  0 10G27G02G31G10G01G03G28G32G08G23
   3372022.03546   2609182.15644  25035242.1804                   25035253.8834
        38.5004         29.7504
  -2459488.18447  -1898151.07046  21551339.8674                   21551337.6454
        47.0004         36.5004
  -4971164.44547  -3812359.25046  22400528.3594                   22400530.8834
        44.0004         38.0004
   1120100.17247    875048.81347  21941217.0554                   21941220.0664
        47.0004         44.5004
  -4415431.27047  -3386376.87544  22934383.7034                   22934385.7704
        43.2504         27.7504
    545417.41445    457830.20344  24725186.8594                   24725195.5864
        35.7504         29.2504
  -3135531.02047  -2417672.84445  21269916.5004                   21269917.3014
        46.0004         35.0004
   1474728.66048   1149921.72748  21255018.7814                   21255020.3634
        50.0004         49.2504
   2455229.84046   1905324.36344  24045520.0944                   24045528.7424
        37.7504         28.5004
   2823797.91846   2185519.80942  24881607.5164                   24881613.2624
        36.2504         17.7504
 25  8  7 20 51  0.0000000  0 10G27G02G31G10G01G03G28G32G08G23
   3410104.49646   2638856.53544  25042489.6094                   25042500.7384
        37.5004         29.5004
  -2546858.88747  -1966232.11746  21534713.9454                   21534711.6644
        46.2504         36.7504
  -5125345.67247  -3932500.33646  22371188.7114                   22371191.2774
        44.5004         39.0004
   1111240.23847    868144.93447  21939531.1724                   21939534.2114
        47.7504         44.2504
  -4556242.13747  -3496099.54344  22907587.9694                   22907590.3484
        43.5004         28.5004
    409537.80145    351950.15244  24699329.3594                   24699338.2934
        35.0004         27.7504
  -3237416.37547  -2497063.96145  21250528.2504                   21250529.0474
        46.5004         35.5004
   1474939.43048   1150085.94548  21255058.7664                   21255060.8094
        50.2504         49.0004
   2477100.85546   1922366.52044  24049682.7974                   24049691.1134
        37.5004         29.0004
   2852874.99646   2208177.06642  24887141.1804                   24887146.9384
        36.0004         17.7504
 25  8  7 20 51 30.0000000  0  9G27G02G31G10G01G03G28G32G08
   3447954.60946   2668349.69144  25049692.4844                   25049704.6334
        37.5004         29.5004
  -2633891.14847  -2034049.44946  21518152.3834                   21518150.0354
        46.5004         36.2504
  -5279394.50847  -4052538.25046  22341874.1564                   22341876.2734
        45.0004         39.2504
   1102482.89547    861320.99647  21937864.8834                   21937867.7894
        47.0004         44.5004
  -4696915.68747  -3605715.21944  22880818.9144                   22880821.1644
        43.0004         27.7504
    273499.00846    245946.04344  24673442.3444                   24673451.1524
        36.2504         27.5004
  -3338901.75847  -2576143.41446  21231216.0864                   21231217.0864
        46.2504         36.0004
   1475256.02748   1150332.62148  21255118.9064                   21255120.8984
        49.2504         49.0004
   2498994.89846   1939426.60244  24053848.5234                   24053857.1094
        37.5004         28.2504
 25  8  7 20 52  0.0000000  0  9G27G02G31G10G01G03G28G32G08
   3485570.23446   2697660.33645  25056850.6644                   25056862.3484
        38.5004         30.0004
  -2720583.69547  -2101602.07046  21501655.1024                   21501653.5434
        47.0004         36.5004
  -5433307.75447  -4172470.52046  22312585.2114                   22312587.3444
        45.2504         39.0004
   1093828.62547    854577.39147  21936217.8524                   21936220.9804
        47.0004         44.2504
  -4837449.35247  -3715221.88344  22854076.5784                   22854078.2584
        43.7504         28.2504
    137301.39146    139818.18844  24647525.9304                   24647532.8164
        36.2504         26.7504
  -3439985.25447  -2654909.71945  21211980.8444                   21211981.1954
        47.0004         35.7504
   1475676.82848   1150660.49648  21255199.2114                   21255201.0704
        49.5004         48.7504
   2520909.26646   1956502.57845  24058019.3364                   24058027.2734
        38.5004         30.2504
 25  8  7 20 52 30.0000000  0  9G27G02G31G10G01G03G28G32G08
   3522953.87546   2726790.16044  25063965.3444                   25063976.2194
        36.5004         28.0004
  -2806929.78947  -2168884.72746  21485223.8674                   21485221.8524
        46.2504         36.5004
  -5587077.25447  -4292290.77046  22283324.1254                   22283326.4184
        45.7504         39.0004
   1085283.30547    847918.66847  21934591.6094                   21934594.8324
        46.5004         44.2504
  -4977835.21947  -3824613.39144  22827362.0314                   22827363.4734
        44.2504         28.0004
       950.60946     33570.95344  24621578.0164                   24621586.5314
        36.0004         27.2504
  -3540659.73047  -2733357.31245  21192822.7194                   21192823.5514
        45.7504         35.2504
   1476205.40248   1151072.35248  21255299.6724                   21255301.4804
        50.0004         49.0004
   2542846.22746   1973596.13744  24062193.5784                   24062201.7274
        38.2504         29.5004
 25  8  7 20 53  0.0000000  0  9G27G02G31G10G01G03G28G32G08
   3560106.35545   2755739.62143  25071035.8524                   25071047.3094
        31.7504         22.7504
  -2892923.95347  -2235893.15646  21468859.5864                   21468857.6484
        47.0004         36.7504
  -5740695.72347  -4411993.33246  22254091.1884                   22254093.5044
        46.0004         38.7504
   1076851.17647    841348.15247  21932987.5474                   21932990.3444
        47.0004         44.2504
  -5118066.96547  -3933884.79344  22800676.3364                   22800678.3594
        43.0004         28.5004
   -135549.32045    -72792.48844  24595603.1414                   24595611.2304
        35.0004         27.5004
  -3640919.48447  -2811481.74245  21173743.9694                   21173744.6884
        46.5004         35.0004
   1476843.83248   1151569.82048  21255421.3054                   21255423.1454
        50.0004         49.0004
   2564806.50046   1990707.85944  24066373.1724                   24066381.2304
        37.5004         29.2504
 25  8  7 20 53 30.0000000  0  9G27G02G31G10G01G03G28G32G08
   3597024.50045   2784506.95344  25078060.7974                   25078072.5514
        34.7504         27.2504
  -2978566.47347  -2302627.57446  21452562.4774                   21452560.3324
        47.5004         36.5004
  -5894161.96147  -4531577.27346  22224887.9614                   22224889.4454
        46.0004         39.0004
   1068531.04347    834864.90647  21931404.1884                   21931406.5984
        47.0004         44.2504
  -5258143.67247  -4043035.38744  22774020.9454                   22774022.7464
        43.5004         28.5004
   -272199.61745   -179273.07844  24569598.9384                   24569607.7424
        35.5004         26.5004
  -3740764.42647  -2889282.94145  21154744.1334                   21154744.5944
        47.0004         35.7504
   1477588.75848   1152150.24648  21255562.8914                   21255565.3874
        50.2504         48.7504
   2586785.61346   2007834.23045  24070555.5784                   24070563.7624
        38.5004         30.0004
 25  8  7 20 54  0.0000000  0  9G27G02G31G10G01G03G28G32G08
   3633705.67645   2813089.37944  25085041.0944                   25085052.6764
        35.0004         25.7504
  -3063855.00447  -2369086.16446  21436332.7584                   21436330.6604
        47.5004         37.2504
  -6047471.66047  -4651039.24646  22195713.7504                   22195715.6294
        45.2504         39.2504
   1060324.33247    828470.03947  21929842.5634                   21929845.3874
        47.7504         43.5004
  -5398061.85947  -4152062.47744  22747394.9844                   22747397.3484
        43.2504         28.5004
   -408999.01245   -285869.85544  24543567.6644                   24543575.0004
        35.5004         27.0004
  -3840191.77747  -2966758.75046  21135823.6804                   21135824.1644
        47.2504         36.0004
   1478439.48448   1152813.14148  21255724.7194                   21255726.9184
        50.2504         48.7504
   2608781.43846   2024973.62144  24074742.1804                   24074749.8594
        38.7504         29.5004
 25  8  7 20 54 30.0000000  0  9G27G02G31G10G01G03G28G32G08
   3670147.78546   2841485.61744  25091975.8594                   25091987.1334
        36.2504         25.7504
  -3148788.48847  -2435268.09846  21420169.9534                   21420168.4104
        47.5004         37.0004
  -6200621.89147  -4770376.95346  22166569.9844                   22166571.9694
        45.5004         39.7504
   1052231.49247    822163.90647  21928302.6174                   21928305.2894
        47.5004         43.5004
  -5537818.98447  -4260964.05944  22720799.7664                   22720802.4494
        43.2504         28.5004
   -545947.32445   -392582.70744  24517506.2504                   24517514.7774
        34.7504         26.2504
  -3939199.82047  -3043907.82846  21116982.7664                   21116983.4024
        46.5004         36.0004
   1479394.20348   1153557.05948  21255906.4064                   21255908.3674
        50.5004         48.7504
   2630791.06346   2042123.81644  24078929.4924                   24078938.1724
        39.7504         29.7504
 25  8  7 20 55  0.0000000  0  9G27G02G31G10G01G03G28G32G08
   3706346.56645   2869692.16044  25098864.5314                   25098876.1174
        35.0004         26.5004
  -3233366.89147  -2501173.34446  21404075.6024                   21404073.6954
        46.5004         36.5004
  -6353611.15647  -4889589.23446  22137456.8524                   22137459.1414
        45.5004         40.0004
   1044251.54747    815945.73047  21926783.7034                   21926786.8754
        47.2504         43.5004
  -5677413.99247  -4369739.31644  22694235.9384                   22694237.4454
        43.5004         28.0004
   -683045.66445   -499412.45344  24491417.7274                   24491425.3484
        35.0004         26.5004
  -4037788.27048  -3120729.95345  21098222.1254                   21098222.8794
        48.0004         35.7504
   1480449.74648   1154379.54748  21256107.5164                   21256109.2114
        50.0004         48.5004
   2652810.03946   2059281.25045  24083119.6954                   24083128.2664
        40.0004         30.7504
 25  8  7 20 55 30.0000000  0  9G27G02G31G10G01G03G28G32G08
   3742298.04746   2897705.99644  25105705.6954                   25105717.4144
        36.2504         25.0004
  -3317590.12947  -2566801.82846  21388048.4144                   21388046.2464
        46.7504         36.2504
  -6506437.57047  -5008674.60546  22108375.1254                   22108376.8634
        46.0004         39.7504
   1036383.48448    809814.75447  21925286.5634                   21925289.6024
        48.0004         43.5004
  -5816845.77747  -4478387.37944  22667702.7034                   22667704.5234
        42.7504         28.2504
   -820294.98045   -606359.85944  24465299.6174                   24465307.4064
        34.5004         24.5004
  -4135956.92647  -3197224.96146  21079541.5004                   21079542.2114
        47.5004         36.0004
   1481603.03948   1155278.20748  21256326.8674                   21256328.7584
        50.2504         48.5004
   2674833.96146   2076442.54745  24087312.0004                   24087319.6914
        40.7504         30.2504
 25  8  7 20 56  0.0000000  0  9G27G02G31G10G01G03G28G32G08
   3778000.15246   2925525.52344  25112500.3984                   25112512.6134
        36.7504         25.0004
  -3401456.77047  -2632152.44546  21372089.2034                   21372086.7774
        47.7504         36.2504
  -6659097.61347  -5127630.34446  22079324.7894                   22079326.6374
        46.5004         40.5004
   1028628.27748    803771.70347  21923811.2974                   21923813.5984
        48.0004         43.0004
  -5956111.25847  -4586905.84844  22641201.5394                   22641203.4064
        43.0004         28.7504
   -957694.69946   -713424.45344  24439154.5474                   24439161.5514
        36.2504         26.5004
  -4233703.51247  -3273391.08245  21060940.5784                   21060940.9144
        46.7504         35.5004
   1482852.77048   1156252.00448  21256564.8914                   21256566.4804
        50.0004         48.5004
   2696860.25846   2093605.70345  24091502.1094                   24091511.1604
        40.5004         30.5004
 25  8  7 20 56 30.0000000  0  9G27G02G31G10G01G03G28G32G08
   5388870.51245   4180748.94944  25419039.0084                   25419050.5474
        35.5004         25.2504
  -1909541.17247  -1469620.80146  21655991.2814                   21655989.1564
        47.5004         37.0004
  -5236161.98047  -4018849.19546  22350100.0944                   22350101.8484
        45.7504         40.7504
   2596407.78547   2025418.04747  22222149.5314                   22222152.2154
        47.0004         43.0004
  -4519782.10247  -3467688.25044  22914525.7504                   22914527.6174
        43.5004         29.2504
    480181.50846    406998.70344  24712772.5944                   24712779.6374
        36.7504         28.0004
  -2755601.91847  -2121623.55945  21342213.9224                   21342214.5434
        47.2504         35.7504
   3059618.49648   2384900.60948  21556613.2664                   21556615.1844
        50.0004         48.2504
   4294306.43446   3338368.77045  24395486.3984                   24395495.5514
        39.5004         30.0004
 25  8  7 20 57  0.0000000  0  9G27G02G31G10G01G03G28G32G08
   5424066.97345   4208174.50844  25425737.1024                   25425748.4694
        34.7504         24.5004
