     2.11           OBSERVATION DATA    G (GPS)             RINEX VERSION / TYPE
teqc  2019Feb25                         20250819 20:56:34UTCPGM / RUN BY / DATE
Linux 2.6.32-573.12.1.x86_64|x86_64|gcc -static|Linux 64|=+ COMMENT
BIT 2 OF LLI FLAGS DATA COLLECTED UNDER A/S CONDITION       COMMENT
35233570                                                    MARKER NAME
3570                                                        MARKER NUMBER
-Unknown-           -Unknown-                               OBSERVER / AGENCY
0220413523          TRIMBLE R7          2.32                REC # / TYPE / VERS
-Unknown-           TRM39105.00     NONE                    ANT # / TYPE
 -2416964.9788 -4602397.0876  3684964.8163                  APPROX POSITION XYZ
        0.0000        0.0000        0.0000                  ANTENNA: DELTA H/E/N
     1     1                                                WAVELENGTH FACT L1/2
     7    L1    L2    C1    P1    P2    S1    S2            # / TYPES OF OBSERV
    18                                                      LEAP SECONDS
 SNR is mapped to RINEX snr flag value [0-9]                COMMENT
  L1 & L2: min(max(int(snr_dBHz/6), 0), 9)                  COMMENT
  2025     8     8     0     0   30.0000000     GPS         TIME OF FIRST OBS
                                                            END OF HEADER
 25  8  8  0  0 30.0000000  0 10G16G02G31G09G01G03G28G04G06G26
 -18045564.07857 -12909382.94154  22427650.0634                   22427650.6644
        42.5004         27.7504
 -11331574.75055  -8811511.85953  24959545.0474                   24959553.9304
        34.5004         18.5004
 -34811284.14557 -27064386.48056  21818603.9454                   21818602.3014
        46.2504         41.7504
 -12555690.89856  -9752208.62555  23893214.6884                   23893219.2384
        39.2504         33.0004
 -31000669.35557 -24102150.01654  22971854.8594                   22971857.4614
        42.7504         27.2504
 -50588474.79358 -39386732.79358  20091181.3204                   20091182.4494
        48.7504         50.2504
 -12560965.95356  -9762171.57053  24572788.9384                   24572791.0514
        38.5004         21.2504
 -41657732.36357 -32351193.99255  21341978.5234                   21341978.3094
        47.5004         34.0004
  -4747026.25056  -3668958.85254  25169842.8284                   25169847.9804
        37.5004         28.5004
 -33907715.62557 -26359089.09057  21646745.0554                   21646747.3554
        46.0004         42.5004
 25  8  8  0  1  0.0000000  0 10G16G02G31G09G01G03G28G04G06G26
 -18203392.66447 -13032366.13744  22397616.2894                   22397616.1724
        43.0004         27.7504
 -11314134.35545  -8797922.31243  24962863.1954                   24962872.7424
        34.7504         18.5004
 -34797408.83647 -27053574.57447  21821244.1174                   21821242.3554
        46.0004         42.0004
 -12702008.53546  -9866222.21545  23865371.4144                   23865375.6094
        40.5004         32.7504
 -30984097.22347 -24089236.81244  22975008.7974                   22975011.5434
        42.2504         27.5004
 -50663359.15648 -39445084.24248  20076931.1804                   20076932.3134
        49.5004         50.2504
 -12530936.97346  -9738772.40243  24578504.1484                   24578506.0394
        40.0004         22.0004
 -41768743.87148 -32437696.43445  21320853.7664                   21320853.5204
        48.0004         34.0004
  -4868727.74646  -3763791.15244  25146684.6174                   25146688.6914
        37.5004         28.2504
 -33984474.42647 -26418901.12147  21632138.3594                   21632140.5204
        46.2504         43.0004
 25  8  8  0  1 30.0000000  0 10G16G02G31G09G01G03G28G04G06G26
 -18360909.75047 -13155106.60244  22367641.3284                   22367641.9024
        43.0004         27.7504
 -11296795.69546  -8784412.10243  24966163.7584                   24966172.5354
        36.5004         19.0004
 -34783275.46147 -27042561.58247  21823933.4694                   21823931.9344
        46.2504         42.0004
 -12848314.02046  -9980226.34045  23837529.8134                   23837534.5354
        40.5004         33.5004
 -30967315.62547 -24076160.39544  22978202.1644                   22978204.8714
        42.5004         28.0004
 -50737701.17647 -39503013.08248  20062784.6414                   20062785.5314
        47.7504         50.2504
 -12500894.11746  -9715362.52743  24584223.0234                   24584223.1484
        40.2504         21.5004
 -41879619.90647 -32524093.28945  21299754.2894                   21299754.2934
        47.7504         34.2504
  -4989968.11346  -3858264.13344  25123612.6804                   25123617.5514
        38.0004         27.5004
 -34060628.69547 -26478242.07447  21617646.2894                   21617648.6914
        44.0004         42.7504
 25  8  8  0  2  0.0000000  0 10G16G02G31G09G01G03G28G04G06G26
 -18518117.23847 -13277605.83644  22337725.5084                   22337725.9104
        42.5004         27.0004
 -11279566.05946  -8770986.77743  24969442.7274                   24969450.8594
        37.0004         20.0004
 -34768891.01647 -27031352.93747  21826670.2274                   21826669.1684
        45.5004         42.0004
 -12994611.81646 -10094224.49245  23809690.6094                   23809694.8484
        40.0004         34.2504
 -30950332.39147 -24062926.87944  22981434.3524                   22981437.0124
        42.7504         27.2504
 -50811504.60548 -39560522.23848  20048739.7504                   20048740.9574
        49.0004         50.0004
 -12470843.92646  -9691946.87143  24589941.0234                   24589941.5044
        39.7504         21.5004
 -41990364.80947 -32610387.97745  21278680.1024                   21278680.5514
        47.5004         34.5004
  -5110750.40246  -3952380.16044  25100628.7424                   25100632.9534
        37.5004         27.7504
 -34136182.40247 -26537115.07447  21603269.2664                   21603271.1604
        45.7504         43.0004
 25  8  8  0  2 30.0000000  0 10G16G02G31G09G01G03G28G04G06G26
 -18675013.22747 -13399862.31644  22307869.2584                   22307869.3404
        43.7504         28.0004
 -11262449.53146  -8757649.60543  24972699.6334                   24972708.9614
        37.5004         21.0004
 -34754260.47747 -27019952.54746  21829455.0474                   21829453.4534
        45.5004         41.5004
 -13140903.60946 -10208217.94545  23781851.4064                   23781856.1174
        40.5004         34.0004
 -30933152.53147 -24049540.12944  22984703.8054                   22984705.7584
        43.0004         27.7504
 -50884770.30548 -39617612.37548  20034798.0554                   20034798.9494
        48.2504         50.2504
 -12440790.09046  -9668528.30943  24595659.3754                   24595660.5394
        41.2504         21.5004
 -42100980.13347 -32696581.69545  21257631.0004                   21257631.3164
        47.2504         34.2504
  -5231075.09446  -4046139.62144  25077731.4144                   25077735.9574
        36.5004         27.7504
 -34211136.91447 -26595521.15247  21589006.0394                   21589008.1054
        44.0004         42.7504
 25  8  8  0  3  0.0000000  0 10G16G02G31G09G01G03G28G04G06G26
 -18831592.73447 -13521872.19544  22278073.4924                   22278073.2274
        43.2504         29.2504
 -11245447.10546  -8744401.35943  24975935.7734                   24975945.2074
        37.2504         20.5004
 -34739384.49647 -27008360.89146  21832285.5314                   21832284.3324
        45.7504         41.7504
 -13287187.62546 -10322205.35545  23754015.3524                   23754019.2304
        40.5004         34.2504
 -30915777.59847 -24036001.36344  22988009.6724                   22988012.3874
        43.2504         27.7504
 -50957495.76648 -39674281.55948  20020958.6024                   20020960.0514
        49.7504         50.2504
 -12410732.45746  -9645106.96943  24601380.5004                   24601380.4924
        40.5004         21.0004
 -42211463.92247 -32782672.91445  21236606.7584                   21236606.4774
        46.7504         34.7504
  -5350939.04746  -4139540.07044  25054922.1484                   25054926.4024
        37.2504         27.5004
 -34285490.04747 -26653458.62947  21574856.8674                   21574859.0234
        46.0004         42.5004
 25  8  8  0  3 30.0000000  0 10G16G02G31G09G01G03G28G04G06G26
 -18987848.04747 -13643629.46144  22248338.6414                   22248338.9924
        43.0004         28.2504
 -11228557.12546  -8731240.71543  24979150.3364                   24979159.0004
        37.0004         20.7504
 -34724261.25447 -26996576.57046  21835163.7664                   21835162.2934
        45.0004         41.2504
 -13433459.41446 -10436183.23045  23726180.4454                   23726184.4384
        40.0004         33.7504
 -30898206.41447 -24022309.67644  22991354.1414                   22991356.2114
        42.2504         25.5004
 -51029675.87548 -39730525.79748  20007223.2504                   20007224.4844
        48.2504         50.2504
 -12380668.85946  -9621680.76243  24607098.5944                   24607101.8874
        37.5004         22.0004
 -42321811.65247 -32868658.11745  21215607.7734                   21215607.8714
        47.0004         34.2504
  -5470336.60246  -4232577.08644  25032200.7504                   25032205.5634
        37.7504         28.5004
 -34359237.01247 -26710923.76647  21560823.3444                   21560825.1644
        45.0004         43.0004
 25  8  8  0  4  0.0000000  0 10G16G02G31G09G01G03G28G04G06G26
 -19143773.48047 -13765129.68745  22218667.4534                   22218667.0204
        43.5004         30.2504
 -11211779.48846  -8718167.58643  24982343.2034                   24982352.1024
        37.0004         21.7504
 -34708891.38347 -26984600.07846  21838088.3134                   21838086.9264
        44.5004         41.0004
 -13579716.39146 -10550149.54745  23698348.0634                   23698352.3794
        40.0004         34.0004
 -30880439.90646 -24008465.78144  22994734.4144                   22994737.2504
        41.7504         26.5004
 -51101307.35948 -39786342.52748  19993592.2664                   19993593.1954
        48.7504         50.2504
 -12350598.48046  -9598249.41043  24612823.9924                   24612823.9774
        41.0004         21.2504
 -42432020.59047 -32954535.17245  21194635.8984                   21194636.1334
        47.0004         34.2504
  -5589264.00046  -4325247.76244  25009569.5784                   25009574.1094
        38.5004         28.2504
 -34432375.02747 -26767914.39847  21546905.5474                   21546907.3954
        44.0004         42.7504
 25  8  8  0  4 30.0000000  0 10G16G02G31G09G01G03G28G04G06G26
 -19299367.61347 -13886371.74244  22189058.1644                   22189058.9574
        43.5004         29.2504
 -11195118.58646  -8705185.43743  24985514.1414                   24985523.0274
        38.5004         21.5004
 -34693278.88747 -26972434.51646  21841059.2584                   21841057.8754
        45.2504         41.2504
 -13725960.36346 -10664105.74645  23670518.9534                   23670523.0784
        40.0004         34.5004
 -30862483.06246 -23994473.60944  22998151.4454                   22998155.0514
        40.5004         26.5004
 -51172391.30948 -39841732.62148  19980065.6804                   19980066.5904
        48.2504         50.5004
 -12320524.96146  -9574815.51243  24618544.6564                   24618546.3134
        37.7504         21.7504
 -42542092.33247 -33040305.33245  21173690.0474                   21173689.8554
        46.7504         34.5004
  -5707721.77746  -4417552.48844  24987028.4844                   24987032.6914
        37.7504         27.7504
 -34504905.57047 -26824431.68047  21533103.4224                   21533105.4104
        44.5004         43.2504
 25  8  8  0  5  0.0000000  0 10G16G02G31G09G01G03G28G04G06G26
 -19454623.55547 -14007350.29744  22159514.1254                   22159514.0744
        44.5004         29.0004
 -11178573.66046  -8692293.66043  24988662.8134                   24988671.6454
        39.2504         21.7504
 -34677423.37947 -26960079.60247  21844076.8754                   21844075.1174
        45.2504         42.0004
 -13872187.63346 -10778048.92245  23642693.0084                   23642696.8094
        40.2504         34.0004
 -30844335.60946 -23980332.90644  23001605.7974                   23001608.2814
        40.5004         25.7504
 -51242923.49248 -39896692.76248  19966643.7424                   19966644.7504
        49.5004         50.2504
 -12290446.67646  -9551377.99243  24624270.3204                   24624270.2384
        40.5004         21.0004
 -42652023.12547 -33125965.65245  21152770.6254                   21152770.4264
        47.2504         34.5004
  -5825705.11346  -4509487.52044  24964577.4614                   24964581.2344
        37.7504         27.0004
 -34576824.72747 -26880472.54747  21519417.4774                   21519419.4224
        45.0004         42.7504
 25  8  8  0  5 30.0000000  0 10G16G02G31G09G01G03G28G04G06G26
 -19609539.29347 -14128063.74644  22130034.5634                   22130034.7464
        43.5004         29.0004
 -11162148.58646  -8679495.32443  24991788.4144                   24991797.9304
        39.0004         22.5004
 -34661328.80147 -26947538.39146  21847139.3054                   21847138.2384
        45.7504         41.2504
 -14018399.39146 -10891980.02745  23614869.1804                   23614873.7234
        39.7504         34.0004
 -30826002.18446 -23966047.28544  23005094.4614                   23005097.1604
        41.0004         26.5004
 -51312904.39848 -39951223.33248  19953326.5554                   19953327.5704
        48.5004         50.2504
 -12260366.76646  -9527939.14143  24629992.7584                   24629994.9264
        39.5004         21.5004
 -42761813.97347 -33211516.92645  21131878.4064                   21131877.8914
        47.7504         34.5004
  -5943213.94546  -4601052.82844  24942216.4844                   24942220.5354
        37.7504         27.2504
 -34648133.51247 -26936037.80947  21505847.9144                   21505850.3984
        44.5004         43.0004
 25  8  8  0  6  0.0000000  0 10G16G02G31G09G01G03G28G04G06G26
 -19764109.95747 -14248508.31644  22100620.0784                   22100620.7304
        43.2504         29.5004
 -11145844.28946  -8666791.04743  24994891.5004                   24994900.8244
        39.5004         21.7504
 -34644996.05547 -26934811.59846  21850247.3524                   21850245.9884
        45.7504         41.5004
 -14164593.96246 -11005897.73745  23587049.2114                   23587053.5204
        40.7504         34.0004
 -30807484.36746 -23951617.99644  23008618.8054                   23008621.7664
        40.5004         26.0004
 -51382331.86747 -40005322.65648  19940115.4384                   19940116.2384
        47.7504         50.2504
 -12230285.23846  -9504499.08243  24635717.0084                   24635718.8524
        38.7504         21.0004
 -42871463.09447 -33296957.77045  21111012.8984                   21111012.6724
        47.2504         35.0004
  -6060245.48446  -4692246.19944  24919945.6564                   24919950.3284
        37.7504         27.7504
 -34718830.07047 -26991126.00447  21492394.9144                   21492396.7734
        44.0004         42.7504
 25  8  8  0  6 30.0000000  0 10G16G02G31G09G01G03G28G04G06G26
 -19918331.73847 -14368681.01244  22071273.3834                   22071273.4844
        43.7504         28.5004
 -11129662.39846  -8654182.15243  24997970.6804                   24997981.2304
        39.2504         21.5004
 -34628426.96547 -26921900.64846  21853400.4534                   21853399.1564
        45.5004         41.2504
 -14310770.25046 -11119801.21545  23559233.2504                   23559237.0124
        40.2504         33.7504
 -30788784.58646 -23937046.92244  23012176.8204                   23012180.0904
        40.0004         26.5004
 -51451204.21948 -40058989.42648  19927009.0394                   19927010.2624
        49.2504         50.5004
 -12200203.12546  -9481058.59043  24641442.9144                   24641443.5594
        38.7504         21.2504
 -42980969.25447 -33382287.21945  21090174.6644                   21090174.3134
        47.2504         34.2504
  -6176797.49246  -4783065.93444  24897766.0164                   24897771.3954
        37.5004         28.5004
 -34788913.22747 -27045736.22747  21479058.4384                   21479060.5204
        46.2504         43.0004
 25  8  8  0  7  0.0000000  0 10G16G02G31G09G01G03G28G04G06G26
 -20072203.96147 -14488581.33244  22041991.8984                   22041992.2814
        43.7504         29.0004
 -11113608.04346  -8641672.66443  25001026.4694                   25001036.2114
        40.5004         22.5004
 -34611626.84047 -26908809.66047  21856597.5164                   21856596.0984
        45.2504         42.0004
 -14456931.10246 -11233692.65245  23531419.2894                   23531423.0984
        40.2504         33.5004
 -30769908.89146 -23922338.78544  23015769.1334                   23015772.4024
        39.7504         25.5004
 -51519523.71148 -40112225.39148  19914008.3754                   19914009.7814
        50.0004         50.2504
 -12170125.08646  -9457621.15643  24647164.4774                   24647167.3554
        37.7504         21.7504
 -43090335.08247 -33467507.31245  21069362.6094                   21069362.4144
        47.7504         34.7504
  -6292871.79346  -4873513.43044  24875677.6334                   24875682.8794
        36.7504         29.0004
 -34858385.66847 -27099870.57847  21465838.1414                   21465840.1294
        46.7504         43.0004
 25  8  8  0  7 30.0000000  0 10G16G02G31G09G01G03G28G04G06G26
 -20225721.75447 -14608205.46944  22012778.8054                   22012778.4734
        44.2504         28.7504
 -11097682.67646  -8629263.64543  25004056.6954                   25004067.1214
        39.0004         21.7504
 -34594597.10247 -26895539.75846  21859838.1804                   21859836.7774
        45.5004         41.5004
 -14603075.02046 -11347570.91845  23503607.9614                   23503612.5864
        40.5004         33.7504
 -30750859.22346 -23907495.06644  23019393.9064                   23019397.7774
        39.7504         25.7504
 -51587288.37948 -40165029.02748  19901113.3364                   19901114.1994
        48.2504         50.2504
 -12140051.40645  -9434187.17243  24652886.3674                   24652890.1954
        34.5004         21.5004
 -43199558.96547 -33552616.79745  21048577.8364                   21048578.0474
        47.5004         35.0004
  -6408465.77046  -4963586.63344  24853680.8674                   24853685.9264
        38.0004         29.0004
 -34927245.88347 -27153527.86747  21452734.7424                   21452736.7544
        46.5004         43.2504
 25  8  8  0  8  0.0000000  0 10G16G02G31G09G01G03G28G04G06G26
 -20378879.84047 -14727549.30944  21983633.5164                   21983633.4884
        44.5004         29.7504
 -11081886.68046  -8616955.44143  25007063.7114                   25007073.0394
        39.5004         22.5004
 -34577338.55147 -26882091.55146  21863121.7114                   21863121.0274
        46.7504         41.5004
 -14749199.60546 -11461434.10945  23475801.8204                   23475806.1094
        40.7504         33.7504
 -30731636.63346 -23892516.60944  23023051.6564                   23023055.5044
        40.5004         25.2504
 -51654495.38747 -40217398.12148  19888324.2734                   19888325.2194
        47.7504         50.5004
 -12109981.73846  -9410756.43443  24658613.1884                   24658612.2734
        39.0004         19.7504
 -43308638.40648 -33637613.73445  21027821.0944                   21027821.0664
        48.0004         35.7504
  -6523576.02746  -5053282.92244  24831775.7584                   24831781.1684
        37.5004         27.7504
 -34995491.43747 -27206706.19547  21439747.5634                   21439749.7464
        44.0004         43.0004
 25  8  8  0  8 30.0000000  0 10G16G02G31G09G01G03G28G04G06G26
 -20531675.94547 -14846611.09444  21954557.1024                   21954556.8444
        44.0004         29.0004
 -11066223.19546  -8604750.52343  25010043.8594                   25010054.1804
        39.2504         21.2504
 -34559854.38347 -26868467.55946  21866449.5474                   21866448.1524
        46.5004         41.5004
 -14895305.51746 -11575282.76445  23447999.3984                   23448002.8754
        41.0004         33.5004
 -30712245.23847 -23877406.60544  23026742.6724                   23026745.5554
        42.0004         27.2504
 -51721144.97748 -40269332.85948  19875641.2504                   19875642.3324
        50.0004         50.2504
 -12079918.68046  -9387330.68743  24664332.7274                   24664333.9774
        39.2504         21.5004
 -43417573.89147 -33722498.50045  21007091.3594                   21007091.1094
        47.5004         34.2504
  -6638202.23846  -5142602.02044  24809963.3754                   24809967.9804
        39.2504         28.0004
 -35063123.09447 -27259406.16847  21426877.8134                   21426880.1174
        45.7504         43.0004
 25  8  8  0  9  0.0000000  0 10G16G02G31G09G01G03G28G04G06G26
 -20684105.21547 -14965387.02344  21925550.9304                   21925550.5824
        44.5004         29.2504
 -11050693.07446  -8592649.51243  25012999.5004                   25013010.2814
        39.7504         21.0004
 -34542145.72747 -26854668.62546  21869819.3674                   21869818.0704
        46.0004         41.0004
 -15041391.08646 -11689115.55145  23420199.5944                   23420203.3954
        40.0004         34.2504
 -30692686.65246 -23862166.32844  23030464.2664                   23030467.5434
        41.5004         25.5004
 -51787234.98848 -40320831.57048  19863064.6024                   19863065.6994
        48.5004         50.2504
 -12049862.23446  -9363910.13343  24670050.3914                   24670052.8714
        36.5004         21.0004
 -43526363.60247 -33807269.66845  20986389.1334                   20986389.1844
        47.5004         35.5004
  -6752341.68446  -5231541.82444  24788243.5084                   24788247.9104
        37.7504         29.0004
 -35130139.08647 -27311626.39547  21414125.4064                   21414127.3794
        46.7504         42.7504
 25  8  8  0  9 30.0000000  0 11G16G02G31G09G01G03G28G04G06G26G07
 -20836166.42247 -15083876.16444  21896614.4694                   21896614.2274
        43.7504         29.0004
 -11035301.09046  -8580656.14543  25015929.2504                   25015939.3834
        39.2504         21.5004
 -34524217.05947 -26840698.26246  21873231.1724                   21873229.8554
        46.2504         40.7504
 -15187458.12946 -11802933.91445  23392403.9774                   23392408.0514
        40.7504         34.2504
 -30672966.09447 -23846799.85544  23034217.2034                   23034220.0744
        43.0004         26.2504
 -51852766.87948 -40371895.37948  19850594.6954                   19850595.3874
        49.7504         50.2504
 -12019816.19946  -9340497.74243  24675769.2114                   24675770.2504
        37.0004         19.0004
 -43635009.19947 -33891928.53945  20965714.7114                   20965714.2774
        47.7504         34.5004
  -6865995.19546  -5320102.98444  24766616.1564                   24766620.8484
        38.5004         29.2504
 -35196541.33247 -27363368.38347  21401488.9384                   21401491.0554
        45.7504         42.7504
   -210102.48456   -126588.52754  25158171.9844                   25158180.6294
        38.0004         26.2504
 25  8  8  0 10  0.0000000  0 11G16G02G31G09G01G03G28G04G06G26G07
 -20987859.05147 -15202078.10544  21867748.5704                   21867748.5314
        44.2504         29.5004
 -11020052.57046  -8568774.53143  25018831.2344                   25018841.1484
        39.0004         21.0004
 -34506074.06247 -26826560.89846  21876683.8594                   21876682.1254
        45.7504         40.7504
 -15333509.44546 -11916740.02045  23364611.9304                   23364615.0044
        40.7504         34.7504
 -30653089.87947 -23831312.10244  23038000.3364                   23038003.1524
        42.7504         26.7504
 -51917743.09448 -40422526.19148  19838229.7664                   19838230.8284
        49.5004         50.0004
 -11989785.27046  -9317097.07443  24681483.9064                   24681484.9494
        38.0004         19.5004
 -43743513.33247 -33976477.17245  20945066.9224                   20945067.1024
        47.2504         35.0004
  -6979164.71946  -5408287.00045  24745081.0314                   24745085.3634
        38.5004         30.5004
 -35262332.79347 -27414634.43447  21388969.8444                   21388971.5554
        46.5004         42.5004
   -365185.99245   -247432.47744  25128654.8834                   25128669.4184
        31.0004         24.2504
 25  8  8  0 10 30.0000000  0 11G16G02G31G09G01G03G28G04G06G26G07
 -21139183.30547 -15319993.00445  21838952.2424                   21838951.8014
        44.0004         30.2504
 -11004953.29346  -8557009.23043  25021704.5314                   25021714.7034
        39.7504         20.2504
 -34487722.74247 -26812261.19946  21880175.6094                   21880174.5704
        46.0004         40.5004
 -15479548.13346 -12030536.28545  23336820.7504                   23336824.5474
        41.0004         34.5004
 -30633064.54747 -23815708.12944  23041811.0944                   23041814.2854
        42.7504         27.2504
 -51982166.48848 -40472726.23448  19825970.3914                   19825971.5434
        49.5004         50.0004
 -11959774.45346  -9293712.09443  24687195.2584                   24687196.4224
        38.0004         20.0004
 -43851879.05147 -34060917.94945  20924445.4614                   20924445.3674
        47.5004         35.2504
  -7091852.40246  -5496095.56644  24723636.7664                   24723641.9844
        37.7504         29.7504
 -35327516.77347 -27465427.12147  21376565.4844                   21376567.9454
        46.0004         43.0004
   -520143.87955   -368178.50854  25099170.7114                   25099180.3244
        35.5004         25.0004
 25  8  8  0 11  0.0000000  0 11G16G02G31G09G01G03G28G04G06G26G07
 -21290138.71947 -15437620.48444  21810226.3914                   21810226.4304
        43.7504         27.7504
 -10990008.44946  -8545364.22743  25024548.8054                   25024559.2854
        38.5004         19.5004
 -34469168.06247 -26797803.03946  21883706.1884                   21883705.0554
        45.7504         40.2504
 -15625576.58246 -12144324.55145  23309032.7894                   23309036.1374
        40.7504         34.5004
 -30612895.87947 -23799992.48844  23045649.1174                   23045652.1564
        43.0004         27.7504
 -52046039.07048 -40522497.07448  19813815.8054                   19813816.9534
        50.0004         50.2504
 -11929787.92646  -9270346.00843  24692900.6024                   24692903.1914
        36.5004         20.0004
 -43960108.54347 -34145252.58245  20903850.3134                   20903850.6214
        47.5004         35.5004
  -7204059.78546  -5583529.87145  24702283.5704                   24702289.6564
        38.2504         30.0004
 -35392095.81647 -27515748.43047  21364276.4384                   21364278.7734
        45.5004         42.7504
   -674975.58255   -488826.19953  25069706.9774                   25069716.4024
        34.5004         23.2504
 25  8  8  0 11 30.0000000  0 11G16G02G31G09G01G03G28G04G06G26G07
 -21440718.35947 -15554955.17244  21781571.8674                   21781571.4844
        43.7504         29.2504
 -10975216.20746  -8533838.17243  25027363.1724                   25027374.5474
        38.5004         19.7504
 -34450408.96147 -26783185.59046  21887275.8674                   21887274.9884
        45.7504         40.5004
 -15771590.93046 -12258101.83645  23281246.6094                   23281250.4184
        40.2504         33.5004
 -30592583.39147 -23784164.77044  23049514.2504                   23049518.5554
        42.5004         27.5004
 -52109356.68748 -40571835.47748  19801767.0474                   19801767.9654
        50.0004         50.2504
 -11899823.67645  -9246997.32443  24698601.6804                   24698604.7424
        35.0004         20.2504
 -44068197.75047 -34229477.89545  20883281.2504                   20883281.6024
        47.5004         35.5004
  -7315782.09046  -5670586.19545  24681024.1884                   24681029.4144
        38.0004         30.0004
 -35456066.21547 -27565595.47347  21352103.2344                   21352105.1884
        46.5004         42.7504
   -829677.69145   -609372.68744  25040267.7114                   25040278.4414
        35.5004         26.0004
 25  8  8  0 12  0.0000000  0 11G16G02G31G09G01G03G28G04G06G26G07
 -20015480.02347 -14444379.74244  22052785.2114                   22052785.0554
        44.0004         29.7504
  -9385146.31646  -7294823.01643  25329943.8984                   25329955.0744
        38.5004         19.5004
 -32856015.18747 -25540800.87946  22190679.4924                   22190678.3094
        46.2504         41.0004
 -14342152.37146 -11144253.46945  23553259.9384                   23553263.5594
        39.5004         33.7504
 -28996697.31647 -22540617.38344  23353200.6094                   23353205.1884
        42.7504         27.2504
 -50596683.09448 -39393128.78548  20089619.2584                   20089620.5044
        49.2504         50.2504
 -10294450.71945  -7996057.34043  25004094.2274                   25004097.2074
        34.7504         19.5004
 -42600709.00847 -33085980.12545  21162535.1094                   21162535.1884
        47.2504         35.5004
  -5851580.91446  -4529650.20744  24959651.9224                   24959657.3554
        38.5004         29.7504
 -33943992.22747 -26387355.98447  21639841.1884                   21639843.2504
        46.0004         42.5004
    591189.44945    497797.01243  25310648.0164                   25310659.0904
        34.0004         22.7504
 25  8  8  0 12 30.0000000  0 10G16G31G09G01G03G28G04G06G26G07
 -20165267.32447 -14561096.99645  22024281.2894                   22024281.4264
        44.2504         30.0004
 -32836823.86347 -25525846.63746  22194331.5314                   22194330.2274
        45.7504         40.7504
 -14488106.78946 -11257984.02045  23525485.4224                   23525489.5234
        39.7504         34.2504
 -28976075.85947 -22524548.92644  23357125.8524                   23357129.0044
        42.5004         25.5004
 -50658858.42248 -39441577.08648  20077787.4224                   20077788.4774
        49.5004         50.2504
 -10264504.97745  -7972723.10543  25009793.1024                   25009796.1954
        35.5004         19.7504
 -42708485.58247 -33169961.83246  21142025.7114                   21142026.0704
        47.2504         36.0004
  -5962298.90246  -4615923.94545  24938583.7504                   24938588.5434
        39.0004         30.0004
 -34006714.46547 -26436230.44547  21627905.2584                   21627907.8404
        46.0004         42.5004
    436780.04345    377478.45743  25281263.7814                   25281274.9184
        33.5004         22.7504
 25  8  8  0 13  0.0000000  0 10G16G31G09G01G03G28G04G06G26G07
 -20314648.92647 -14677498.12545  21995855.1024                   21995854.7074
        44.5004         30.5004
 -32817416.02347 -25510723.67646  22198024.2504                   22198023.0164
        45.7504         40.0004
 -14634026.48846 -11371687.51645  23497717.6484                   23497721.6954
        39.5004         34.0004
 -28955300.28146 -22508360.37944  23361079.9454                   23361082.6644
        41.0004         25.2504
 -50720457.53548 -39489576.39848  20066065.9534                   20066066.9844
        49.5004         50.2504
 -10234566.48046  -7949394.38743  25015490.4774                   25015491.8874
        36.7504         18.2504
 -42816100.82847 -33253817.81645  21121547.3754                   21121547.4804
        47.0004         35.0004
  -6072508.83246  -4701801.78945  24917611.9384                   24917615.9414
        38.7504         31.0004
 -34068808.36347 -26484615.28147  21616089.4064                   21616091.4804
        45.5004         42.2504
    282522.70346    257278.46944  25251911.7894                   25251919.8284
        37.0004         24.2504
 25  8  8  0 13 30.0000000  0 10G16G31G09G01G03G28G04G06G26G07
 -20463622.19147 -14793581.07844  21967506.4844                   21967506.3324
        43.7504         29.7504
 -32797794.22347 -25495433.99646  22201758.3984                   22201757.2854
        45.0004         40.7504
 -14779911.35946 -11485363.87545  23469956.5554                   23469960.1174
        39.0004         34.0004
 -28934374.02047 -22492054.39144  23365061.6564                   23365065.1884
        42.0004         26.5004
 -50781480.18048 -39537126.50848  20054453.5634                   20054454.3444
        50.2504         50.2504
 -10204637.03545  -7926072.89843  25021187.0164                   25021188.5394
        35.5004         19.0004
 -42923554.56247 -33337547.94945  21101100.0554                   21101099.6564
        47.5004         35.5004
  -6182209.82446  -4787283.07445  24896735.9304                   24896740.2464
        39.0004         30.5004
 -34130274.18047 -26532510.69947  21604393.0554                   21604394.8324
        46.2504         42.2504
    128417.81346    137197.18843  25222587.0084                   25222594.7584
        38.2504         22.2504
 25  8  8  0 14  0.0000000  0 10G16G31G09G01G03G28G04G06G26G07
 -20612174.52347 -14909336.02745  21939237.2034                   21939237.4064
        44.2504         30.0004
 -32777951.83647 -25479972.43446  22205534.1564                   22205533.3794
        46.0004         41.0004
 -14925751.89546 -11599005.67245  23442203.9224                   23442207.8054
        39.7504         34.7504
 -28913290.94147 -22475626.21944  23369073.4614                   23369077.3554
        42.2504         25.2504
 -50841916.67248 -39584219.87548  20042952.6484                   20042953.9024
        49.5004         50.0004
 -10174708.87545  -7902752.28543  25026880.2664                   25026883.8954
        33.7504         19.5004
 -43030837.04748 -33421144.64545  21080684.4064                   21080684.3674
        48.0004         35.2504
  -6291391.59846  -4872359.76245  24875959.8054                   24875964.2074
        39.0004         30.7504
 -34191102.73047 -26579909.54747  21592817.9304                   21592819.8364
        45.5004         43.0004
    -25524.52346     17242.58644  25193294.8834                   25193300.6804
        40.0004         27.7504
 25  8  8  0 14 30.0000000  0 10G16G31G09G01G03G28G04G06G26G07
 -20760303.63347 -15024761.20344  21911050.2344                   21911049.4224
        43.5004         29.7504
 -32757892.37147 -25464341.71546  22209351.1484                   22209350.5664
        46.0004         40.7504
 -15071548.84046 -11712613.50845  23414459.7034                   23414463.5004
        38.2504         34.2504
 -28892055.25847 -22459079.14844  23373115.4844                   23373118.7664
        42.2504         26.2504
 -50901767.68048 -39630857.02048  20031563.6414                   20031564.5824
        49.0004         50.0004
 -10144784.74645  -7879434.69943  25032574.9224                   25032578.2194
        34.5004         18.2504
 -43137948.91847 -33504608.40245  21060301.5314                   21060301.4774
        47.5004         35.5004
  -6400054.22746  -4957031.91445  24855281.3284                   24855286.3634
        38.5004         30.5004
 -34251295.19947 -26626812.75047  21581363.5864                   21581365.7814
        46.5004         42.7504
   -179303.36755    -82608.26654  25164026.8914                   25164036.3634
        35.2504         25.2504
 25  8  8  0 15  0.0000000  0 10G16G31G09G01G03G28G04G06G26G07
 -20908005.52347 -15139853.48845  21882943.1884                   21882942.6914
        45.0004         30.2504
 -32737617.18047 -25448542.90646  22213209.7894                   22213208.7664
        46.0004         40.5004
 -15217300.92646 -11826186.39145  23386723.2974                   23386727.7504
        38.5004         34.0004
 -28870669.16847 -22442414.88744  23377185.1644                   23377188.3634
        43.0004         26.5004
 -50961031.82848 -39677036.87148  20020286.1024                   20020287.2114
        49.5004         49.7504
 -10114864.96546  -7856120.70343  25038269.6884                   25038271.5434
        36.2504         19.2504
 -43244888.73447 -33587938.08645  21039951.5314                   21039951.1804
        47.2504         35.5004
  -6508195.73846  -5041298.02345  24834703.1334                   24834707.4344
        38.0004         31.0004
 -34310850.73447 -26673219.64547  21570030.4614                   21570032.6484
        46.5004         43.0004
   -332918.84045   -202308.27343  25134793.7034                   25134804.3284
        34.2504         22.7504
 25  8  8  0 15 30.0000000  0 10G16G31G09G01G03G28G04G06G26G07
 -21055279.60247 -15254612.39845  21854917.8134                   21854916.8674
        44.0004         30.5004
 -32717131.64547 -25432580.19146  22217108.5944                   22217107.0704
        46.5004         40.5004
 -15363010.53546 -11939726.16845  23358995.5784                   23358999.8284
        37.7504         34.5004
 -28849138.50047 -22425637.98044  23381282.8674                   23381285.9494
        43.2504         27.2504
 -51019711.48848 -39722761.27348  20009119.5164                   20009120.2894
        50.2504         50.0004
 -10084953.94146  -7832813.52343  25043961.5394                   25043964.4344
        36.2504         18.5004
 -43351658.76647 -33671135.46945  21019634.2034                   21019633.7704
        47.0004         35.0004
  -6615817.80946  -5125159.37544  24814222.5634                   24814227.6644
        38.2504         29.7504
 -34369772.26647 -26719132.50847  21558818.1334                   21558819.9884
        47.0004         43.0004
   -486372.07046   -321881.62544  25105595.2584                   25105602.6374
        40.7504         29.0004
 25  8  8  0 16  0.0000000  0 10G16G31G09G01G03G28G04G06G26G07
 -21202123.39547 -15369036.02745  21826974.0474                   21826973.3284
        44.5004         30.0004
 -32696439.04347 -25416456.12946  22221046.1414                   22221044.8134
        46.2504         40.2504
 -15508678.27046 -12053233.32845  23331275.9304                   23331279.6564
        37.7504         34.0004
 -28827467.33647 -22408751.57844  23385405.9534                   23385409.8634
        42.2504         25.0004
 -51077807.21948 -39768030.66848  19998064.6564                   19998065.3014
        50.5004         50.2504
 -10055054.01245  -7809514.84442  25049650.8914                   25049652.8164
        34.5004         17.7504
 -43458259.45347 -33754200.89845  20999348.4454                   20999348.3324
        47.5004         35.2504
  -6722920.57446  -5208616.07445  24793842.7584                   24793846.9734
        37.5004         30.5004
 -34428060.91447 -26764552.21947  21547726.0004                   21547728.1604
        46.7504         42.7504
   -639662.98446   -441328.64844  25076421.4844                   25076431.8594
        37.0004         26.0004
 25  8  8  0 16 30.0000000  0 10G16G31G09G01G03G28G04G06G26G07
 -21348534.02747 -15483122.14145  21799112.9694                   21799112.3284
        45.5004         31.0004
 -32675542.02747 -25400172.77746  22225022.2274                   22225021.3834
        46.2504         39.7504
 -15654304.02346 -12166707.77345  23303564.5164                   23303568.3594
        39.5004         34.2504
 -28805659.05547 -22391758.35244  23389556.6024                   23389560.0234
        42.2504         25.2504
 -51135318.89548 -39812844.96148  19987120.0474                   19987121.5124
        50.0004         50.0004
 -10025166.96545  -7786226.32843  25055337.2734                   25055341.0274
        33.7504         18.5004
 -43564690.50447 -33837134.15245  20979095.0554                   20979095.2234
        47.5004         35.2504
  -6829503.11746  -5291667.38344  24773559.9614                   24773565.2074
        37.7504         29.7504
 -34485717.08647 -26809479.09847  21536754.5784                   21536756.6294
        46.0004         43.2504
   -792790.75846   -560648.61344  25047283.6094                   25047291.9734
        40.5004         27.0004
 25  8  8  0 17  0.0000000  0 10G16G31G09G01G03G28G04G06G26G07
 -21494508.32447 -15596868.24645  21771334.9384                   21771334.6684
        46.0004         31.2504
 -32654442.67647 -25383731.76646  22229038.1644                   22229036.3324
        46.2504         39.5004
 -15799887.23046 -12280149.06245  23275860.6804                   23275864.0704
        40.0004         35.0004
 -28783716.53147 -22374660.50043  23393732.1174                   23393736.2194
        42.0004         23.5004
 -51192246.06648 -39857203.79348  19976287.4224                   19976288.3874
        50.0004         50.2504
  -9995293.98846  -7762948.76643  25061024.6804                   25061025.5514
        37.2504         18.2504
 -43670951.25047 -33919934.69945  20958874.6254                   20958874.3524
        47.5004         35.0004
  -6935564.50846  -5374312.62145  24753377.1564                   24753382.0004
        38.2504         30.7504
 -34542740.85947 -26853913.19147  21525903.0394                   21525905.0314
        46.5004         42.5004
   -945754.75846   -679840.87944  25018175.8054                   25018182.2234
        40.0004         26.2504
 25  8  8  0 17 30.0000000  0 10G16G31G09G01G03G28G04G06G26G07
 -21640043.64147 -15710272.28545  21743639.7274                   21743639.3524
        46.0004         31.2504
 -32633144.57447 -25367135.87546  22233090.4694                   22233089.3984
        45.2504         40.0004
 -15945428.48846 -12393557.66845  23248165.3914                   23248168.4924
        40.5004         35.2504
 -28761643.86747 -22357461.27044  23397933.1334                   23397935.6484
        42.0004         24.0004
 -51248589.35548 -39901107.64548  19965565.6484                   19965566.4184
        50.0004         50.2504
  -9965437.58246  -7739684.01642  25066704.5474                   25066706.6024
        36.2504         16.2504
 -43777042.14547 -34002602.89145  20938685.9844                   20938685.7194
        47.2504         35.5004
  -7041104.68746  -5456551.70745  24733293.6644                   24733298.1884
        37.7504         30.2504
 -34599133.47747 -26897855.48047  21515172.0004                   21515174.0704
        46.0004         42.7504
  -1098555.27046   -798905.84044  24989096.4774                   24989104.8404
        38.5004         25.5004
 25  8  8  0 18  0.0000000  0 10G16G31G09G01G03G28G04G06G26G07
 -21785138.43747 -15823333.07445  21716029.4774                   21716029.4694
        44.7504         30.5004
 -32611651.71947 -25350388.23446  22237180.6484                   22237179.1884
        45.2504         39.5004
 -16090928.98446 -12506934.51245  23220477.1804                   23220480.6214
        40.7504         35.2504
 -28739445.74647 -22340164.24244  23402156.9774                   23402160.8874
        42.0004         25.0004
 -51304350.02748 -39944557.52748  19954954.7424                   19954955.5354
        50.0004         50.2504
  -9935600.60546  -7716434.51642  25072382.6254                   25072385.1214
        37.0004         17.2504
 -43882964.15247 -34085139.48845  20918529.8284                   20918529.6094
        47.7504         34.7504
  -7146124.41046  -5538385.23045  24713309.1414                   24713313.6844
        39.0004         30.0004
 -34654896.69147 -26941307.32447  21504561.0394                   21504562.5164
        46.5004         43.2504
  -1251192.71146   -917843.65244  24960051.4384                   24960058.4614
        39.5004         25.5004
 25  8  8  0 18 30.0000000  0 10G16G31G09G01G03G28G04G06G26G07
 -21929789.62547 -15936048.19145  21688503.2814                   21688503.2584
        45.0004         31.0004
 -32589966.00447 -25333490.31246  22241307.3754                   22241306.1094
        45.7504         39.5004
 -16236388.03546 -12620279.07445  23192797.8284                   23192800.4454
        39.7504         35.5004
 -28717124.99647 -22322771.68443  23406405.1884                   23406408.0394
        43.0004         23.5004
 -51359527.61748 -39987553.04748  19944454.7894                   19944455.7384
        50.5004         50.2504
  -9905784.30146  -7693201.08642  25078056.2584                   25078059.3954
        37.5004         17.7504
 -43988716.55947 -34167543.92645  20898405.5634                   20898405.3324
        47.2504         35.0004
  -7250622.40246  -5619812.20745  24693424.1804                   24693428.2734
        38.0004         30.5004
 -34710030.62947 -26984268.81647  21494068.9144                   21494071.1604
        47.0004         43.0004
  -1403665.84446  -1036653.46944  24931037.4844                   24931043.8914
        40.7504         26.7504
 25  8  8  0 19  0.0000000  0 10G16G31G09G01G03G28G04G06G26G07
 -22073998.29347 -16048418.49245  21661061.2664                   21661060.3094
        45.2504         30.5004
 -32568094.61347 -25316447.71546  22245469.3674                   22245467.7114
        46.0004         38.5004
 -16381809.98046 -12733594.71546  23165124.1564                   23165127.4494
        40.0004         36.2504
 -28694689.36746 -22305289.59444  23410673.8834                   23410678.4884
        41.5004         25.2504
 -51414126.49248 -40030097.62548  19934064.9924                   19934066.1724
        50.0004         50.2504
  -9875994.71546  -7669988.43742  25083725.1954                   25083728.7034
        37.0004         17.2504
 -44094303.44147 -34249819.38745  20878313.1174                   20878313.1334
        47.2504         35.7504
  -7354602.58646  -5700835.69945  24673636.6644                   24673641.5664
        37.7504         30.0004
 -34764540.24247 -27026743.82847  21483696.1804                   21483698.3014
        46.5004         42.5004
  -1555978.57446  -1155338.36344  24902051.5004                   24902059.8524
        38.5004         27.7504
 25  8  8  0 19 30.0000000  0 10G16G31G09G01G03G28G04G06G26G07
 -22217759.62147 -16160440.19945  21633704.4454                   21633703.7194
        45.2504         30.7504
 -32546037.65647 -25299260.50846  22249666.2664                   22249665.2344
        45.2504         39.0004
 -16527192.51246 -12846879.65646  23137458.7424                   23137461.8444
        40.0004         36.7504
 -28672140.05947 -22287718.96143  23414965.6174                   23414969.4734
        42.0004         23.7504
 -51468144.65248 -40072189.70348  19923785.5394                   19923786.5704
        49.7504         50.2504
  -9846231.47346  -7646796.34442  25089388.8834                   25089391.4184
        37.5004         16.7504
 -44199722.41847 -34331964.02046  20858252.6724                   20858252.3164
        46.7504         36.0004
  -7458062.24246  -5781453.58645  24653948.4454                   24653953.7194
        37.5004         30.5004
 -34818424.06647 -27068731.21947  21473442.4694                   21473444.6764
        46.0004         42.5004
  -1708128.77746  -1273896.56244  24873097.1254                   24873106.4344
        38.5004         27.7504
 25  8  8  0 20  0.0000000  0 10G16G31G09G01G03G28G04G06G26G07
 -22361072.21947 -16272112.27045  21606432.3364                   21606432.0044
        44.5004         30.5004
 -32523800.01247 -25281932.52046  22253897.8754                   22253897.0944
        45.0004         39.2504
 -16672537.16046 -12960135.07846  23109800.6094                   23109803.6844
        39.2504         36.7504
 -28649482.16047 -22270063.69543  23419277.4924                   23419281.3524
        42.0004         23.7504
 -51521583.75848 -40113830.56248  19913616.4774                   19913617.2274
        50.0004         50.0004
  -9816497.73446  -7623627.22342  25095047.4224                   25095048.8594
        37.5004         16.7504
 -44304974.83247 -34413978.85946  20838223.8284                   20838223.2814
        47.2504         36.2504
  -7561002.48446  -5861666.73844  24634360.0554                   24634364.8554
        38.0004         29.0004
 -34871684.42647 -27110232.77347  21463307.3524                   21463309.3014
        46.5004         43.0004
  -1860117.05546  -1392328.61744  24844174.2584                   24844183.2194
        38.5004         26.5004
 25  8  8  0 20 30.0000000  0 10G16G31G09G01G03G28G04G06G26G07
 -22503931.10947 -16383430.79745  21579247.5314                   21579246.7504
        45.5004         30.7504
 -32501381.76247 -25264463.80146  22258164.2274                   22258162.9104
        44.7504         39.0004
 -16817841.45346 -13073359.06646  23082150.2584                   23082153.0084
        40.2504         36.7504
 -28626716.65246 -22252324.59444  23423609.2344                   23423613.5864
        39.5004         24.7504
 -51574441.62948 -40155018.52048  19903557.6954                   19903558.8554
        50.2504         50.0004
  -9786792.94146  -7600480.65242  25100700.1094                   25100702.1954
        37.5004         16.2504
 -44410058.04747 -34495861.85245  20818226.9454                   20818226.7544
        47.0004         35.5004
  -7663420.46946  -5941472.91445  24614870.9774                   24614875.7774
        37.2504         30.5004
 -34924319.63347 -27151247.20347  21453291.2664                   21453292.9264
        46.2504         42.5004
  -2011940.96146  -1510632.53144  24815284.1724                   24815291.4964
        39.2504         26.0004
 25  8  8  0 21  0.0000000  0 10G16G31G09G01G03G28G04G06G26G07
 -22646337.34447 -16494396.60545  21552148.3914                   21552147.5784
        45.5004         31.0004
 -32478789.41447 -25246859.42246  22262463.2034                   22262462.6764
        44.5004         38.7504
 -16963109.12546 -13186554.52346  23054505.8754                   23054509.1374
        39.5004         36.5004
 -28603850.86346 -22234507.36744  23427960.5784                   23427965.5744
        41.5004         24.0004
 -51626722.31248 -40195756.71948  19893608.9304                   19893610.5274
        49.5004         50.0004
  -9757122.62946  -7577361.00842  25106345.5084                   25106347.9774
        37.5004         16.7504
 -44514975.71947 -34577615.85246  20798261.8524                   20798261.6374
        47.0004         36.0004
  -7765319.64546  -6020874.85245  24595479.5784                   24595484.4494
        37.0004         30.5004
 -34976334.34847 -27191778.13747  21443393.4304                   21443394.8444
        47.0004         42.7504
  -2163603.57046  -1628810.82844  24786423.7114                   24786430.7034
        41.0004         26.0004
 25  8  8  0 21 30.0000000  0 10G16G31G09G01G03G28G04G06G26G07
 -22788283.42647 -16605003.85945  21525137.0554                   21525135.9694
        45.0004         31.5004
 -32456021.18047 -25229117.98446  22266796.2344                   22266795.2114
        44.0004         38.2504
 -17108335.66846 -13299717.93446  23026870.5314                   23026873.3204
        41.2504         36.2504
 -28580883.68046 -22216611.10544  23432331.4844                   23432336.3444
        41.2504         24.5004
 -51678421.55148 -40236041.84448  19883771.0394                   19883772.3954
        49.7504         50.0004
  -9727483.93746  -7554265.93742  25111985.4224                   25111987.9224
        36.5004         16.7504
 -44619723.15247 -34659237.19545  20778329.1334                   20778329.0864
        47.2504         35.2504
  -7866695.03546  -6099868.63745  24576188.9064                   24576193.4774
        36.5004         31.0004
 -35027724.94547 -27231822.73847  21433613.2894                   21433615.8244
        47.0004         42.7504
  -2315100.12146  -1746859.73844  24757593.3914                   24757601.5474
        39.7504         27.5004
 25  8  8  0 22  0.0000000  0 10G16G31G09G01G03G28G04G06G26G07
 -22929766.71947 -16715250.48845  21498213.3984                   21498212.8444
        44.7504         31.0004
 -32433079.93047 -25211241.74246  22271162.6884                   22271160.6724
        45.5004         38.5004
 -17253521.02346 -13412849.26246  22999242.4534                   22999245.5594
        41.0004         36.2504
 -28557818.59846 -22198638.56244  23436720.8524                   23436725.4534
        40.2504         25.7504
 -51729539.61348 -40275874.10548  19874043.9304                   19874044.8484
        50.2504         50.2504
  -9697878.69546  -7531196.94542  25117619.8594                   25117621.5514
        38.0004         17.2504
 -44724300.12947 -34740725.72346  20758428.7114                   20758428.3834
        47.2504         36.2504
  -7967546.51646  -6178454.17245  24556998.1414                   24557001.6804
        36.7504         31.0004
 -35078492.31647 -27271381.71147  21423952.7734                   21423955.1334
        46.7504         42.5004
  -2466430.06646  -1864778.82444  24728795.8204                   24728804.6484
        37.2504         27.5004
 25  8  8  0 22 30.0000000  0 10G16G31G09G01G03G28G04G06G26G07
 -23070782.46947 -16825132.80945  21471378.8444                   21471378.5164
        43.7504         31.5004
 -32409966.07847 -25193230.97346  22275559.6484                   22275559.3404
        45.0004         38.7504
 -17398663.05547 -13525946.83646  22971622.6954                   22971625.7814
        42.5004         37.0004
 -28534656.98046 -22180590.81244  23441128.3364                   23441133.1214
        41.5004         25.7504
 -51780074.74248 -40315252.12548  19864427.0164                   19864428.1134
        49.5004         50.0004
  -9668306.56646  -7508153.76642  25123246.8364                   25123249.9144
        38.5004         16.2504
 -44828704.35247 -34822079.62945  20738561.0164                   20738560.9304
        46.5004         35.5004
  -8067871.54746  -6256629.48845  24537906.1804                   24537910.7194
        37.0004         30.5004
 -35128635.22347 -27310454.10247  21414410.9144                   21414413.1884
        46.7504         42.5004
  -2617591.16446  -1982566.34444  24700028.7734                   24700038.5234
        36.7504         27.2504
 25  8  8  0 23  0.0000000  0 10G16G31G09G01G03G28G04G06G26G07
 -23211325.31647 -16934646.63745  21444634.6804                   21444633.8284
        45.0004         31.5004
 -32386679.20347 -25175085.42646  22279991.9224                   22279990.2544
        44.0004         38.7504
 -17543758.89147 -13639008.41846  22944011.9844                   22944014.6764
        42.5004         37.5004
 -28511399.55146 -22162468.37944  23445554.5864                   23445558.9694
        41.0004         24.5004
 -51830024.53548 -40354174.04348  19854921.9454                   19854923.2304
        50.5004         50.0004
  -9638766.49646  -7485135.60542  25128868.1644                   25128870.9574
        37.0004         16.2504
 -44932932.92647 -34903296.67245  20718727.2814                   20718727.0704
        46.7504         35.7504
  -8167667.09046  -6334392.20745  24518915.8444                   24518919.7344
        37.5004         30.2504
 -35178151.90247 -27349038.52347  21404988.3754                   21404990.7274
        45.5004         42.2504
  -2768580.09846  -2100219.59044  24671300.7584                   24671305.6334
        41.2504         24.7504
 25  8  8  0 23 30.0000000  0 10G16G31G09G01G03G28G04G06G26G07
 -21775968.46947 -15816186.67245  21717773.6334                   21717773.6134
        44.5004         31.0004
 -30787804.19147 -23929208.83246  22584248.0394                   22584246.6094
        44.7504         39.0004
 -16113384.32047 -12524430.73446  23216203.1414                   23216205.7854
        43.0004         36.5004
 -26912631.21146 -20916675.11744  23749789.9534                   23749794.6414
        39.5004         24.5004
 -50303968.36348 -39165039.35948  20145321.2034                   20145322.4104
        50.2504         50.0004
  -8033841.70746  -6234544.91443  25434276.2894                   25434277.9064
        38.5004         18.2504
 -43461562.75047 -33756774.42245  20998719.5864                   20998719.5164
        46.2504         34.7504
  -6691510.23446  -5184140.09044  24799819.3134                   24799823.0394
        37.2504         29.0004
 -33651622.35947 -26159534.98447  21695476.8984                   21695479.0004
        46.7504         42.2504
  -1343972.23446   -990135.21944  24942392.8914                   24942399.3054
        41.2504         26.5004
 25  8  8  0 24  0.0000000  0 10G16G31G09G01G03G28G04G06G26G07
 -21915560.34047 -15924959.46945  21691210.1884                   21691210.1054
        44.2504         31.5004
 -30764183.46147 -23910803.11746  22588742.2114                   22588741.5514
        44.2504         38.5004
 -16258390.46147 -12637422.42246  23188609.3674                   23188612.1134
        42.5004         36.7504
 -26889195.30146 -20898413.60243  23754249.4844                   23754254.7304
        39.5004         22.2504
 -50352751.42248 -39203052.14148  20136037.9064                   20136038.8954
        49.7504         50.0004
  -8004373.54346  -6211582.70342  25439883.7504                   25439885.4694
        39.2504         17.2504
 -43565442.08247 -33837719.32446  20978952.1724                   20978951.7774
        46.5004         36.0004
  -6790248.85945  -5261079.26644  24781029.6334                   24781034.0704
        35.7504         29.5004
 -33699892.35947 -26197147.96147  21686291.6884                   21686293.6764
        46.5004         42.5004
  -1494618.95746  -1107521.93744  24913725.2584                   24913731.6414
        41.0004         26.0004
 25  8  8  0 24 30.0000000  0 10G16G31G09G01G03G28G04G06G26G07
 -22054670.63747 -16033357.03145  21664738.4844                   21664738.0704
        44.5004         31.7504
 -30740397.87147 -23892268.93746  22593268.4454                   22593267.6134
        43.5004         38.7504
 -16403349.99247 -12750377.80146  23161024.4304                   23161027.1524
        42.5004         37.0004
 -26865673.67246 -20880085.32843  23758725.9924                   23758731.1724
        39.7504         22.5004
 -50400950.05548 -39240609.52048  20126866.1024                   20126867.1054
        50.0004         50.0004
  -7974942.26646  -6188649.30942  25445484.6254                   25445485.6644
        38.5004         17.7504
 -43669144.85947 -33918526.64845  20959217.5164                   20959217.6254
        46.0004         35.5004
  -6888457.07445  -5337605.10544  24762341.4384                   24762345.3554
        35.7504         29.2504
 -33747538.87147 -26234275.10547  21677225.1094                   21677226.8674
        46.5004         42.5004
  -1645092.23846  -1224773.43744  24885091.8674                   24885097.5044
