     2.11           OBSERVATION DATA    G (GPS)             RINEX VERSION / TYPE
teqc  2019Feb25                         20250728 19:30:25UTCPGM / RUN BY / DATE
Linux 2.6.32-573.12.1.x86_64|x86_64|gcc -static|Linux 64|=+ COMMENT
BIT 2 OF LLI FLAGS DATA COLLECTED UNDER A/S CONDITION       COMMENT
04223330                                                    MARKER NAME
0422                                                        MARKER NUMBER
-Unknown-           -Unknown-                               OBSERVER / AGENCY
0220340422          TRIMBLE 5700        2.32                REC # / TYPE / VERS
-Unknown-           TRM41249.00     NONE                    ANT # / TYPE
 -2417431.9083 -4622711.4476  3658938.9123                  APPROX POSITION XYZ
        0.0000        0.0000        0.0000                  ANTENNA: DELTA H/E/N
     1     1                                                WAVELENGTH FACT L1/2
     7    L1    L2    C1    P1    P2    S1    S2            # / TYPES OF OBSERV
    18                                                      LEAP SECONDS
 SNR is mapped to RINEX snr flag value [0-9]                COMMENT
  L1 & L2: min(max(int(snr_dBHz/6), 0), 9)                  COMMENT
  2025     7    15     0     0   30.0000000     GPS         TIME OF FIRST OBS
                                                            END OF HEADER
 25  7 15  0  0 30.0000000  0 10G02G10G25G01G04G28G31G32G03G26
  -6143109.21157  -4758149.80155  21808124.7114                   21808122.2664
        47.0004         35.5004
  12024981.64156   9363580.35255  24082611.5004                   24082616.5664
        39.7504         33.5004
  -3646040.01655  -2725832.85254  24377299.2974                   24377303.0044
        35.7504         27.0004
 -21227127.65657 -16515327.57455  21020718.1564                   21020717.4654
        46.0004         35.2504
 -10702310.09456  -8280008.33653  23274908.9924                   23274911.5514
        40.0004         22.5004
  -8961860.16857  -6946077.69155  21245680.6644                   21245679.6884
        46.7504         35.5004
 -24329377.77058 -18920872.22358  20081640.1884                   20081638.2194
        49.0004         48.2504
  12584974.02757   9798772.00856  23416133.0394                   23416134.7774
        43.0004         37.2504
 -18491585.52057 -14389601.73056  21670060.6644                   21670062.5474
        45.2504         41.5004
  -9509569.41056  -7259480.13355  23549163.9924                   23549169.2194
        39.0004         30.0004
 25  7 15  0  1  0.0000000  0 10G02G10G25G01G04G28G31G32G03G26
  -6102995.56247  -4726892.45745  21815758.1884                   21815755.5044
        47.2504         35.2504
  12097655.66046   9420209.32045  24096442.0084                   24096445.9494
        40.5004         32.5004
  -3632944.86345  -2715628.89544  24379790.9614                   24379795.9264
        35.0004         27.2504
 -21244960.87147 -16529223.59445  21017324.8834                   21017324.3524
        46.5004         35.7504
 -10784156.50446  -8343784.61343  23259334.1954                   23259337.1524
        38.5004         22.5004
  -8922773.58247  -6915620.63346  21253118.1564                   21253117.4384
        45.2504         36.0004
 -24354600.99248 -18940526.67248  20076840.2194                   20076838.2384
        49.2504         48.2504
  12641724.32047   9842992.94146  23426932.0234                   23426934.6914
        43.5004         36.7504
 -18582276.46147 -14460269.95746  21652802.6884                   21652804.5944
        46.0004         41.5004
  -9610556.50046  -7338171.25845  23529946.9614                   23529952.2974
        39.0004         30.2504
 25  7 15  0  1 30.0000000  0 10G02G10G25G01G04G28G31G32G03G26
  -6062481.24247  -4695322.89545  21823467.8984                   21823465.4574
        47.0004         35.0004
  12170537.79746   9477000.44945  24110311.0554                   24110315.3754
        41.5004         34.0004
  -3619318.60546  -2705011.08644  24382384.5704                   24382388.6994
        36.2504         28.2504
 -21262213.55147 -16542667.25446  21014041.7034                   21014041.1564
        46.0004         36.0004
 -10865875.62146  -8407461.76243  23243782.4614                   23243785.6294
        36.7504         22.5004
  -8883229.19147  -6884806.83645  21260643.2114                   21260642.5744
        47.0004         35.5004
 -24379209.27348 -18959701.94548  20072157.2274                   20072155.3634
        49.0004         48.2504
  12698485.96947   9887222.76246  23437733.6644                   23437735.3914
        43.7504         37.5004
 -18672814.82447 -14530819.28547  21635573.5864                   21635575.8444
        46.7504         42.0004
  -9711441.68746  -7416782.98045  23510750.5864                   23510753.6134
        40.0004         30.7504
 25  7 15  0  2  0.0000000  0 10G02G10G25G01G04G28G31G32G03G26
  -6021572.49247  -4663445.99245  21831252.8524                   21831249.8914
        46.5004         35.0004
  12243623.44146   9533950.17245  24124219.0864                   24124222.9224
        41.0004         33.7504
  -3605165.38745  -2693982.63744  24385076.4844                   24385081.8204
        35.5004         26.5004
 -21278889.34847 -16555661.38745  21010868.7734                   21010867.7544
        46.5004         35.2504
 -10947471.24246  -8471042.63743  23228256.6024                   23228258.5704
        38.0004         22.7504
  -8843232.93447  -6853640.93745  21268254.2274                   21268253.2034
        47.0004         35.2504
 -24403206.72748 -18978401.25448  20067590.6954                   20067588.8284
        49.2504         48.2504
  12755255.00047   9931458.29746  23448536.8914                   23448538.6524
        44.5004         38.5004
 -18763202.48447 -14601251.20747  21618373.4774                   21618375.3714
        45.7504         42.0004
  -9812225.68046  -7495315.84845  23491570.6024                   23491575.1524
        39.5004         31.5004
 25  7 15  0  2 30.0000000  0 10G02G10G25G01G04G28G31G32G03G26
  -5980271.16847  -4631263.19145  21839111.9774                   21839109.3594
        47.2504         34.7504
  12316911.43046   9591057.57045  24138164.3754                   24138169.8054
        39.5004         33.7504
  -3590486.02345  -2682544.20344  24387870.9304                   24387874.4534
        35.0004         26.5004
 -21294988.55547 -16568206.22745  21007804.6254                   21007804.2734
        46.0004         34.7504
 -11028943.91846  -8534527.70343  23212752.7584                   23212754.8244
        37.7504         22.5004
  -8802787.39147  -6822124.93045  21275950.3984                   21275950.0664
        47.0004         35.5004
 -24426593.26248 -18996624.51648  20063140.7664                   20063138.7234
        49.0004         48.5004
  12812030.57847   9975698.96146  23459340.3134                   23459343.1844
        43.5004         38.5004
 -18853437.81647 -14671564.41846  21601202.1414                   21601203.7274
        44.7504         41.5004
  -9912905.57846  -7573767.62145  23472411.8984                   23472416.4024
        40.0004         32.0004
 25  7 15  0  3  0.0000000  0 10G02G10G25G01G04G28G31G32G03G26
  -5938578.49247  -4598775.43745  21847046.1884                   21847043.5004
        45.7504         34.2504
  12390402.17246   9648322.92245  24152149.8444                   24152154.6564
        38.7504         31.7504
  -3575279.90646  -2670695.29744  24390764.2194                   24390768.2704
        36.5004         28.0004
 -21310509.92647 -16580300.80945  21004851.2114                   21004850.2234
        46.2504         35.2504
 -11110292.46546  -8597916.05944  23197271.9774                   23197274.6524
        38.5004         25.0004
  -8761893.59447  -6790259.65245  21283732.6484                   21283731.8484
        46.5004         35.0004
 -24449368.28548 -19014371.28148  20058806.4144                   20058804.5704
        49.5004         48.5004
  12868813.39547  10019945.26246  23470145.7584                   23470148.7624
        44.5004         37.5004
 -18943517.78947 -14741756.57047  21584060.4384                   21584062.2034
        45.5004         42.0004
 -10013477.12946  -7652134.96145  23453274.0164                   23453278.4804
        40.5004         31.7504
 25  7 15  0  3 30.0000000  0 10G02G10G25G01G04G28G31G32G03G26
  -5896495.41847  -4565983.46945  21855054.2664                   21855051.7584
        45.5004         35.2504
  12464095.60946   9705746.21145  24166173.7734                   24166178.1254
        39.0004         32.2504
  -3559546.66046  -2658435.68744  24393758.8364                   24393762.6604
        37.0004         26.5004
 -21325452.63347 -16591944.48045  21002007.9454                   21002007.1764
        47.5004         35.5004
 -11191516.25046  -8661207.18444  23181815.8524                   23181818.4024
        39.2504         24.0004
  -8720552.94547  -6758046.16845  21291599.5314                   21291598.1454
        46.0004         35.2504
 -24471530.92248 -19031640.85948  20054589.0944                   20054587.2384
        49.0004         48.2504
  12925604.02047  10064197.64146  23480952.8054                   23480954.9534
        44.5004         38.0004
 -19033439.60247 -14811825.46947  21566949.0164                   21566950.9494
        46.0004         42.0004
 -10113936.30946  -7730414.71545  23434157.1254                   23434161.8444
        40.5004         33.0004
 25  7 15  0  4  0.0000000  0 10G02G10G25G01G04G28G31G32G03G26
  -5854020.50847  -4532886.18445  21863136.8054                   21863134.4064
        45.5004         35.0004
  12537994.32846   9763329.46145  24180235.8834                   24180241.0084
        38.5004         32.5004
  -3543283.31646  -2645762.96944  24396853.3134                   24396857.0864
        37.5004         27.0004
 -21339813.23847 -16603134.57845  20999274.9694                   20999274.5434
        46.7504         35.2504
 -11272612.04746  -8724398.61344  23166383.5704                   23166386.1054
        40.5004         25.2504
  -8678764.29347  -6725483.60545  21299551.9844                   21299550.5394
        46.0004         35.0004
 -24493078.04748 -19048430.81248  20050488.9614                   20050486.8014
        48.2504         48.5004
  12982405.33247  10108458.34046  23491762.3284                   23491764.2854
        43.5004         37.5004
 -19123197.89547 -14881766.98047  21549868.5084                   21549870.2894
        45.7504         42.2504
 -10214276.58646  -7808601.84445  23415062.5314                   23415067.3444
        41.0004         33.5004
 25  7 15  0  4 30.0000000  0 10G02G10G25G01G04G28G31G32G03G26
  -5811160.15647  -4499488.56245  21871292.9144                   21871290.6564
        45.7504         34.7504
  12612093.43846   9821068.84844  24194335.9144                   24194341.1294
        37.0004         29.5004
  -3526493.48456  -2632679.75854  24400048.6174                   24400052.3094
        38.2504         27.0004
 -21353595.74647 -16613874.19945  20996652.3054                   20996651.7704
        46.7504         35.2504
 -11353583.89146  -8787493.43744  23150974.8984                   23150977.4184
        41.5004         25.5004
  -8636533.86347  -6692576.79345  21307588.0784                   21307586.5124
        46.0004         34.7504
 -24514013.57848 -19064744.20348  20046505.1414                   20046502.9774
        49.0004         48.5004
  13039213.06647  10152724.07046  23502571.9844                   23502573.9414
        43.7504         37.5004
 -19212794.64847 -14951582.59847  21532818.4454                   21532820.4494
        46.7504         42.5004
 -10314498.61746  -7886696.82845  23395991.0314                   23395995.4264
        40.5004         33.0004
 25  7 15  0  5  0.0000000  0 10G02G10G25G01G04G28G31G32G03G26
  -5767912.22347  -4465788.92245  21879522.7584                   21879520.4024
        45.7504         34.5004
  12686396.49246   9878967.16845  24208475.8594                   24208480.7114
        36.7504         30.2504
  -3509175.62556  -2619185.37154  24403344.1804                   24403348.2384
        38.7504         28.2504
 -21366795.98447 -16624160.10245  20994140.5634                   20994139.4924
        47.0004         35.5004
 -11434427.65646  -8850488.45743  23135591.2344                   23135593.3674
        40.5004         23.7504
  -8593859.64547  -6659324.15245  21315708.4064                   21315708.1914
        46.7504         35.2504
 -24534333.76648 -19080578.11348  20042638.1254                   20042636.3834
        48.0004         48.5004
  13096031.11347  10196997.77346  23513384.6564                   23513387.0864
        43.7504         37.0004
 -19302223.69547 -15021267.52747  21515801.1724                   21515802.4144
        46.7504         43.0004
 -10414595.11346  -7964693.97745  23376942.7894                   23376947.3914
        39.0004         32.7504
 25  7 15  0  5 30.0000000  0 10G02G10G25G01G04G28G31G32G03G26
  -5724281.85547  -4431791.27345  21887825.3444                   21887823.3444
        46.2504         35.0004
  12760899.48846   9937021.25045  24222653.6644                   24222659.0124
        36.5004         30.2504
  -3491332.19546  -2605281.39844  24406739.8754                   24406742.2234
        38.0004         25.2504
 -21379416.99647 -16633994.67645  20991738.6254                   20991738.4654
        47.0004         35.5004
 -11515146.46546  -8913386.12144  23120230.5784                   23120232.7344
        41.0004         25.2504
  -8550746.89847  -6625729.82445  21323912.7584                   21323911.6024
        47.2504         35.0004
 -24554041.79348 -19095935.00048  20038887.8284                   20038886.1804
        48.5004         48.2504
  13152856.06347  10241276.89546  23524198.0394                   23524201.0474
        42.7504         36.5004
 -19391486.08247 -15090822.60547  21498814.8444                   21498816.4104
        47.0004         42.7504
 -10514565.82846  -8042593.11345  23357919.1254                   23357923.4694
        39.5004         33.0004
 25  7 15  0  6  0.0000000  0 10G02G10G25G01G04G28G31G32G03G26
  -5680268.39147  -4397495.12545  21896201.1724                   21896198.7114
        46.2504         34.5004
  12835603.97346   9995232.35944  24236869.8204                   24236874.4534
        36.7504         29.5004
  -3472961.52046  -2590966.58644  24410234.9064                   24410239.5904
        37.5004         26.2504
 -21391456.59847 -16643376.18445  20989447.7344                   20989447.2034
        47.0004         35.5004
 -11595738.19946  -8976184.75044  23104894.8054                   23104897.0784
        40.2504         25.7504
  -8507195.60547  -6591793.75845  21332200.3364                   21332199.4414
        46.5004         35.2504
 -24573135.59048 -19110813.28547  20035254.3834                   20035252.4884
        48.0004         47.7504
  13209689.94947  10285562.98445  23535012.4844                   23535014.9774
        42.7504         35.2504
 -19480577.48047 -15160244.45747  21481861.3524                   21481863.2504
        46.7504         42.5004
 -10614405.26646  -8120389.96145  23338919.7584                   23338924.4804
        39.2504         32.5004
 25  7 15  0  6 30.0000000  0 10G02G10G25G01G04G28G31G32G03G26
  -5635874.29347  -4362902.37545  21904648.7274                   21904646.7304
        45.5004         34.5004
  12910508.99646  10053599.72344  24251123.3364                   24251128.1454
        36.5004         29.7504
  -3454064.29746  -2576241.53544  24413830.9304                   24413833.9384
        38.2504         26.7504
 -21402914.93448 -16652304.76645  20987266.9064                   20987266.6294
        48.0004         35.2504
 -11676202.91446  -9038884.45744  23089582.6804                   23089584.2234
        40.2504         25.0004
  -8463208.05947  -6557517.78145  21340570.5084                   21340570.2034
        45.5004         35.2504
 -24591615.52747 -19125213.22748  20031738.1024                   20031735.5744
        47.7504         48.5004
  13266532.31647  10329855.66845  23545829.6254                   23545832.0044
        43.0004         35.5004
 -19569495.96147 -15229531.55547  21464940.9144                   21464942.6804
        46.5004         43.5004
 -10714110.23446  -8198082.02745  23319946.8834                   23319951.3244
        39.5004         33.2504
 25  7 15  0  7  0.0000000  0 10G02G10G25G01G04G28G31G32G03G26
  -5591105.79747  -4328017.88745  21913167.9224                   21913165.8054
        46.5004         34.0004
  12985609.82046  10112119.67245  24265414.8984                   24265419.7774
        37.0004         30.5004
  -3434644.98846  -2561109.63344  24417526.1564                   24417529.9064
        36.5004         26.7504
 -21413795.91848 -16660783.46945  20985196.4454                   20985196.2894
        48.2504         35.5004
 -11756544.53546  -9101488.19543  23074293.5784                   23074296.0044
        41.2504         23.7504
  -8418790.32847  -6522906.57845  21349023.2664                   21349022.4694
        46.0004         34.5004
 -24609485.82047 -19139138.12548  20028337.2584                   20028335.3444
        47.5004         48.2504
  13323379.11747  10374151.81345  23556647.6254                   23556649.4694
        43.5004         35.5004
 -19658243.30147 -15298685.30147  21448052.5314                   21448053.9734
        45.5004         42.5004
 -10813681.30546  -8275669.77345  23300998.7344                   23301002.9924
        39.5004         32.5004
 25  7 15  0  7 30.0000000  0 10G02G10G25G01G04G28G31G32G03G26
  -5545964.78147  -4292843.11745  21921758.4694                   21921755.9614
        46.0004         34.2504
  13060905.48846  10170791.42244  24279743.4304                   24279748.0864
        37.7504         29.7504
  -3414704.34846  -2545571.53944  24421321.5314                   24421324.4574
        37.5004         26.2504
 -21424099.94148 -16668812.57845  20983235.6724                   20983235.3444
        48.0004         35.5004
 -11836763.43746  -9163996.31644  23059029.0004                   23059030.9414
        40.0004         24.2504
  -8373944.93747  -6487962.11345  21357556.7504                   21357556.1994
        46.5004         35.0004
 -24626746.78147 -19152588.22748  20025052.7504                   20025050.9614
        47.0004         48.2504
  13380229.75447  10418450.95745  23567466.3674                   23567468.6524
        43.5004         35.7504
 -19746817.69147 -15367704.27747  21431197.5394                   21431199.1174
        46.0004         42.5004
 -10913115.57046  -8353150.87945  23282076.8594                   23282081.6644
        40.0004         32.7504
 25  7 15  0  8  0.0000000  0 10G02G10G25G01G04G28G31G32G03G26
  -5500447.10947  -4257374.85245  21930419.7734                   21930417.6604
        46.0004         34.2504
  13136401.61346  10229619.41044  24294109.6564                   24294114.7034
        38.0004         29.7504
  -3394236.69556  -2529622.74254  24425216.2034                   24425220.0314
        37.0004         26.7504
 -21433820.57047 -16676387.11745  20981386.1334                   20981385.6724
        47.0004         35.5004
 -11916853.17646  -9226403.78143  23043787.8594                   23043789.8094
        41.0004         23.7504
  -8328667.60247  -6452681.10245  21366173.0084                   21366171.7034
        46.0004         34.7504
 -24643392.33648 -19165558.77348  20021885.2814                   20021883.5704
        48.7504         48.7504
  13437090.57847  10462758.02045  23578286.0234                   23578287.8834
        43.0004         34.5004
 -19835210.49247 -15436581.75847  21414376.7974                   21414378.3874
        46.7504         43.0004
 -11012403.21146  -8430517.75445  23263183.9304                   23263187.8874
        40.5004         34.5004
 25  7 15  0  8 30.0000000  0 10G02G10G25G01G04G28G31G32G03G26
  -5454558.44547  -4221617.49645  21939152.3444                   21939150.2274
        46.2504         33.5004
  13212093.80946  10288600.16045  24308513.8674                   24308518.6764
        38.0004         30.0004
  -3373246.13346  -2513266.48844  24429211.1024                   24429214.2344
        39.0004         26.0004
 -21442961.54347 -16683509.95345  20979646.7814                   20979645.9494
        47.2504         35.7504
 -11996817.29347  -9288713.39844  23028571.1174                   23028573.0164
        42.5004         26.2504
  -8282964.11747  -6417068.00845  21374870.3984                   21374868.8794
        46.2504         34.7504
 -24659426.37148 -19178052.81648  20018833.4924                   20018831.8834
        48.7504         48.5004
  13493957.70747  10507070.03145  23589107.6094                   23589109.1994
        43.2504         34.0004
 -19923423.18747 -15505318.88747  21397590.2274                   21397592.1294
        46.7504         43.0004
 -11111544.44946  -8507770.55945  23244317.4454                   23244321.7774
        40.5004         33.2504
 25  7 15  0  9  0.0000000  0 10G02G10G25G01G04G28G31G32G03G26
  -5408299.39847  -4185571.53545  21947954.8134                   21947953.0314
        46.2504         35.0004
  13287982.77046  10347734.21145  24322955.9224                   24322959.9534
        39.0004         31.0004
  -3351731.95746  -2496502.21544  24433304.2504                   24433309.5044
        36.7504         26.0004
 -21451521.57447 -16690180.12146  20978017.7974                   20978017.1414
        47.5004         36.5004
 -12076654.40247  -9350924.02044  23013378.9614                   23013380.4734
        42.0004         25.5004
  -8236835.27747  -6381123.47345  21383647.9774                   21383647.2584
        46.2504         35.0004
 -24674847.72748 -19190069.46148  20015899.2664                   20015897.4694
        49.5004         48.5004
  13550832.45347  10551387.96545  23599929.8754                   23599932.2854
        42.7504         33.5004
 -20011452.25847 -15573912.94547  21380838.9774                   21380840.5634
        47.0004         43.2504
 -11210534.57046  -8584905.61345  23225480.0554                   23225484.4384
        39.2504         33.0004
 25  7 15  0  9 30.0000000  0 10G02G10G25G01G04G28G31G32G03G26
  -5361669.18747  -4149236.36345  21956828.5474                   21956826.3554
        45.5004         34.0004
  13364070.48046  10407023.13745  24337434.9774                   24337439.3404
        38.7504         31.0004
  -3329691.97746  -2479328.24244  24437499.4454                   24437504.2664
        37.0004         24.7504
 -21459497.96948 -16696395.50045  20976500.0944                   20976499.2544
        48.5004         35.2504
 -12156361.70747  -9413033.49244  22998211.0704                   22998212.4694
        43.2504         26.0004
  -8190280.45347  -6344847.00045  21392507.4534                   21392506.7274
        46.2504         35.0004
 -24689654.03548 -19201606.84048  20013081.8594                   20013080.3874
        48.5004         48.5004
  13607717.41847  10595713.87945  23610755.3364                   23610756.9774
        43.5004         34.0004
 -20099292.66047 -15642359.98047  21364123.3524                   21364125.5394
        46.5004         43.0004
 -11309367.34046  -8661918.04745  23206672.9774                   23206677.1564
        40.0004         33.2504
 25  7 15  0 10  0.0000000  0 10G02G10G25G01G04G28G31G32G03G26
  -5314671.57847  -4112614.89145  21965771.9384                   21965769.5554
        46.7504         34.5004
  13440354.32446  10466464.91444  24351950.7274                   24351955.5124
        37.7504         29.0004
     12698.36456  -2466558.42654  24441792.0234                   24441795.3594
        38.2504         24.5004
 -21466892.70747 -16702157.64545  20975092.7664                   20975092.0474
        46.7504         34.7504
 -12235941.00047  -9475043.22344  22983067.5394                   22983069.1604
        43.0004         26.7504
  -8143303.64147  -6308241.70745  21401446.4454                   21401445.3874
        45.0004         34.0004
 -24703847.50448 -19212666.65648  20010380.8134                   20010378.6454
        49.0004         48.5004
  13664610.70747  10640046.28145  23621581.5634                   23621585.3054
        42.2504         33.2504
 -20186944.05547 -15710659.74647  21347444.0634                   21347445.5434
        47.0004         42.7504
 -11408041.30546  -8738806.72745  23187895.8594                   23187900.0434
        39.5004         34.0004
 25  7 15  0 10 30.0000000  0 10G02G10G25G01G04G28G31G32G03G26
  -5267309.17647  -4075709.17645  21974784.6094                   21974782.7664
        46.2504         34.2504
  13516833.07446  10526058.55944  24366503.3054                   24366509.4184
        37.0004         29.0004
     35783.98046  -2448569.62944  24446186.4694                   24446188.3634
        39.0004         24.0004
 -21473706.28947 -16707466.94545  20973796.3674                   20973795.5784
        46.5004         35.5004
 -12315392.59847  -9536953.45744  22967948.6564                   22967950.2544
        42.5004         24.7504
  -8095907.44947  -6271309.63745  21410465.9064                   21410464.6914
        45.5004         34.0004
 -24717428.75848 -19223249.44948  20007796.7424                   20007794.5044
        49.5004         48.7504
  13721511.77047  10684384.73045  23632410.5394                   23632411.7734
        42.0004         33.2504
 -20274404.57447 -15778810.77047  21330800.9844                   21330802.9144
        47.0004         43.5004
 -11506553.40246  -8815569.29345  23169149.0004                   23169153.4144
        38.5004         33.0004
 25  7 15  0 11  0.0000000  0 10G02G10G25G01G04G28G31G32G03G26
  -5219580.56247  -4038518.09845  21983867.2584                   21983865.0824
        47.0004         34.0004
  13593509.64846  10585806.33644  24381095.6254                   24381101.0634
        37.0004         28.5004
     59393.87956  -2430172.59453  24450677.8444                   24450681.2194
        38.0004         23.2504
 -21479935.37547 -16712320.78945  20972610.5234                   20972610.4024
        47.5004         35.2504
 -12394712.98047  -9598761.43744  22952853.6564                   22952855.8554
        42.0004         25.0004
  -8048090.45747  -6234049.66045  21419565.2194                   21419564.2894
        45.7504         34.7504
 -24730394.57048 -19233352.68448  20005328.9454                   20005327.2814
        49.5004         48.5004
  13778424.10546  10728731.92245  23643239.4144                   23643242.4694
        39.7504         33.2504
 -20361668.44947 -15846808.56247  21314194.8914                   21314196.4924
        47.7504         43.0004
 -11604896.73046  -8892200.34045  23150434.7584                   23150438.9414
        39.5004         32.0004
 25  7 15  0 11 30.0000000  0 10G02G10G25G01G04G28G31G32G03G26
  -5171489.02747  -4001044.22345  21993018.8444                   21993016.6524
        46.5004         34.5004
  13670382.05946  10645706.69144  24395724.2274                   24395729.5314
        36.7504         29.2504
     83528.09446  -2411366.72744  24455270.7974                   24455274.3244
        37.2504         24.7504
 -21485581.28148 -16716720.20745  20971536.2424                   20971535.6214
        48.2504         35.5004
 -12473903.18046  -9660467.98844  22937784.3594                   22937786.2304
        41.5004         25.5004
  -7999856.02747  -6196464.40645  21428744.1334                   21428743.3874
        46.0004         34.5004
 -24742746.51648 -19242977.57448  20002978.4924                   20002976.7114
        49.0004         48.0004
  13835346.35546  10773086.89545  23654071.5944                   23654075.1564
        41.0004         33.0004
 -20448734.53947 -15914652.25047  21297627.2034                   21297629.0124
        47.5004         43.5004
 -11703068.98846  -8968698.10245  23131752.9224                   23131757.6684
        38.5004         32.7504
 25  7 15  0 12  0.0000000  0 10G02G10G25G01G04G28G31G32G03G26
  -5123035.80147  -3963288.50845  22002239.2034                   22002236.8054
        46.7504         34.0004
  13747450.34446  10705759.67644  24410390.2814                   24410394.9534
        36.0004         28.5004
    108185.72746  -2392153.05944  24459962.9534                   24459967.2344
        37.2504         24.0004
 -21490643.48848 -16720664.79745  20970573.3364                   20970572.9224
        48.0004         35.2504
 -12552962.40646  -9722072.50444  22922739.6024                   22922741.1484
        41.2504         25.7504
  -7951205.60547  -6158555.00845  21438001.5864                   21438001.1954
        46.5004         35.2504
 -24754484.32448 -19252123.91048  20000745.1484                   20000743.0084
        49.7504         48.5004
  13892279.37546  10817450.18445  23664905.4454                   23664908.9454
        39.2504         32.2504
 -20535599.91447 -15982339.52747  21281097.0164                   21281098.6094
        47.2504         43.5004
 -11801066.01246  -9045059.31645  23113105.9304                   23113109.3634
        39.5004         33.2504
 25  7 15  0 12 30.0000000  0 10G02G10G25G01G04G28G31G32G03G26
  -5074224.80947  -3925254.02745  22011527.5164                   22011525.4304
        46.2504         33.0004
  13824711.80946  10765963.19544  24425091.8594                   24425098.1804
        36.0004         28.0004
    133364.10955  -2376306.57454  24464754.3524                   24464759.0354
        35.5004         24.7504
 -21495124.10248 -16724156.19145  20969720.5554                   20969720.2384
        48.0004         35.5004
 -12631892.51646  -9783576.37944  22907719.6644                   22907721.5314
        41.7504         26.0004
  -7902143.23047  -6120324.59445  21447338.1954                   21447337.5204
        45.5004         34.7504
 -24765610.19948 -19260793.41048  19998627.5634                   19998625.4574
        49.0004         48.5004
  13949221.10246  10861820.30145  23675741.8444                   23675744.3834
        40.2504         34.0004
 -20622264.09847 -16049870.03547  21264605.0634                   21264606.7504
        47.5004         43.7504
 -11898886.28146  -9121282.79345  23094489.9924                   23094493.7624
        38.5004         33.0004
 25  7 15  0 13  0.0000000  0 10G02G10G25G01G04G28G31G32G03G26
  -5025055.91847  -3886940.64845  22020883.9924                   22020881.9494
        45.5004         33.5004
  13902167.62545  10826318.15644  24439830.9844                   24439837.2384
        35.0004         26.2504
                                  24469645.5634                   24469648.9694
        38.0004         21.7504
 -21499021.43748 -16727193.09045  20968978.9144                   20968978.3914
        48.0004         35.5004
 -12710691.46546  -9844978.05544  22892724.7584                   22892726.7194
        41.0004         26.5004
  -7852669.14147  -6081773.38745  21456752.7814                   21456751.8754
        45.7504         35.0004
 -24776122.63348 -19268984.91048  19996627.1954                   19996625.5474
        49.5004         48.5004
  14006173.48046  10906198.70745  23686578.3444                   23686582.5124
        40.2504         34.0004
 -20708722.94547 -16117240.52747  21248152.5944                   21248154.6724
        47.7504         44.2504
 -11996524.40646  -9197364.35245  23075909.7664                   23075914.4344
        39.0004         32.5004
 25  7 15  0 13 30.0000000  0 10G02G10G25G01G04G28G31G32G03G26
  -4975534.39147  -3848352.49245  22030307.7114                   22030305.2934
        46.5004         33.5004
  13979814.24246  10886821.77744  24454607.9224                   24454613.4104
        36.0004         25.5004
    185283.39846  -2335850.08643  24474634.1884                   24474638.3444
        37.0004         22.2504
 -21502338.46148 -16729777.80145  20968347.8594                   20968347.0944
        48.0004         35.0004
 -12789361.90646  -9906279.58644  22877754.1334                   22877755.9844
        41.2504         25.5004
  -7802788.25847  -6042905.18045  21466244.4614                   21466243.6484
        46.0004         34.0004
 -24786025.02748 -19276701.05148  19994743.0084                   19994741.1644
        48.2504         48.5004
  14063133.72746  10950583.26245  23697418.6024                   23697420.6254
        41.2504         34.0004
 -20794976.83247 -16184451.32047  21231739.1804                   21231740.7384
        47.7504         43.5004
 -12093979.67246  -9273303.41445  23057365.3914                   23057369.2194
        39.7504         34.2504
 25  7 15  0 14  0.0000000  0 10G02G10G25G01G04G28G31G32G03G26
  -4925660.04347  -3809489.41445  22039798.5394                   22039796.4694
        45.0004         33.2504
  14057653.16046  10947475.28144  24469420.2814                   24469424.8244
        36.7504         27.2504
                                  24479724.0394                   24479726.8674
        35.5004         21.7504
 -21505073.23848 -16731908.80945  20967827.1484                   20967826.5984
        48.2504         35.5004
 -12867901.57446  -9967479.23444  22862808.6254                   22862810.2274
        40.2504         26.2504
  -7752500.53947  -6003719.96945  21475813.6804                   21475813.1254
        46.0004         34.0004
 -24795315.37148 -19283940.28148  19992974.8284                   19992973.2424
        48.7504         48.7504
  14120104.10546  10994975.66045  23708259.4924                   23708262.7584
        40.2504         35.5004
 -20881021.18747 -16251498.85247  21215365.9144                   21215366.9264
        47.2504         43.5004
 -12191246.39846  -9349095.57445  23038855.9774                   23038860.1524
        39.5004         32.5004
 25  7 15  0 14 30.0000000  0 10G02G10G25G01G04G28G31G32G03G26
  -4875437.34447  -3770354.88745  22049355.9534                   22049353.4804
        45.5004         33.7504
  14135681.00046  11008275.94544  24484268.8284                   24484272.7504
        37.7504         26.2504
    239277.75846  -2293776.60543  24484908.8594                   24484913.2114
        36.5004         21.0004
 -21507228.66848 -16733588.38346  20967417.1484                   20967416.6884
        48.5004         36.0004
 -12946312.96946 -10028578.90243  22847887.1254                   22847889.0474
        40.0004         23.7504
  -7701810.74647  -5964221.44945  21485460.5314                   21485460.0514
        46.2504         35.0004
 -24803996.71948 -19290704.96148  19991322.7664                   19991321.1454
        49.5004         48.2504
  14177081.94547  11039373.93446  23719102.4304                   23719105.0704
        42.0004         36.0004
 -20966856.30947 -16318383.33647  21199031.7734                   21199032.7274
        47.5004         43.0004
 -12288323.71946  -9424740.15645  23020382.2974                   23020386.4494
        40.2504         34.0004
 25  7 15  0 15  0.0000000  0 10G02G10G25G01G04G28G31G32G03G26
  -4824870.75847  -3730952.40245  22058978.3984                   22058976.0514
        45.5004         33.7504
  14213895.16846  11069221.78144  24499152.4534                   24499156.9924
        37.2504         27.0004
                                  24490192.7664                   24490199.4384
        33.2504         20.5004
 -21508806.87148 -16734818.16045  20967117.1174                   20967116.0394
        48.5004         35.5004
 -13024597.74646 -10089579.94944  22832989.6024                   22832991.8284
        39.7504         25.0004
  -7650722.85247  -5924412.71145  21495181.7344                   21495181.2504
        45.5004         34.0004
 -24812071.57048 -19296997.04348  19989786.3914                   19989784.5704
        48.7504         48.2504
  14234065.52747  11083776.66046  23729946.1094                   23729948.3324
        42.0004         36.7504
 -21052481.68048 -16385104.38347  21182737.5554                   21182738.9774
        48.0004         43.7504
 -12385209.97746  -9500235.85545  23001945.6954                   23001950.0864
        40.0004         35.2504
 25  7 15  0 15 30.0000000  0 10G02G10G25G01G04G28G31G32G03G26
  -4773959.52747  -3691281.36345  22068667.0394                   22068664.1994
        45.2504         32.5004
  14292296.89546  11130313.84844  24514072.0864                   24514077.3014
        38.5004         27.5004
    295333.11756  -2250096.90253  24495577.1724                   24495580.1524
        36.2504         20.0004
 -21509806.16848 -16735596.85245  20966926.6564                   20966925.9104
        48.0004         35.7504
 -13102753.82846 -10150480.69143  22818117.1954                   22818119.1454
        39.2504         22.7504
  -7599237.02347  -5884293.91045  21504979.2974                   21504978.4184
        45.2504         34.2504
 -24819538.33248 -19302815.29348  19988365.4774                   19988363.7504
        48.0004         48.0004
  14291056.90246  11128185.45746  23740791.5944                   23740793.6804
        41.5004         36.0004
 -21137892.88348 -16451658.54347  21166484.4454                   21166485.4384
        48.0004         43.5004
 -12481899.64146  -9575578.35945  22983546.6954                   22983550.8364
        40.7504         35.0004
 25  7 15  0 16  0.0000000  0 10G02G10G25G01G04G28G31G32G03G26
  -4722701.60947  -3651340.17645  22078420.6724                   22078418.3364
        44.2504         32.5004
  14370889.75846  11191554.84044  24529027.3364                   24529033.3634
        38.0004         27.0004
    324136.55945  -2227652.71143  24501056.4534                   24501061.2074
        35.2504         19.7504
 -21510222.64547 -16735921.39145  20966847.4144                   20966846.7424
        47.7504         35.7504
 -13180776.88346 -10211277.77344  22803269.8914                   22803271.6724
        39.2504         24.2504
  -7547351.19547  -5843863.42245  21514852.4304                   21514852.3714
        45.5004         34.0004
 -24826393.50048 -19308156.97348  19987060.9924                   19987059.2854
        49.0004         48.5004
  14348060.35547  11172603.68846  23751638.8594                   23751641.3484
        42.5004         37.0004
 -21223083.29748 -16518040.66047  21150272.9844                   21150274.4614
        48.0004         43.7504
 -12578385.03146  -9650761.67645  22965185.9144                   22965189.8164
        40.7504         33.7504
 25  7 15  0 16 30.0000000  0 10G02G10G25G01G04G28G31G32G03G26
  -3095683.18047  -2383533.65645  22388031.9384                   22388029.5664
        44.7504         32.5004
  16025088.34846  12480540.47344  24843811.6174                   24843817.7704
        38.7504         27.7504
   1928873.85556   -981310.31653  24806429.2274                   24806432.8834
        36.7504         21.2504
 -19934638.65648 -15508193.61345  21266671.3204                   21266670.4924
        48.2504         35.7504
 -11683246.09446  -9044370.56643  23088240.1334                   23088242.0944
        41.0004         23.7504
  -5919651.23847  -4575525.81645  21824593.8284                   21824593.1884
        46.0004         33.7504
 -23257219.26248 -18085423.79748  20285664.8914                   20285663.1254
        48.7504         48.5004
  15980492.04747  12444628.32046  24062280.0004                   24062282.7854
        42.7504         37.0004
 -19732629.63748 -15356648.15647  21433896.9774                   21433898.6994
        48.0004         44.7504
 -11099241.34846  -8498182.10545  23246657.4694                   23246661.2424
        40.5004         34.0004
 25  7 15  0 17  0.0000000  0 10G02G10G25G01G04G28G31G32G03G26
  -3043743.27747  -2343061.05545  22397915.4614                   22397913.6604
        45.0004         32.2504
  16104056.94546  12542074.22744  24858839.1724                   24858845.7034
        39.7504         28.7504
   1958709.01615                  24812105.555
        34.500
 -19933894.74648 -15507613.96945  21266812.8834                   21266812.3404
        48.7504         35.5004
 -11761006.73046  -9104963.19144  23073442.9774                   23073445.0234
        41.0004         26.0004
  -5866976.02747  -4534480.20745  21834617.5864                   21834616.6094
        45.7504         34.0004
 -23262856.79347 -18089816.67648  20284591.9534                   20284590.1994
        47.7504         48.0004
  16037515.76647  12489062.30946  24073131.5474                   24073134.1214
        42.0004         37.0004
 -19817375.38347 -15422683.77347  21417770.4304                   21417771.9184
        47.5004         44.7504
 -11195311.69146  -8573042.03545  23228376.1954                   23228379.7704
        41.5004         35.0004
 25  7 15  0 17 30.0000000  0 10G02G10G25G01G04G28G31G32G03G26
  -2991463.51647  -2302323.62545  22407864.0084                   22407862.1844
        44.0004         32.5004
  16183213.91446  12603754.76644  24873902.0784                   24873908.7034
        39.2504         27.2504
   1989058.91845   -938316.69553  24817881.6484                   24817885.5044
        35.0004         19.5004
 -19932569.56648 -15506581.37545  21267064.7424                   21267063.8484
        48.2504         35.0004
 -11838634.40246  -9165452.16844  23058670.9304                   23058672.6024
        41.5004         25.2504
  -5813907.73047  -4493128.32045  21844716.1334                   21844715.8164
        46.0004         34.5004
 -23267884.71948 -18093734.52748  20283635.4454                   20283633.2304
        48.0004         48.2504
  16094551.35247  12533505.58246  24083985.3054                   24083987.5664
        43.5004         37.2504
 -19901893.52347 -15488542.04347  21401687.2274                   21401688.4384
        47.0004         44.5004
 -11291167.64846  -8647734.89145  23210134.5314                   23210138.8054
        40.5004         33.7504
 25  7 15  0 18  0.0000000  0 10G02G10G25G01G04G28G31G32G03G26
  -2938846.74647  -2261323.60945  22417877.0164                   22417875.1054
        45.0004         32.2504
  16262557.73046  12665580.86344  24889001.0164                   24889007.9734
        38.5004         28.0004
   2019919.86315                  24823755.141
        35.000
 -19930664.27747 -15505096.74245  21267427.3594                   21267427.0004
        47.0004         35.0004
 -11916129.59447  -9225837.94944  23043924.3524                   23043925.7194
        42.0004         25.7504
  -5760449.21147  -4451472.35945  21854888.8204                   21854888.0784
        45.5004         34.0004
 -23272304.25048 -18097178.30948  20282794.3204                   20282792.5704
        48.7504         48.5004
  16151598.22347  12577957.63346  24094840.8674                   24094843.6134
        43.0004         37.2504
 -19986182.35247 -15554221.61347  21385647.3984                   21385648.9694
        46.5004         44.2504
 -11386806.35546  -8722258.48045  23191935.3134                   23191939.4804
        40.2504         34.0004
 25  7 15  0 18 30.0000000  0 10G02G10G25G01G04G28G31G32G03G26
  -2885895.70347  -2220063.11345  22427953.4144                   22427950.8674
        45.0004         33.0004
  16342086.95746  12727551.41444  24904134.8054                   24904141.3244
        37.7504         28.5004
   2051296.55145   -896608.54753  24829725.1484                   24829729.5784
        31.7504         18.2504
 -19928180.03147 -15503160.98445  21267900.2114                   21267899.4734
        47.7504         35.0004
 -11993492.91847  -9286120.96544  23029202.4384                   23029204.4694
        43.5004         26.0004
  -5706603.34447  -4409514.56245  21865136.0164                   21865134.7464
        46.0004         34.0004
 -23276116.76248 -18100149.10248  20282068.7114                   20282067.0514
        48.7504         48.0004
  16208655.80947  12622418.03145  24105699.2424                   24105700.9494
        43.7504         35.7504
 -20070240.11747 -15619721.14847  21369651.9694                   21369653.0984
        47.0004         44.7504
 -11482225.01646  -8796610.59845  23173777.8754                   23173781.4734
        40.0004         35.0004
 25  7 15  0 19  0.0000000  0 10G02G10G25G01G04G28G31G32G03G26
  -2832617.53947  -2178547.70345  22438091.4774                   22438089.6764
        45.0004         31.0004
  16421796.23446  12789662.27344  24919304.5004                   24919309.6054
        38.2504         28.7504
   2083180.15245   -871764.16842  24835792.8834                   24835797.7664
        34.0004         17.7504
 -19925121.81247 -15500777.97345  21268482.1884                   21268481.3834
        46.5004         35.5004
 -12070728.75447  -9346304.62544  23014505.0554                   23014506.4804
        43.0004         26.2504
  -5652376.86347  -4367260.18045  21875454.5314                   21875453.8554
        46.5004         34.2504
 -23279327.75847 -18102651.16448  20281457.7584                   20281456.0664
        47.5004         48.5004
  16265719.64147  12666883.30146  24116557.3754                   24116560.5004
        42.5004         36.2504
 -20154068.98847 -15685042.30147  21353699.8524                   21353701.1684
        46.7504         45.5004
 -11577424.64546  -8870792.03945  23155661.6254                   23155665.5234
        40.7504         35.0004
 25  7 15  0 19 30.0000000  0 10G02G10G25G01G04G28G31G32G03G26
  -2779016.47747  -2136780.68045  22448291.8204                   22448289.7544
        44.5004         31.5004
  16501682.46946  12851911.02044  24934506.3754                   24934512.2664
        38.7504         28.7504
   2115565.64555   -851053.23853  24841955.7344                   24841959.1254
        32.5004         19.7504
 -19921492.44947 -15497949.90245  21269173.0864                   21269172.1954
        47.7504         35.5004
 -12147839.32047  -9406390.69144  22999831.1254                   22999832.8134
        43.0004         27.0004
  -5597774.21947  -4324712.68045  21885845.4844                   21885844.2074
        45.2504         34.7504
 -23281939.91848 -18104686.61348  20280960.7974                   20280959.0594
        48.5004         48.5004
  16322787.53947  12711351.72346  24127417.9384                   24127420.1684
        42.2504         36.0004
 -20237668.74647 -15750184.93447  21337791.1024                   21337792.5824
        47.7504         45.5004
 -11672404.01246  -8944801.87545  23137587.6024                   23137591.6294
        40.7504         35.5004
 25  7 15  0 20  0.0000000  0 11G02G16G10G25G01G04G28G31G32G03G26
  -2725095.16847  -2094764.13345  22458552.6334                   22458550.7074
        45.5004         32.2504
   1424651.16855   1135956.05552  25318908.7584                   25318915.9454
        35.0004         14.7504
  16581744.39546  12914296.66444  24949741.0164                   24949747.8524
        36.5004         28.5004
   2148455.44145   -825424.75443  24848214.3594                   24848220.5314
        33.2504         21.5004
 -19917292.96147 -15494677.59445  21269972.2114                   21269971.6884
        47.0004         35.5004
 -12224824.96147  -9466379.41844  22985181.0704                   22985182.7584
        42.0004         26.7504
  -5542798.14847  -4281874.21545  21896306.7664                   21896306.3284
        45.5004         34.0004
 -23283954.68748 -18106256.56248  20280577.3444                   20280575.4494
        48.5004         48.2504
  16379859.10247  12755823.02045  24138277.5234                   24138280.7504
        42.2504         35.2504
 -20321037.50447 -15815147.57047  21321926.7894                   21321928.3954
        47.2504         45.7504
 -11767160.15246  -9018637.75445  23119556.4224                   23119559.4804
        41.0004         34.2504
 25  7 15  0 20 30.0000000  0 11G02G16G10G25G01G04G28G31G32G03G26
  -2670870.51247  -2052511.21145  22468871.0634                   22468869.3284
        44.5004         31.7504
   1313793.96545   1049574.23042  25297812.8134                   25297821.2704
        33.5004         15.5004
  16661966.34046  12976806.96544  24965008.1024                   24965013.5984
        37.0004         28.2504
   2181831.95345   -799417.17643  24854565.2664                   24854571.2194
        31.5004         19.0004
 -19912538.77047 -15490973.04345  21270876.4304                   21270876.0984
        47.5004         35.0004
 -12301700.40246  -9526282.24644  22970551.7504                   22970553.5474
        41.2504         25.2504
  -5487465.69947  -4238758.03945  21906836.2664                   21906835.4574
        45.5004         34.2504
 -23285387.50848 -18107373.04748  20280304.6804                   20280302.6644
        49.0004         48.0004
  16436919.67646  12800285.75445  24149135.5474                   24149138.5204
        39.7504         33.5004
 -20404187.60247 -15879939.82847  21306103.7424                   21306105.6024
        47.5004         45.5004
 -11861704.32446  -9092308.43746  23101564.4224                   23101569.0784
        41.0004         36.0004
 25  7 15  0 21  0.0000000  0 11G02G16G10G25G01G04G28G31G32G03G26
  -2616351.60547  -2010028.99245  22479246.0394                   22479244.0044
        46.7504         32.7504
   1202732.871 5                  25276677.352
        31.750
  16742340.67645  13039435.99244  24980300.9614                   24980308.7704
        32.2504         26.5004
   2215687.03145   -773036.63743  24861008.3524                   24861014.3014
        31.5004         18.5004
 -19907237.26247 -15486842.00045  21271885.2734                   21271884.6914
        47.2504         35.0004
 -12378472.30147  -9586104.43044  22955942.7344                   22955944.2344
        43.5004         25.2504
  -5431785.84447  -4195371.16045  21917431.8984                   21917430.6414
        46.5004         34.5004
 -23286246.01248 -18108042.00047  20280141.1414                   20280139.5124
        48.5004         47.7504
  16493962.62546  12844734.73445  24159990.5704                   24159993.4534
        40.5004         33.5004
 -20487123.48047 -15944565.14847  21290321.3914                   21290323.0824
        46.7504         45.2504
 -11956039.91846  -9165816.61345  23083613.2734                   23083616.9104
        41.5004         35.0004
 25  7 15  0 21 30.0000000  0 11G02G16G10G25G01G04G28G31G32G03G26
  -2561537.96947  -1967317.11745  22489677.0164                   22489674.9104
        46.2504         33.0004
   1091473.48445    926589.27752  25255505.9384                   25255514.1454
        32.0004         17.2504
  16822869.03555  13102185.06354  24995628.1414                   24995633.1684
        35.0004         27.0004
   2250022.48445   -746281.78543  24867541.5784                   24867547.2074
        32.2504         19.2504
 -19901386.43447 -15482282.92245  21272998.6954                   21272998.6684
        47.0004         35.0004
 -12455138.00847  -9645843.84444  22941353.8054                   22941355.3714
        42.0004         26.7504
  -5375758.24247  -4151713.30145  21928093.7114                   21928092.5164
        47.0004         34.5004
 -23286528.50048 -18108262.11748  20280087.6254                   20280085.8404
        49.2504         48.0004
  16550990.52746  12889171.98045  24170842.0944                   24170845.1844
        41.0004         31.5004
 -20569840.07047 -16009019.60947  21274581.1484                   21274582.3364
        47.5004         45.5004
 -12050160.78146  -9239157.47345  23065702.6954                   23065705.9344
        41.2504         34.7504
 25  7 15  0 22  0.0000000  0 11G02G16G10G25G01G04G28G31G32G03G26
  -2506424.53147  -1924371.65645  22500164.8204                   22500162.4104
        45.5004         32.5004
    980025.77045    839747.31342  25234297.5394                   25234306.3754
        33.5004         15.5004
  16903558.26255  13165059.44554  25010981.1644                   25010988.2734
        33.5004         27.0004
   2284844.54745   -719147.67243  24874168.5234                   24874173.6684
        32.5004         21.2504
 -19894979.49648 -15477290.51645  21274217.9774                   21274217.3674
        48.0004         35.2504
 -12531689.91047  -9705494.55944  22926786.7274                   22926787.5044
        42.2504         26.0004
  -5319377.64847  -4107780.41045  21938822.3134                   21938821.8094
        45.5004         34.5004
 -23286228.23848 -18108028.14148  20280144.9534                   20280142.6684
        49.0004         48.0004
  16608011.07046  12933603.50445  24181693.6334                   24181696.1334
        40.2504         32.0004
 -20652327.44147 -16073295.45347  21258883.5084                   21258885.3204
        47.2504         45.2504
 -12144056.01246  -9312322.48445  23047834.5164                   23047838.1334
        41.5004         35.0004
 25  7 15  0 22 30.0000000  0 11G02G16G10G25G01G04G28G31G32G03G26
  -2451013.37147  -1881194.17245  22510709.0474                   22510706.8484
        45.7504         33.0004
                                  25213054.289
        29.500
  16984407.20345  13228058.30944  25026366.7194                   25026373.0274
        30.2504         24.0004
   2320152.17644   -691635.22343  24880886.2664                   24880892.0084
        29.5004         20.0004
 -19888017.14548 -15471865.33246  21275542.9534                   21275542.6954
        48.0004         36.0004
 -12608128.02346  -9765056.62144  22912240.2814                   22912242.0634
        41.7504         25.7504
  -5262646.28947  -4063574.16445  21949618.0784                   21949617.2544
        46.2504         33.5004
 -23285346.07048 -18107340.74247  20280312.4454                   20280310.6684
        49.0004         47.7504
  16665024.30946  12978029.37945  24192541.7664                   24192544.6484
        39.7504         31.5004
 -20734583.19548 -16137390.81247  21243231.3204                   21243232.7774
        48.5004         45.7504
 -12237722.11346  -9385308.96545  23030011.1414                   23030014.3284
        41.7504         34.7504
 25  7 15  0 23  0.0000000  0 11G02G16G10G25G01G04G28G31G32G03G26
  -2395298.78547  -1837780.26645  22521311.2034                   22521308.9224
        45.5004         33.5004
    756585.66415                  25191777.625
        33.250
  17065423.07445  13291187.19944  25041784.5554                   25041790.5554
        33.0004         26.5004
   2355952.27755   -663739.06653  24887700.2114                   24887703.7704
        31.7504         19.7504
 -19880492.02048 -15466001.60245  21276975.5944                   21276974.5394
        48.0004         35.2504
 -12684444.03946  -9824523.55944  22897717.8754                   22897719.4694
        41.7504         26.5004
  -5205558.40647  -4019090.12545  21960481.7734                   21960480.7344
        45.2504         33.2504
 -23283875.04748 -18106194.48848  20280592.3834                   20280590.4924
        48.7504         48.0004
  16722038.48446  13022455.93445  24203393.2034                   24203394.9144
        41.2504         31.7504
 -20816596.82448 -16201297.50847  21227624.7814                   21227625.9144
        48.2504         45.5004
 -12331147.50446  -9458107.87145  23012232.5784                   23012236.5274
        41.5004         34.0004
 25  7 15  0 23 30.0000000  0 10G02G16G10G01G04G28G31G32G03G26
  -2339283.25847  -1794131.85945  22531970.6484                   22531968.6884
        46.0004         32.5004
                                  25170469.273
        32.000
  17146604.68845  13354445.33644  25057231.5084                   25057238.7274
        35.2504         28.0004
 -19872405.27048 -15459700.24645  21278514.0474                   21278513.5164
        48.5004         35.0004
 -12760638.36346  -9883895.67644  22883218.5944                   22883219.9694
        41.0004         25.5004
  -5148116.63347  -3974330.34045  21971412.6024                   21971411.8284
        46.5004         34.0004
 -23281816.28948 -18104590.25448  20280984.0554                   20280982.3164
        50.2504         48.0004
  16779053.28546  13066882.97745  24214240.9384                   24214244.9734
        40.7504         33.0004
 -20898366.27748 -16265013.93447  21212064.5084                   21212065.7344
        48.2504         45.7504
 -12424329.20746  -9530716.91846  22994500.3754                   22994504.6374
        41.5004         36.2504
 25  7 15  0 24  0.0000000  0 10G02G16G10G01G04G28G31G32G03G26
  -2282965.64847  -1750248.06645  22542687.4224                   22542685.7854
        46.5004         32.2504
    532461.41845    699690.37152  25149127.9924                   25149135.7424
        32.0004         14.7504
  17227954.57446  13417834.56345  25072712.5554                   25072719.7464
        36.2504         30.0004
 -19863754.14847 -15452959.13745  21280159.9534                   21280159.6294
        47.5004         35.5004
 -12836707.37147  -9943170.16444  22868743.2424                   22868744.3634
        42.2504         26.7504
  -5090319.69547  -3929293.80545  21982410.4144                   21982410.1134
        46.7504         33.5004
 -23279167.37148 -18102526.15248  20281487.9924                   20281486.0944
        49.5004         48.0004
  16836072.43446  13111313.40645  24225092.2814                   24225094.7704
        41.2504         33.2504
 -20979885.54747 -16328535.43447  21196551.4694                   21196553.3834
        47.2504         45.7504
 -12517260.16847  -9603130.58245  22976816.7734                   22976819.9144
        42.0004         35.7504
 25  7 15  0 24 30.0000000  0 10G02G16G10G01G04G28G31G32G03G26
  -2226332.13347  -1706118.11345  22553465.1334                   22553462.7074
        47.0004         33.2504
    420169.95345    612190.95742  25127759.5314                   25127767.8094
        32.5004         16.2504
  17309487.83246  13481366.65244  25088228.0554                   25088235.2544
        36.7504         27.5004
 -19854523.44548 -15445766.39845  21281916.7974                   21281916.4344
        48.2504         35.0004
 -12912635.01647 -10002334.47344  22854294.3524                   22854295.7034
        42.5004         26.2504
  -5032153.89847  -3883969.82845  21993479.1094                   21993478.9224
        46.2504         33.5004
 -23275913.06648 -18099990.33648  20282107.6024                   20282106.0704
        49.5004         48.0004
  16893111.94546  13155759.71545  24235946.7584                   24235948.8984
        40.5004         33.7504
 -21061136.30148 -16391847.67247  21181089.8834                   21181091.5984
        48.0004         46.0004
 -12609920.99646  -9675333.72745  22959183.3524                   22959187.0314
        41.5004         35.5004
 25  7 15  0 25  0.0000000  0 10G02G16G10G01G04G28G31G32G03G26
  -2169374.67247  -1661735.73445  22564303.5394                   22564301.3134
