     2.11           OBSERVATION DATA    G (GPS)             RINEX VERSION / TYPE
teqc  2013Mar15     Lisa A Jose         20140613 00:30:45UTCPGM / RUN BY / DATE
OSX ker:10.8.0|Core 2 Duo|gcc 4.2 -m64|OSX ker:10.8.0+|=+   COMMENT
BIT 2 OF LLI FLAGS DATA COLLECTED UNDER A/S CONDITION       COMMENT
VERS                                                        MARKER NAME
                                                            MARKER NUMBER
G Funning/L Jose    University of California, Riverside     OBSERVER / AGENCY
0220413523          TRIMBLE R7          2.32                REC # / TYPE / VERS
1441038426          TRM57971.00     NONE                    ANT # / TYPE
 -2430816.0298 -4704719.7452  3543696.9495                  APPROX POSITION XYZ
        1.0327        0.0000        0.0000                  ANTENNA: DELTA H/E/N
     1     1                                                WAVELENGTH FACT L1/2
     7    L1    L2    C1    P2    D1    S1    S2            # / TYPES OF OBSERV
    30.0000                                                 INTERVAL
    16                                                      LEAP SECONDS
 SNR is mapped to RINEX snr flag value [0-9]                COMMENT
  L1 & L2: min(max(int(snr_dBHz/6), 0), 9)                  COMMENT
  2014     5    29    17    19   30.0000000     GPS         TIME OF FIRST OBS
  2014     5    29    23    59   30.0000000     GPS         TIME OF LAST OBS
  2014     5    29    23    59   30.0000000     GPS         TIME OF LAST OBS
                                                            END OF HEADER
 14  5 29 17 19 30.0000000  0  8G16G07G08G03G13G23G32G20
     20049.87958     12922.32856  21142889.2584   21142884.3324
        50.7504         38.5004
   -212828.20757   -135227.72355  22301391.9844   22301388.7584
        47.2504         35.7504
   -246411.98057   -157339.87154  24280915.8444   24280915.9844
        42.7504         25.7504
   -131611.63356    -87119.15654  23650249.5474   23650250.2194
        39.0004         25.5004
   -195690.83258   -127569.64156  20937030.8754   20937026.5474
        50.7504         40.0004
    -89560.23058    -58505.69557  20354288.7194   20354282.1054
        51.0004         42.5004
    101508.80156     70374.49253  24634417.1254   24634419.4844
        40.0004         21.2504
    112148.50057     72191.03955  21920447.0004   21920443.7504
        47.0004         35.7504
 14  5 29 17 20  0.0000000  0 10G16G07G08G10G03G13G23G32G27G20
     29956.62148     20641.83246  21144774.7114   21144769.6804       -330.2254
        50.2504         39.0004
   -304275.43448   -206485.32446  22283989.9694   22283986.9144       3048.2414
        49.0004         38.0004
   -353149.10946   -240511.55542  24260605.4144   24260604.3984       3557.9044
        36.7504         17.2504
   -203724.80957   -117412.53154  23351902.1414   23351899.7584
        42.0004         27.0004
   -256005.30946   -184049.17644  23626578.9924   23626579.4494       4146.4564
        40.0004         25.2504
   -281997.31248   -194821.44946  20920607.6174   20920603.3324       2876.8834
        50.5004         39.5004
   -129181.59848    -89379.52747  20346748.9144   20346742.7934       1320.7124
        48.2504         42.5004
    170587.29346    124201.61343  24647562.5474   24647564.7384      -2302.6164
        41.2504         22.2504
   -147495.56656    -88042.29754  24088612.3984   24088614.6414
        40.0004         26.0004
    166636.02047    114648.74245  21930816.0394   21930812.6484      -1816.2514
        47.0004         35.0004
 14  5 29 17 20 30.0000000  0 10G16G07G08G10G03G13G23G32G27G20
     40233.46948     28649.73046  21146729.9454   21146725.0164       -342.5624
        50.7504         39.0004
   -395724.94148   -277744.66846  22266587.7344   22266584.7274       3048.3174
        48.0004         36.5004
   -459940.18747   -323725.37143  24240283.5394   24240283.0164       3559.7034
        42.5004         22.0004
   -317068.02047   -205731.89144  23330333.4774   23330330.7704       3778.1074
        42.7504         28.0004
   -380504.00847   -281061.08644  23602887.3284   23602887.6914       4149.9574
        42.0004         26.5004
   -368305.25848   -262074.40246  20904183.5084   20904179.6024       2876.9324
        50.5004         40.2504
   -168666.43448   -120146.96947  20339235.0394   20339228.6094       1316.1614
        49.7504         42.7504
    239502.65246    177901.53943  24660677.8364   24660679.0944      -2297.1794
        41.0004         22.5004
   -248963.00846   -167107.72344  24069303.8054   24069306.3834       3382.2484
        40.2504         24.2504
    221208.96147    157172.96545  21941201.2664   21941197.5514      -1819.0984
        46.7504         35.7504
 14  5 29 17 21  0.0000000  0 10G16G07G08G10G03G13G23G32G27G20
     50927.47348     36982.68846  21148764.8204   21148760.5474       -356.4674
        50.0004         40.0004
   -487128.21947   -348967.96945  22249194.2814   22249191.2344       3046.7764
        47.0004         35.0004
   -566736.53947   -406943.23444  24219960.7734   24219960.3714       3559.8784
        42.5004         25.7504
   -430170.27346   -293863.51244  23308810.8524   23308808.2894       3770.0754
        41.7504         27.5004
   -505055.73047   -378114.25844  23579186.3204   23579186.1094       4151.7244
        42.5004         27.0004
   -454564.37548   -329289.30546  20887768.8754   20887764.8834       2875.3044
        51.0004         40.5004
   -207964.75448   -150769.07447  20331756.9924   20331750.6844       1309.9444
        51.5004         42.7504
    308301.35946    231510.73442  24673768.7114   24673772.1684      -2293.2904
        36.0004         16.7504
   -350380.54746   -246134.30143  24050004.6884   24050004.9184       3380.5854
        41.2504         22.7504
    275913.74247    199799.93046  21951610.7114   21951607.6374      -1823.4934
        47.2504         36.5004
 14  5 29 17 21 30.0000000  0 10G16G07G08G10G03G13G04G23G27G20
     62059.43448     45656.91846  21150883.7034   21150878.6884       -371.0654
        50.5004         39.2504
   -578462.87948   -420137.81645  22231813.7114   22231810.4104       3044.4894
        48.5004         35.5004
   -673515.18046   -490147.31243  24199641.9384   24199641.0634       3559.2884
        39.7504         22.2504
   -543006.14147   -381787.52744  23287338.5234   23287336.5434       3761.1964
        43.2504         27.5004
   -629634.53545   -475188.50443  23555478.8834   23555479.8404       4152.6274
        35.5004         21.2504
   -540750.30148   -396447.17646  20871368.2034   20871363.8524       2872.8644
        51.0004         40.5004
     16686.12156      9852.61753  25199680.0164   25199681.3244
        41.5004         22.2504
   -247052.48848   -181227.08647  20324318.9774   20324312.3984       1302.9244
        48.0004         42.5004
   -451722.28546   -325101.79344  24030719.3524   24030722.7034       3378.0584
        40.2504         26.5004
    330770.61347    242545.43046  21962050.1254   21962046.6054      -1828.5624
        46.0004         36.2504
 14  5 29 17 22  0.0000000  0 11G16G07G08G10G03G13G04G23G32G27G20
     73636.51648     54677.98046  21153086.5474   21153081.5904       -385.9034
        50.7504         39.5004
   -669719.69547   -491246.97745  22214448.0634   22214445.0434       3041.8944
        47.0004         35.7504
   -780266.69947   -573330.21544  24179327.5314   24179326.6214       3558.3844
        42.5004         25.0004
   -655564.04347   -469494.99644  23265919.8054   23265917.5274       3751.9304
        43.5004         28.5004
   -754227.62145   -572273.90643  23531769.5784   23531770.6764       4153.1034
        35.0004         19.5004
   -626852.09048   -463539.48046  20854983.8594   20854979.2814       2870.0604
        50.5004         39.5004
     28144.04746     18780.83243  25201861.0234   25201862.4064       -381.9314
        40.7504         20.2504
   -285918.89848   -211512.60946  20316923.2584   20316916.8914       1295.5474
        48.7504         41.0004
     57355.65656    307491.54352  24699900.6174   24699902.3284
        40.0004         17.7504
   -552975.934 6                  24011452.602                        3375.122
        36.500
    385785.59447    285414.16045  21972518.8204   21972515.4694      -1833.8334
        47.2504         34.5004
 14  5 29 17 22 30.0000000  0 11G16G07G08G10G03G13G04G23G32G27G20
     85658.94148     64046.07846  21155374.5554   21155369.2344       -400.7484
        50.2504         38.5004
   -760896.83647   -562294.12546  22197097.7194   22197094.4964       3039.2384
        46.2504         36.2504
   -886989.19547   -656490.51644  24159018.3674   24159018.0434       3557.4174
        42.7504         26.7504
   -767839.46546   -556982.28544  23244553.8204   23244552.1994       3742.5144
        41.7504         26.5004
   -878830.05146   -669366.69543  23508058.7584   23508059.8954       4153.4144
        38.2504         18.2504
   -712866.18448   -530563.45746  20838616.1644   20838611.4844       2867.1364
        50.0004         38.7504
     39758.84046     27831.26643  25204071.6024   25204072.1804       -387.1604
        40.0004         19.7504
   -324560.63347   -241623.10246  20309569.9144   20309563.1684       1288.0584
        47.2504         41.2504
    125881.21546    360887.83642  24712940.1334   24712942.7304      -2284.1854
        36.7504         16.7504
   -654136.23455   -468104.73052  23992202.1414   23992204.9144       3372.1854
        35.2504         17.2504
    440958.05147    328405.55145  21983018.1644   21983014.6254      -1839.0824
        46.7504         35.2504
 14  5 29 17 23  0.0000000  0 11G16G07G08G10G03G13G04G23G32G27G20
     98126.58648     73761.11746  21157746.9534   21157742.5274       -415.5884
        48.5004         37.7504
   -851992.80148   -633278.01646  22179762.7034   22179759.5354       3036.5324
        50.0004         38.7504
   -993680.41447   -739626.49243  24138715.2424   24138715.6374       3556.3744
        42.7504         23.7504
   -879827.96546   -644246.04743  23223244.1564   23223240.9574       3732.9504
        41.2504         22.5004
  -1003436.18456   -766462.22354  23484345.7814   23484347.5634       4153.7264
        37.7504         24.2504
   -798789.06248   -597516.35245  20822265.0234   20822260.5864       2864.0964
        48.5004         35.0004
     51529.79746     37003.37943  25206312.4384   25206312.1914       -392.3654
        40.5004         22.0004
   -362974.44148   -271555.97347  20302259.7504   20302253.1524       1280.4604
        53.0004         44.2504
    194317.87546    414214.76243  24725965.1334   24725966.1604      -2281.2224
        41.5004         19.5004
   -755198.45756   -546854.43754  23972970.4144   23972971.3054       3369.2494
        41.0004         26.5004
    496287.34447    371519.19145  21993546.9534   21993543.8204      -1844.3104
        46.0004         35.7504
 14  5 29 17 23 30.0000000  0 11G16G07G08G10G03G13G04G23G32G27G20
    111042.05148     83825.07446  21160204.4384   21160199.8594       -430.5154
        50.5004         38.7504
   -943002.71547   -704194.79746  22162444.1884   22162440.9654       3033.6644
        47.7504         37.5004
  -1100335.36346   -822734.12543  24118419.4924   24118419.4774       3555.1654
        41.0004         21.0004
   -991522.33247   -731280.58644  23201989.1884   23201986.7504       3723.1464
        44.0004         29.0004
  -1128037.76246   -863554.32444  23460635.6334   23460635.9064       4153.3864
        40.5004         27.0004
   -884613.86748   -664392.83646  20805933.2894   20805929.0904       2860.8274
        50.7504         41.0004
     63459.11346     46298.91843  25208582.4064   25208581.9574       -397.6444
        41.5004         19.7504
   -401154.03948   -301306.34047  20294994.6644   20294988.1914       1272.6534
        51.5004         43.0004
    262668.28156    467474.61753  24738970.3834   24738972.2704      -2278.2594
        38.5004         18.5004
   -856154.36346   -625521.29744  23953758.9224   23953761.3834       3365.1974
        41.7504         27.5004
    551775.97347    414756.94145  22004106.2194   22004103.1684      -1849.6214
        45.5004         35.0004
 14  5 29 17 24  0.0000000  0 11G16G07G08G10G03G13G04G23G32G27G20
    124407.53548     94239.71146  21162747.7504   21162743.2384       -445.5164
        49.7504         39.0004
  -1033922.39147   -775041.28946  22145142.6254   22145139.4384       3030.6564
        47.5004         37.0004
  -1206950.23446   -905810.58243  24098131.2974   24098130.9614       3553.8294
        41.5004         22.5004
  -1102915.84047   -818080.71544  23180791.7114   23180788.7194       3713.1174
        43.5004         27.0004
  -1252627.30546   -960636.96944  23436926.5474   23436927.0744       4152.9854
        40.5004         26.0004
   -970334.87948   -731188.44146  20789621.4384   20789616.9884       2857.3674
        51.0004         40.5004
     75548.67246     55719.31343  25210882.1564   25210883.0354       -402.9854
        39.0004         22.7504
   -439093.86748   -330869.87947  20287774.8984   20287768.3674       1264.6614
        51.0004         42.0004
    330933.80514                  24751960.406                       -2275.295
        29.500
   -956996.71946   -704099.69144  23934569.7734   23934571.1254       3361.4124
        41.0004         29.2504
    607425.24247    458119.91045  22014695.5004   22014692.8404      -1854.9764
        43.5004         33.5004
 14  5 29 17 24 30.0000000  0 11G16G07G08G10G03G13G04G23G32G27G20
    138222.75448    105004.79746  21165376.9224   21165372.3594       -460.5074
        50.5004         38.7504
  -1124750.55948   -845816.50046  22127858.6414   22127855.7114       3027.6064
        49.0004         38.5004
  -1313523.14146   -988854.30943  24077851.1484   24077850.9804       3552.4304
        37.0004         20.7504
  -1214004.55147   -904643.32044  23159652.1644   23159649.2544       3702.9574
        43.7504         28.0004
  -1377200.09046  -1057706.58244  23413221.4384   23413222.1524       4152.4264
        40.5004         26.7504
  -1055948.98048   -797900.72346  20773329.1024   20773324.8204       2853.8034
        51.5004         40.2504
     87797.47347     65263.79343  25213213.9224   25213213.5634       -408.2934
        42.2504         21.5004
   -476791.32448   -360244.55147  20280601.2664   20280595.2304       1256.5824
        50.0004         42.7504
    399115.65246    521347.39153  24764937.4454   24764936.4774      -2272.7284
        39.5004         21.5004
  -1057720.81247   -782585.92244  23915402.1414   23915403.8834       3357.4704
        42.0004         28.0004
    663234.09047    501607.21145  22025315.8134   22025312.7894      -1860.2954
        44.5004         33.7504
 14  5 29 17 25  0.0000000  0 11G16G07G08G10G03G13G04G23G32G27G20
    152486.55548    116119.42646  21168091.1724   21168086.5084       -475.4604
        50.5004         38.7504
  -1215486.63347   -916519.89145  22110591.6484   22110588.5904       3024.5364
        46.5004         35.2504
  -1420053.03946  -1071864.55143  24057579.5164   24057579.3364       3550.9974
        37.2504         20.2504
  -1324785.01647   -990965.73844  23138571.4614   23138568.6994       3692.6824
        43.0004         28.2504
  -1501751.74647  -1154759.72344  23389519.8984   23389520.0314       4151.7224
        42.0004         28.0004
  -1141453.28548   -864527.46146  20757058.2734   20757054.1214       2850.1434
        50.7504         40.2504
    100203.65446     74930.86243  25215573.9844   25215575.0704       -413.5394
        39.2504         22.5004
   -514243.87148   -389428.38747  20273474.5634   20273467.8054       1248.4184
        50.0004         43.5004
    467211.72346    574409.02043  24777894.0084   24777896.9144      -2269.8694
        37.0004         19.5004
  -1158322.63746   -860976.92243  23896257.7814   23896259.8634       3353.3944
        40.5004         21.2504
    719200.63347    545217.37145  22035965.9064   22035963.0554      -1865.5514
        45.7504         35.0004
 14  5 29 17 25 30.0000000  0 11G16G07G08G10G03G13G04G23G32G27G20
    167202.41448    127586.29746  21170891.4064   21170886.9064       -490.5294
        49.5004         39.0004
  -1306124.74647   -987146.96546  22093344.4144   22093340.9104       3021.2704
        47.7504         37.0004
  -1526534.16847  -1154836.82044  24037316.3204   24037315.8484       3549.3714
        43.0004         26.0004
  -1435248.98447  -1077041.55944  23117550.5554   23117547.7704       3682.1324
        43.7504         27.7504
  -1626272.91846  -1251789.10244  23365825.0554   23365824.4264       4150.7064
        41.0004         26.5004
  -1226840.52748   -931062.97746  20740809.7344   20740805.4924       2846.2414
        51.0004         40.2504
    112770.90246     84723.50443  25217966.0004   25217965.9734       -418.9084
        37.2504         21.5004
   -551444.21148   -418415.70347  20266395.4064   20266388.7114       1240.0114
        48.7504         43.0004
    535225.96946    627406.89543  24790837.9694   24790839.8714      -2267.1424
        40.5004         20.2504
  -1258793.14146   -939265.52744  23877139.1954   23877140.7384       3349.0174
        41.0004         28.0004
    775328.26247    588953.06345  22046646.9064   22046644.2584      -1870.9214
        44.5004         34.5004
 14  5 29 17 26  0.0000000  0 11G16G07G08G10G03G13G04G23G32G27G20
    182370.67648    139405.69546  21173778.2344   21173773.0004       -505.6094
        50.0004         39.0004
  -1396662.94547  -1057696.18446  22076115.2894   22076112.1844       3017.9404
        47.7504         37.0004
  -1632964.08646  -1237769.14544  24017063.9064   24017062.8754       3547.6644
        41.7504         26.0004
  -1545392.04747  -1162867.29344  23096590.9534   23096588.2114       3671.4354
        43.5004         27.7504
  -1750758.09846  -1348790.44544  23342136.0944   23342135.7154       4149.5064
        41.2504         27.5004
  -1312106.64848   -997504.12146  20724584.1334   20724579.4774       2842.2044
        50.7504         40.5004
    125498.36346     94640.94943  25220388.2584   25220388.3284       -424.2494
        38.7504         21.2504
   -588388.71148   -447203.65647  20259365.1024   20259358.7584       1231.4834
        50.0004         42.7504
    603158.48046    680340.96143  24803764.8674   24803768.4964      -2264.4174
        37.7504         19.0004
  -1359127.13347  -1017447.76244  23858045.8204   23858047.8554       3344.4664
        42.2504         28.5004
    831616.49247    632813.90645  22057358.0474   22057355.1914      -1876.2744
        45.5004         33.7504
 14  5 29 17 26 30.0000000  0 11G16G07G08G10G03G13G04G23G32G27G20
   1773414.75048   1379180.27046  21476543.5634   21476539.1844       -520.8024
        49.5004         39.0004
     88327.85948     99439.52746  22358699.7114   22358696.4344       3014.3074
        48.5004         37.7504
   -163913.33246    -93054.19944  24296614.6564   24296613.5664       3545.6424
        41.2504         25.0004
    -79781.91047    -20833.40244  23375487.7274   23375484.9494       3660.3294
        43.5004         28.5004
   -299773.45746   -218152.96544  23618249.0314   23618248.8014       4147.8454
        40.2504         26.7504
    178179.06348    163757.47346  21008176.0164   21008171.8244       2837.8104
        51.0004         40.5004
   1713809.37946   1332285.88743  25522633.5784   25522633.5314       -429.7014
        38.0004         20.0004
    950350.90248    751814.18847  20552177.7894   20552170.9884       1222.6804
        51.7504         42.5004
   2246431.00846   1960812.80243  25116468.2034   25116472.5664      -2261.7514
        38.0004         21.2504
    116108.02047    132086.17244  24138774.1724   24138775.6884       3339.4954
        43.0004         29.5004
   2463486.61347   1904400.90245  22367892.8594   22367889.9184      -1881.6714
        45.0004         33.5004
 14  5 29 17 27  0.0000000  0 11G16G07G08G10G03G13G04G23G32G27G20
   1789491.85948   1391707.85546  21479602.8364   21479598.0944       -535.9044
        49.5004         38.2504
     -2000.44547     29053.85946  22341510.5784   22341507.4064       3010.9434
        47.2504         37.5004
   -270230.35947   -175898.57044  24276383.1254   24276382.4104       3543.9014
        42.0004         26.0004
   -189265.16447   -106145.01244  23354653.0394   23354650.1994       3649.4424
        44.0004         28.5004
   -424165.63746   -315081.81644  23594577.3984   23594577.1024       4146.4064
        40.5004         27.2504
     93171.18448     97517.55546  20991999.7274   20991995.1804       2833.5964
        51.0004         40.2504
   1726860.44546   1342455.51243  25525116.3984   25525117.7304       -435.0364
        40.7504         19.7504
    913932.10248    723435.85947  20545247.4534   20545240.6024       1213.9604
        51.5004         42.5004
   2314204.54746   2013623.01643  25129368.2344   25129369.4184      -2259.1184
        39.2504         19.5004
     16067.20346     54132.36344  24119736.2664   24119737.4384       3334.6944
        40.7504         28.2504
   2520098.28947   1948513.77345  22378666.1414   22378662.8014      -1887.0564
        44.7504         34.2504
 14  5 29 17 27 30.0000000  0 11G16G07G08G10G03G13G04G23G32G27G20
   1806023.68848   1404589.76646  21482749.0314   21482744.0474       -551.0614
        49.5004         38.7504
    -92221.00847    -41247.84846  22324342.0784   22324338.9884       3007.3524
        47.5004         37.0004
   -376487.58646   -258696.33644  24256162.9534   24256162.2384       3541.9084
        41.2504         26.0004
   -298411.50847   -191194.09444  23333883.5634   23333880.9614       3638.2114
        43.7504         28.2504
   -548503.08646   -411968.01244  23570916.6804   23570916.8674       4144.5824
        41.2504         26.7504
      8298.08248     31382.65646  20975848.7194   20975844.4414       2829.1034
        51.2504         40.5004
   1740072.74646   1352750.80143  25527630.8984   25527631.3984       -440.4104
        40.5004         20.5004
    877781.42648    695266.46947  20538367.9064   20538361.5634       1205.0234
        49.5004         42.7504
   2381898.46546   2066371.29743  25142248.9224   25142251.1214      -2256.4644
        39.2504         19.7504
    -83819.22747    -23701.12144  24100729.1884   24100730.5984       3329.5484
        42.7504         29.5004
   2576870.95747   1992752.09445  22389469.5634   22389466.1374      -1892.4224
        45.5004         34.0004
 14  5 29 17 28  0.0000000  0 11G16G07G08G10G03G13G04G23G32G27G20
   1823004.72748   1417821.71946  21485979.7814   21485975.3594       -566.0354
        49.0004         38.5004
   -182336.73047   -111467.87146  22307193.5314   22307190.3754       3003.8574
        47.2504         37.0004
   -482687.70746   -341449.60244  24235953.6804   24235952.6374       3540.0044
        41.7504         26.2504
   -407221.70747   -275981.23044  23313177.8594   23313175.1214       3627.0074
        43.2504         28.2504
   -672785.08246   -508811.01244  23547266.5474   23547266.9064       4142.7334
        41.5004         27.5004
    -76441.32848    -34648.05946  20959723.1724   20959718.8444       2824.6474
        51.0004         40.7504
   1753440.80946   1363167.43043  25530175.0864   25530175.4694       -445.6024
        41.7504         21.2504
    841897.34848    667304.81647  20531539.4774   20531533.3094       1196.1364
        48.0004         42.7504
   2449508.10546   2119053.80543  25155115.9534   25155118.2154      -2253.6554
        38.7504         20.2504
   -183551.12546   -101414.19144  24081750.7424   24081751.2854       3324.3974
        41.5004         28.7504
   2633798.89147   2037111.39545  22400302.7114   22400299.3444      -1897.5984
        45.2504         33.7504
 14  5 29 17 28 30.0000000  0 11G16G07G08G10G03G13G04G23G32G27G20
   1840445.28548   1431411.72746  21489299.1334   21489294.1884       -581.3524
        49.2504         37.7504
   -272335.68747   -181596.89846  22290067.5474   22290064.1214       2999.9654
        47.7504         37.0004
   -588818.67247   -424148.97744  24215757.7424   24215756.7504       3537.6994
        42.5004         25.5004
   -515681.03947   -360494.96944  23292538.3364   23292535.4804       3615.3114
        44.2504         28.5004
   -796996.53147   -605599.04344  23523630.2664   23523629.1524       4140.3824
        42.0004         27.5004
   -161033.16048   -100563.78146  20943626.2034   20943621.5704       2819.7284
        51.5004         40.5004
   1766974.00446   1373712.71943  25532750.1564   25532750.2584       -451.1074
        41.0004         21.5004
    806293.52348    639561.53947  20524764.4064   20524758.0904       1186.7944
        48.2504         42.2504
   2517043.57446   2171678.53143  25167967.9694   25167969.5274      -2251.1824
        39.0004         19.7504
   -283113.03946   -178994.80544  24062803.6484   24062805.8754       3318.7304
        41.7504         29.0004
   2690891.92647   2081599.35945  22411167.1174   22411164.3594      -1903.1014
        45.0004         33.5004
 14  5 29 17 29  0.0000000  0 11G16G07G08G10G03G13G04G23G32G27G20
   1858345.01248   1445359.53146  21492705.4304   21492700.7774       -596.6584
        49.2504         38.7504
   -362216.28548   -251633.70346  22272963.6414   22272960.5004       2996.0204
        48.0004         37.2504
   -694878.53147   -506792.96944  24195574.4454   24195574.4104       3535.3294
        42.5004         25.7504
   -623785.36747   -444732.09444  23271966.2034   23271964.2814       3603.4784
        43.5004         28.0004
   -921131.62546   -702327.55144  23500007.7814   23500007.6804       4137.8364
        41.5004         28.5004
   -245473.86748   -166361.73846  20927557.6484   20927553.3204       2814.6904
        51.0004         40.7504
   1780671.59046   1384386.10543  25535356.8364   25535357.5394       -456.5864
        40.0004         20.0004
    770972.91848    612038.95747  20518043.1484   20518036.2304       1177.3544
        49.2504         42.7504
   2584504.48446   2224245.17643  25180805.4384   25180807.1374      -2248.6974
        40.5004         19.7504
   -382500.16047   -256439.23444  24043892.2034   24043892.1954       3312.9044
        42.7504         28.7504
   2748148.94147   2126215.09045  22422063.1644   22422060.0594      -1908.5674
        44.5004         34.5004
 14  5 29 17 29 30.0000000  0 11G16G07G08G10G03G13G04G23G32G27G20
   1876707.06648   1459667.58646  21496199.8134   21496194.4454       -612.0684
        49.2504         38.5004
   -451972.87147   -321573.85946  22255883.5554   22255880.2624       2991.8864
        47.2504         36.7504
   -800861.48047   -589377.01644  24175407.3674   24175405.8164       3532.7654
        43.2504         26.5004
   -731526.82447   -528686.44944  23251464.2584   23251461.5984       3591.3824
        44.2504         28.0004
  -1045181.53947   -798989.69544  23476401.8204   23476401.7424       4134.9974
        43.0004         27.0004
   -329756.09448   -232036.21146  20911519.3054   20911514.8244       2809.4084
        51.5004         40.7504
   1794536.84846   1395190.18843  25537994.3674   25537995.2814       -462.1754
        39.5004         20.5004
    735942.53948    584742.52347  20511377.2664   20511370.8054       1167.6794
        50.7504         42.7504
   2651894.69946   2276756.77343  25193627.4924   25193631.8914      -2246.3404
        37.2504         20.2504
   -481703.75047   -333740.58244  24025013.3594   24025014.8444       3306.7864
        42.5004         29.5004
   2805572.91847   2170960.91445  22432990.4224   22432987.6564      -1914.1334
        45.5004         35.2504
 14  5 29 17 30  0.0000000  0 12G19G16G07G08G10G03G13G04G23G32G27G20
    836303.82456    702903.34853  25011428.4224   25011429.2934
        37.5004         22.0004
   1895525.51248   1474331.27746  21499780.8674   21499776.1564       -627.2824
        48.5004         38.0004
   -541609.77347   -391420.76646  22238826.0554   22238822.8954       2987.8974
        47.7504         36.5004
   -906771.53147   -671904.27744  24155252.9064   24155252.2464       3530.3354
        42.2504         25.5004
   -838907.08647   -612359.35244  23231030.0164   23231027.4534       3579.3424
        44.2504         28.5004
  -1169146.73047   -895585.82844  23452811.7814   23452811.1644       4132.1734
        43.0004         26.5004
   -413881.98048   -297588.85946  20895510.4224   20895506.1804       2804.1964
        51.0004         40.5004
   1808562.85946   1406119.49643  25540664.0944   25540664.4104       -467.5344
        41.2504         20.5004
    701199.68448    557670.14547  20504765.8754   20504759.3984       1158.0954
        49.7504         43.0004
   2719207.96146   2329208.39143  25206438.9224   25206440.4384      -2243.7754
        39.7504         19.2504
   -580724.66046   -410899.63344  24006170.6254   24006171.5314       3300.6974
        40.7504         29.2504
   2863156.92647   2215831.44945  22443948.4844   22443945.4964      -1919.4674
        45.0004         33.5004
 14  5 29 17 30 30.0000000  0 12G19G16G07G08G10G03G13G04G23G32G27G20
    713579.66446    607274.37943  24988074.4224   24988075.3484       4090.8054
        37.2504         22.7504
   1914804.24248   1489353.61346  21503449.9454   21503444.4574       -642.6244
        49.0004         38.0004
   -631121.07047   -461169.79346  22221792.5314   22221789.3874       2983.7104
        47.7504         37.0004
  -1012602.43747   -754369.84444  24135113.8444   24135112.9024       3527.6974
        42.5004         25.2504
   -945917.27747   -695743.89144  23210667.1414   23210664.2384       3567.0064
        44.2504         28.7504
  -1293017.23047   -992108.15644  23429240.4534   23429239.3594       4129.0174
        44.0004         28.0004
   -497843.28948   -363013.25046  20879533.0474   20879528.8014       2798.7104
        51.0004         40.7504
   1822753.68046   1417177.23043  25543364.3444   25543365.1564       -473.0274
        41.0004         20.7504
    666752.13748    530827.86747  20498210.5474   20498204.0274       1148.2524
        51.0004         42.5004
   2786448.64545   2381603.52743  25219231.6334   25219235.7304      -2241.3564
        35.5004         18.5004
   -679553.43446   -487908.93444  23987363.7504   23987364.5784       3294.2924
        41.7504         27.7504
   2920905.19947   2260829.99645  22454937.5314   22454934.6054      -1924.9424
        45.2504         32.7504
 14  5 29 17 31  0.0000000  0 12G19G16G07G08G10G03G13G04G23G32G27G20
    590727.98846    511546.06643  24964696.0864   24964697.2584       4095.0564
        36.5004         22.7504
   1934537.80148   1504730.39146  21507204.5784   21507199.6484       -657.7854
        48.0004         38.0004
   -720510.07848   -530823.53546  22204782.4224   22204779.0824       2979.6344
        48.0004         37.5004
  -1118357.62947   -836776.44144  24114989.8054   24114988.6374       3525.1734
        43.5004         27.2504
  -1052558.59047   -778841.00844  23190374.0234   23190370.9694       3554.7104
        44.7504         28.2504
  -1416793.45747  -1088557.02744  23405686.8134   23405685.7974       4125.8744
        44.2504         28.0004
   -581641.49248   -428310.55946  20863586.9064   20863582.5554       2793.2734
        51.0004         41.0004
   1837103.27046   1428358.69543  25546095.1174   25546095.5044       -478.3204
        40.2504         19.7504
    632597.57848    504213.89847  20491711.2664   20491704.9224       1138.4854
        50.0004         42.5004
   2853611.43446   2433937.83643  25232014.6804   25232017.3134      -2238.7604
        38.7504         19.5004
   -778190.38346   -564768.75844  23968593.2894   23968595.5704       3287.8984
        41.2504         29.2504
   2978811.54347   2305951.69545  22465956.5704   22465954.0474      -1930.2114
        43.5004         33.5004
 14  5 29 17 31 30.0000000  0 11G19G16G07G08G10G03G13G23G32G27G20
    467755.26646    415723.41043  24941294.8834   24941295.8134       4099.0914
        39.5004         22.0004
   1954727.07048   1520462.25046  21511046.2274   21511041.6884       -672.9764
        49.7504         38.2504
   -809773.52347   -600379.42646  22187796.5084   22187793.1604       2975.4484
        47.5004         37.0004
  -1224033.68447   -919121.37144  24094879.9304   24094878.7584       3522.5354
        43.5004         25.7504
  -1158825.36747   -861646.27044  23170151.7584   23170149.3714       3542.2264
        44.5004         28.5004
  -1540468.54347  -1184927.10244  23382151.7814   23382151.2114       4122.5034
        44.2504         28.5004
   -665271.75448   -493476.99646  20847672.8204   20847668.1954       2787.6754
        51.0004         41.0004
    598740.60948    477831.82047  20485268.3134   20485262.3284       1128.5664
        50.0004         42.0004
   2920697.44946   2486212.33243  25244781.1414   25244783.5394      -2236.2014
        40.7504         19.7504
   -876629.13746   -641474.14544  23949861.1334   23949861.4344       3281.2924
        39.7504         28.7504
   3036876.37147   2351196.89145  22477006.5314   22477002.9344      -1935.4944
        44.0004         33.5004
 14  5 29 17 32  0.0000000  0 11G19G16G07G08G10G03G13G23G32G27G20
    344665.02346    319809.19543  24917871.3444   24917872.4384       4103.0084
        38.2504         22.7504
   1975370.35948   1536547.89546  21514974.8134   21514969.6214       -688.1104
        49.5004         38.2504
   -898911.26247   -669837.36346  22170833.9774   22170830.5984       2971.2584
        47.5004         37.7504
  -1329630.00847  -1001404.15244  24074784.9454   24074784.5044       3519.8774
        44.0004         26.7504
  -1264714.72747   -944157.43744  23150001.7504   23149998.9654       3529.6454
        44.2504         29.0004
  -1664038.54347  -1281215.30544  23358636.5474   23358636.1914       4119.0004
        44.5004         28.5004
   -748731.56648   -558510.61346  20831790.7504   20831786.4534       2781.9944
        51.0004         40.5004
    565183.30548    451683.24646  20478882.8524   20478876.7424       1118.5774
        50.7504         41.7504
   2987705.35946   2538425.96843  25257532.9224   25257535.6914      -2233.5974
        39.5004         20.2504
   -974866.19946   -718022.32444  23931167.2194   23931169.0824       3274.5694
        40.5004         27.5004
   3095097.57047   2396563.93845  22488085.6254   22488082.8204      -1940.7074
        44.0004         32.5004
 14  5 29 17 32 30.0000000  0 11G19G16G07G08G10G03G13G23G32G27G20
    221464.72746    223809.24243  24894426.1094   24894428.1564       4106.6774
        40.2504         23.0004
   1996469.60948   1552988.83246  21518989.8594   21518985.4734       -703.3084
        49.7504         38.2504
   -987919.23847   -739194.19146  22153896.2584   22153892.8594       2966.9334
        47.2504         37.5004
  -1435142.37947  -1083621.54744  24054707.1954   24054706.0434       3517.0794
        44.0004         25.7504
  -1370219.98447  -1026369.31644  23129924.4844   23129922.0904       3516.8424
        44.0004         29.2504
  -1787495.55947  -1377415.43444  23335143.7584   23335142.5124       4115.2344
        43.5004         28.5004
   -832014.97348   -623406.77746  20815942.6254   20815938.0704       2776.1144
        51.0004         41.2504
    531931.12948    425772.43847  20472555.0234   20472549.0944       1108.4064
        50.2504         42.0004
   3054637.41846   2590580.58243  25270268.1334   25270273.2234      -2231.0694
        37.0004         20.0004
  -1072894.04746   -794407.54344  23912513.2894   23912513.6914       3267.5954
        41.0004         27.7504
   3153476.85247   2442054.17645  22499194.8364   22499192.0744      -1945.9764
        44.5004         33.5004
 14  5 29 17 33  0.0000000  0 11G19G16G07G08G10G03G13G23G32G27G20
     98159.03946    127727.12543  24870961.9614   24870963.5704       4110.1904
        39.0004         22.7504
   2018024.14548   1569784.54746  21523091.5164   21523086.2384       -718.4854
        49.7504         38.0004
  -1076796.20748   -808448.94146  22136983.6884   22136980.1134       2962.5664
        48.0004         37.5004
  -1540569.37947  -1165772.42244  24034645.0704   24034644.2464       3514.2334
        43.5004         26.5004
  -1475337.62947  -1108279.13744  23109921.8754   23109919.1334       3503.9214
        44.2504         29.5004
  -1910834.68047  -1473523.70344  23311673.2034   23311671.8594       4111.3044
        43.7504         27.7504
   -915118.74648   -688162.96146  20800128.3754   20800124.0314       2770.1264
        51.0004         41.0004
    498986.70348    400101.42247  20466285.9614   20466279.7344       1098.1484
        50.5004         42.7504
   3121492.93046   2642675.52343  25282991.4454   25282995.6094      -2228.5174
        39.0004         20.7504
  -1170708.16846   -870626.18744  23893899.2974   23893900.7934       3260.4714
        41.5004         28.2504
   3212012.83647   2487666.50445  22510334.5314   22510331.3484      -1951.1994
        44.5004         33.2504
 14  5 29 17 33 30.0000000  0 11G19G16G07G08G10G03G13G23G32G27G20
    -25241.52046     31571.08643  24847480.1024   24847480.6564       4113.3524
        38.7504         21.7504
   2040039.51648   1586939.34446  21527281.0704   21527276.0124       -733.8464
        49.0004         37.7504
  -1165534.64847   -877595.74646  22120097.3054   22120093.7194       2957.9484
        47.0004         37.5004
  -1645903.18047  -1247850.66444  24014600.8134   24014599.5784       3511.1274
        44.0004         27.0004
  -1580057.58647  -1189879.08644  23089993.9384   23089991.5704       3490.6654
        44.2504         29.5004
  -2034044.66047  -1569531.37544  23288226.7814   23288226.1484       4106.9994
        43.0004         28.5004
   -998033.34048   -752771.73846  20784350.3364   20784345.5864       2763.8204
        51.5004         41.5004
    466358.94148    374677.16447  20460077.2584   20460070.3674       1087.5924
        51.0004         42.5004
   3188277.83246   2694715.38343  25295699.2734   25295704.6524      -2226.1634
        38.5004         20.5004
  -1268297.94546   -946670.02344  23875329.0164   23875330.2114       3252.9934
        41.0004         28.2504
   3270710.41847   2533404.75845  22521503.5164   22521501.2274      -1956.5864
        44.5004         33.7504
 14  5 29 17 34  0.0000000  0 11G19G16G07G08G10G03G13G23G32G27G20
   -148736.57446    -64658.59443  24823979.5084   24823980.9694       4116.5024
        38.2504         22.7504
   2062509.98848   1604448.77346  21531556.5084   21531552.1804       -749.0164
        48.0004         37.7504
  -1254137.65648   -946637.00846  22103237.0164   22103233.2424       2953.4344
        48.0004         37.5004
  -1751146.72747  -1329858.57444  23994573.4774   23994572.6684       3508.1184
        43.5004         27.2504
  -1684380.38347  -1271169.55144  23070142.1414   23070139.4104       3477.4274
        45.0004         29.5004
  -2157124.89147  -1665437.91844  23264805.2814   23264804.2584       4102.6744
        43.5004         27.7504
  -1080759.70348   -817233.83646  20768607.9304   20768603.5314       2757.5454
        51.5004         41.0004
    434046.51648    349498.62547  20453928.4304   20453922.0634       1077.0814
        50.5004         42.5004
   3254987.00246   2746696.38043  25308395.3444   25308398.8714      -2223.6394
        38.7504         18.5004
  -1365663.08647  -1022538.80144  23856801.1094   23856801.8284       3245.5054
        42.5004         29.2504
   3329564.42247   2579264.88745  22532703.5314   22532700.6454      -1961.8004
        45.0004         32.5004
 14  5 29 17 34 30.0000000  0 11G19G16G07G08G10G03G13G23G32G27G20
   -272320.46146   -160957.49643  24800462.0944   24800463.2734       4119.4634
        37.7504         22.2504
   2085435.90248   1622313.08246  21535919.9694   21535914.7734       -764.1974
        48.5004         38.2504
  -1342602.96947  -1015570.98446  22086401.9304   22086398.8674       2948.8444
        47.5004         37.5004
  -1856297.45347  -1411794.16044  23974564.3754   23974562.8594       3505.0244
        43.5004         27.5004
  -1788301.40647  -1352146.94544  23050366.5704   23050363.9264       3464.0344
        44.0004         29.5004
  -2280069.76247  -1761238.99644  23241409.9534   23241409.0314       4098.1624
        42.7504         28.5004
  -1163293.78148   -881546.10946  20752902.5474   20752897.8524       2751.1364
        51.2504         41.0004
    402052.55548    324568.24247  20447840.1724   20447833.6094       1066.4654
        49.7504         42.0004
   3321620.94146   2798618.59843  25321075.0704   25321078.7194      -2221.1314
        37.5004         20.0004
  -1462798.19946  -1098228.34844  23838316.2584   23838317.7584       3237.8374
        41.5004         29.7504
   3388574.33247   2625246.50445  22543932.8674   22543929.8714      -1966.9974
        45.0004         32.5004
 14  5 29 17 35  0.0000000  0 11G19G16G07G08G10G03G13G23G32G27G20
   -395994.92246   -257327.00443  24776926.7664   24776928.3794       4122.4824
        36.5004         22.2504
   2108809.76248   1640526.43446  21540367.5944   21540362.5744       -779.1294
        48.0004         38.0004
  -1430935.89547  -1084401.80146  22069592.9614   22069589.3914       2944.4314
        47.2504         37.5004
  -1961360.62947  -1493661.52044  23954571.1174   23954569.7544       3502.1064
        44.5004         28.0004
  -1891823.67247  -1432813.62544  23030667.2114   23030664.1994       3450.7424
        45.0004         29.5004
  -2402880.64547  -1856935.66444  23218038.9224   23218038.1684       4093.6964
        42.5004         28.7504
  -1245638.80148   -945711.06246  20737232.6804   20737227.9414       2744.8344
        50.7504         41.0004
    370373.73448    299883.41847  20441811.8594   20441805.3674       1055.9614
        51.7504         42.5004
   3388172.46946   2850476.68843  25333740.0314   25333743.4104      -2218.3844
        40.0004         19.5004
  -1559705.18046  -1173740.15644  23819874.9534   23819876.4304       3230.2334
        40.2504         28.0004
   3447732.51247   2671343.63745  22555190.6564   22555187.8284      -1971.9394
        44.7504         33.0004
 14  5 29 17 35 30.0000000  0 11G19G16G07G08G10G03G13G23G32G27G20
   -519755.25846   -353763.41444  24753375.9224   24753377.3244       4125.3454
        38.0004         25.0004
   2132631.33247   1659088.66446  21544900.7974   21544895.8364       -794.0524
        47.5004         38.0004
  -1519134.66047  -1153128.07046  22052809.2034   22052805.7584       2939.9594
        47.5004         37.5004
  -2066334.27747  -1575459.09844  23934594.9924   23934594.0784       3499.1224
        44.0004         26.0004
  -1994942.96947  -1513166.30145  23011043.4694   23011041.2974       3437.3104
        43.2504         30.0004
  -2525552.43447  -1952523.94544  23194695.2814   23194695.1254       4089.0604
        42.7504         28.0004
  -1327791.08248  -1009725.82446  20721599.7504   20721594.7774       2738.4094
        51.2504         40.5004
    339012.93848    275446.40247  20435844.2344   20435837.7504       1045.3604
        50.7504         42.5004
   3454641.59946   2902270.53243  25346388.9454   25346392.8984      -2215.6384
        38.2504         19.0004
  -1656379.24246  -1249070.46145  23801478.6334   23801480.1334       3222.4694
        41.5004         30.7504
   3507037.89547   2717555.49645  22566476.2114   22566472.9534      -1976.8464
        44.7504         32.2504
 14  5 29 17 36  0.0000000  0 11G19G16G07G08G10G03G13G23G32G27G20
   -643600.44946   -450265.95743  24729809.2814   24729810.8794       4128.1734
        38.5004         22.0004
   2156895.47748   1677995.74646  21549517.6804   21549513.1454       -808.8054
        48.5004         37.7504
  -1607202.04747  -1221751.97346  22036050.5084   22036046.8874       2935.5804
        47.0004         37.7504
  -2171220.62547  -1657188.66044  23914636.3364   23914635.0314       3496.2124
        44.5004         28.5004
  -2097659.33647  -1593205.00844  22991497.3594   22991495.1094       3423.8794
        44.7504         29.7504
  -2648083.73047  -2048002.75844  23171378.5864   23171377.7664       4084.3774
        43.0004         28.5004
  -1409750.74648  -1073590.48846  20706003.3444   20705998.2854       2731.9894
        50.7504         41.0004
    307969.33248    251256.54747  20429936.9454   20429930.3324       1034.7874
        50.2504         42.0004
   3521024.06646   2953996.82843  25359021.4064   25359025.0204      -2212.7494
        38.7504         19.0004
  -1752819.54346  -1324218.60544  23783126.0164   23783127.2074       3214.6774
        40.2504         28.0004
   3566485.73847   2763878.35945  22577788.9144   22577786.1804      -1981.5954
        44.5004         33.0004
 14  5 29 17 36 30.0000000  0 11G19G16G07G08G10G03G13G23G32G27G20
   -767522.42246   -546828.37543  24706227.6564   24706228.5234       4130.7324
        39.2504         23.7504
   2181604.80548   1697249.72746  21554219.7114   21554215.4574       -823.6444
        48.0004         37.5004
  -1695133.07847  -1290269.61346  22019317.6254   22019314.2344       2931.0344
        47.0004         37.0004
  -2276014.95747  -1738846.53544  23894694.2894   23894693.0704       3493.1444
        43.7504         28.0004
  -2199965.84047  -1672924.34444  22972029.6174   22972026.9844       3410.2174
        43.0004         29.7504
  -2770466.16046  -2143365.59444  23148089.7274   23148089.3984       4079.4144
        41.7504         29.2504
  -1491511.34848  -1137300.03946  20690444.6254   20690439.9574       2725.3534
        51.0004         40.7504
    277248.89848    227318.52047  20424090.7814   20424084.2894       1024.0144
        50.0004         42.0004
   3587322.75846   3005657.93042  25371636.9534   25371640.9224      -2209.9564
        36.5004         17.7504
  -1849018.21946  -1399178.46544  23764820.4064   23764822.1484       3206.6234
        41.5004         29.5004
   3626078.17247   2810313.87545  22589127.9304   22589125.9494      -1986.4144
        43.7504         32.0004
 14  5 29 17 37  0.0000000  0 11G19G16G07G08G10G03G13G23G32G27G20
   -891520.12546   -643449.76643  24682631.2974   24682632.3164       4133.2574
        39.0004         22.0004
   2206754.76248   1716847.05946  21559006.1094   21559001.2504       -838.3324
        48.2504         37.5004
  -1782930.43747  -1358683.09846  22002610.0634   22002606.5124       2926.5794
        47.0004         37.0004
  -2380719.48447  -1820434.42244  23874769.8674   23874768.3444       3490.1514
        44.2504         28.0004
  -2301862.62147  -1752324.42244  22952638.8284   22952636.1684       3396.5594
        43.5004         29.5004
  -2892698.74647  -2238611.65244  23124829.8834   23124828.6604       4074.4204
        43.0004         29.5004
  -1573073.33248  -1200854.82446  20674923.8134   20674919.2344       2718.7334
        50.5004         40.7504
    246850.50848    203631.43047  20418306.2034   20418299.6414       1013.2804
        50.5004         42.5004
   3653533.23846   3057250.22743  25384237.5004   25384241.0864      -2207.0164
        36.7504         19.5004
  -1944974.66846  -1473949.59044  23746560.3984   23746562.0084       3198.5484
        41.7504         29.0004
   3685810.24247   2856858.20345  22600495.5474   22600492.7304      -1991.0694
        45.0004         32.7504
 14  5 29 17 37 30.0000000  0 11G19G16G07G08G10G03G13G23G32G27G20
  -1015590.61746   -740127.91043  24659021.1174   24659022.4064       4135.6834
        38.7504         22.5004
   2232342.54748   1736785.54746  21563875.1024   21563870.6764       -852.9264
        48.0004         37.5004
  -1870593.72347  -1426992.12146  21985928.6644   21985925.0634       2922.1104
        47.0004         37.2504
  -2485334.58247  -1901952.62544  23854862.0704   23854860.9104       3487.1704
        44.0004         27.7504
  -2403347.65247  -1831403.65644  22933327.3754   22933324.3014       3382.8344
        45.2504         29.7504
  -3014778.17647  -2333738.38744  23101598.9534   23101597.9024       4069.3144
        42.5004         28.5004
  -1654435.18048  -1264253.65646  20659440.6884   20659436.4264       2712.0624
        50.5004         40.7504
    216774.97348    180195.91447  20412583.1954   20412576.5274       1002.5184
        50.5004         42.0004
   3719653.11745   3108771.94943  25396817.8674   25396823.8754      -2203.9964
        35.5004         19.5004
  -2040686.07047  -1548529.80144  23728347.2584   23728348.8674       3190.3804
        42.5004         28.5004
   3745678.87147   2903508.94145  22611888.2664   22611885.1884      -1995.6214
        43.0004         33.0004
 14  5 29 17 38  0.0000000  0 11G19G16G07G08G10G03G13G23G32G27G20
  -1139732.48046   -836861.66844  24635398.5004   24635398.5314       4138.0624
        39.7504         24.2504
   2258364.33248   1757062.22746  21568827.2274   21568822.3284       -867.3934
        48.0004         37.5004
  -1958125.92647  -1495198.98846  21969271.8914   21969268.3674       2917.7404
        47.5004         37.2504
  -2589861.69547  -1983402.27344  23834971.0234   23834970.0084       3484.2374
        43.7504         28.2504
  -2504420.28547  -1910161.54345  22914093.4144   22914090.5984       3369.0884
        43.7504         30.7504
  -3136702.19547  -2428744.01244  23078397.1954   23078396.0044       4064.1344
        42.2504         29.2504
  -1735596.82048  -1327496.47746  20643996.7974   20643992.0124       2705.3884
        50.5004         40.5004
    187022.19948    157011.90247  20406921.3914   20406915.2704        991.7594
        50.5004         43.0004
   3785679.28946   3160220.66843  25409385.8134   25409388.4414      -2200.8724
        38.2504         19.0004
  -2136150.89147  -1622917.84845  23710180.8134   23710182.2304       3182.1614
        43.0004         30.0004
   3805680.05547   2950262.96545  22623306.0004   22623303.6174      -2000.0394
        44.5004         32.7504
 14  5 29 17 38 30.0000000  0 11G19G16G07G08G10G03G13G23G32G27G20
  -1263935.55946   -933643.15643  24611763.5164   24611763.3054       4140.1034
        40.2504         22.7504
   2284824.28548   1777680.31646  21573862.0634   21573857.1054       -881.9984
        48.7504         37.0004
  -2045520.49647  -1563298.61346  21952640.8834   21952637.5704       2913.1524
        46.7504         37.2504
  -2694294.25047  -2064778.22344  23815097.9844   23815097.1524       3481.0854
        43.7504         27.5004
  -2605071.76247  -1988591.26645  22894940.0004   22894937.1054       3355.0494
        44.5004         30.7504
  -3258460.83247  -2523620.78144  23055227.3754   23055226.1524       4058.6214
        42.0004         29.7504
  -1816549.06248  -1390576.13346  20628591.6334   20628587.2624       2698.4084
        51.2504         40.7504
    157600.11748    134085.57447  20401322.5164   20401316.3634        980.7364
        50.2504         42.0004
   3851616.26245   3211599.96142  25421930.6254   25421935.9694      -2197.8994
        35.0004         16.7504
  -2231359.39546  -1697106.18744  23692062.4844   23692063.5704       3173.6174
        41.2504         28.7504
   3865817.61747   2997123.25845  22634750.0944   22634747.0164      -2004.5854
        43.5004         32.0004
 14  5 29 17 39  0.0000000  0 11G19G16G07G08G10G03G13G23G32G27G20
  -1388199.37546  -1030471.96143  24588116.2424   24588116.3754       4142.1274
        39.5004         22.5004
   2311717.36748   1798635.91446  21578979.8444   21578975.1914       -896.4364
        48.0004         37.2504
  -2132779.77347  -1631292.82846  21936036.1174   21936033.1914       2908.6434
        47.7504         37.2504
  -2798634.65647  -2146082.37544  23795243.3754   23795241.7544       3478.0144
        44.2504         27.7504
  -2705302.34447  -2066693.00445  22875866.9774   22875864.0314       3341.0194
        45.0004         30.0004
  -3380053.27347  -2618368.05144  23032089.1024   23032088.1254       4053.0814
        42.5004         29.7504
  -1897293.03148  -1453493.49646  20613227.1564   20613222.3284       2691.4664
        50.5004         40.7504
    128507.35248    111415.85247  20395786.4144   20395780.0704        969.7594
        50.7504         42.5004
   3917459.73045   3262906.21543  25434460.1804   25434465.5594      -2194.7824
        34.2504         18.5004
  -2326311.19147  -1771094.47744  23673994.2194   23673995.2934       3165.0604
        42.0004         28.2504
   3926086.47347   3044085.85545  22646218.1484   22646216.8594      -2008.9624
        44.5004         32.0004
 14  5 29 17 39 30.0000000  0 11G19G16G07G08G10G03G13G23G32G27G20
  -1512517.29746  -1127342.93444  24564459.4694   24564459.6524       4143.9314
        40.0004         24.7504
   2339044.34848   1819929.62546  21584179.9454   21584175.5594       -910.8994
        48.0004         37.0004
  -2219900.54348  -1699179.09846  21919457.7814   21919453.9414       2904.0264
        48.2504         37.7504
  -2902879.97347  -2227312.43044  23775405.6644   23775404.4734       3474.8444
        43.7504         28.0004
  -2805106.88347  -2144462.77045  22856875.0704   22856872.3754       3326.8184
        45.0004         30.7504
  -3501472.98847  -2712980.71144  23008983.5394   23008982.3524       4047.3244
        43.0004         29.5004
  -1977823.39148  -1516244.41446  20597902.5004   20597897.9264       2684.3454
        50.7504         40.7504
     99747.94948     89005.89847  20390313.8204   20390307.4774        958.6474
        51.0004         42.0004
   3983210.66045   3314140.50442  25446972.8674   25446977.9924      -2191.6984
        35.2504         17.2504
  -2421000.04746  -1844877.88344  23655975.6094   23655976.3324       3156.2954
        41.5004         29.2504
   3986487.25047   3091151.23845  22657712.3284   22657710.6254      -2013.3594
        44.2504         31.5004
 14  5 29 17 40  0.0000000  0 11G19G16G07G08G10G03G13G23G32G27G20
  -1636891.59446  -1224257.81243  24540791.6564   24540791.8094       4145.8104
        39.7504         22.7504
   2366797.16848   1841555.15646  21589461.4304   21589457.0554       -925.0944
        48.0004         37.7504
  -2306888.84847  -1766962.15646  21902904.3134   21902900.6454       2899.6104
        47.5004         37.5004
  -3007035.66447  -2308472.63344  23755585.6334   23755584.6214       3471.8564
        44.2504         28.5004
  -2904488.55547  -2221903.02345  22837963.0394   22837960.2814       3312.7224
        45.0004         31.0004
  -3622721.53946  -2807459.98845  22985910.1254   22985909.3244       4041.6184
        40.5004         30.2504
  -2058143.84848  -1578831.77346  20582617.9774   20582613.2584       2677.3494
        50.5004         40.7504
     71317.99648     66852.64847  20384903.6484   20384897.2584        947.6654
        50.7504         42.7504
   4048861.74646   3365296.96942  25459468.4844   25459471.5944      -2188.3704
        37.7504         15.5004
  -2515428.47747  -1918458.36344  23638006.6884   23638007.0354       3147.6144
        42.0004         28.0004
   4047011.51647   3138312.83245  22669230.7274   22669227.6454      -2017.4764
        44.0004         31.7504
 14  5 29 17 40 30.0000000  0 11G19G16G07G08G10G03G13G23G32G27G20
  -1761313.82846  -1321210.09843  24517114.2274   24517114.7504       4147.4084
        38.7504         23.7504
   2394978.37548   1863514.49646  21594824.0864   21594819.3054       -939.3744
        48.2504         37.0004
  -2393739.71947  -1834638.11746  21886377.1484   21886373.0514       2895.0294
        47.7504         38.0004
  -3111096.98447  -2389559.31644  23735783.3594   23735782.0204       3468.7114
        43.7504         28.2504
  -3003440.52747  -2299008.44545  22819133.2344   22819130.1294       3298.3994
        45.0004         30.2504
  -3743790.63347  -2901799.43044  22962871.4384   22962870.5164       4035.6364
        42.2504         29.5004
  -2138247.68748  -1641250.34446  20567374.4224   20567370.1094       2670.1284
        50.7504         41.0004
     43223.74248     44960.98847  20379557.5394   20379550.9384        936.4754
        50.2504         42.0004
   4114416.02046   3416377.86742  25471942.0704   25471946.3204      -2185.1424
        36.7504         17.2504
  -2609588.44947  -1991829.68444  23620088.2584   23620089.0314       3138.6664
        42.5004         27.5004
   4107661.46947   3185572.37945  22680771.9534   22680769.6294      -2021.6654
        44.0004         31.0004
 14  5 29 17 41  0.0000000  0 10G19G16G07G08G10G03G13G23G27G20
  -1885787.44146  -1418202.38744  24493427.6414   24493427.7504       4149.1204
        39.5004         25.5004
   2423578.92648   1885800.59446  21600266.5634   21600261.5664       -953.3524
        48.0004         37.5004
  -2480460.08648  -1902212.39546  21869874.8524   21869870.8444       2890.6794
        48.0004         37.7504
  -3215070.35247  -2470577.44544  23715997.6804   23715995.7154       3465.7794
        44.5004         27.0004
  -3101967.21947  -2375782.47345  22800384.2974   22800381.6334       3284.2234
        44.5004         31.5004
  -3864683.35947  -2996001.44544  22939866.6804   22939865.4884       4029.7584
        42.5004         29.5004
  -2218139.60948  -1703503.77046  20552171.6884   20552167.3874       2663.0644
        51.0004         41.7504
     15459.40248     23326.41047  20374274.3594   20374268.0704        925.4784
        50.0004         42.0004
  -2703483.62947  -2064994.66844  23602219.9064   23602220.4454       3129.8394
        42.5004         29.0004
   4168428.19547   3232922.92245  22692335.7114   22692333.3164      -2025.5584
        42.5004         30.7504
 14  5 29 17 41 30.0000000  0 10G19G16G07G08G10G03G13G23G27G20
  -2010303.28946  -1515227.57844  24469732.9144   24469733.5984       4150.5284
        40.5004         24.2504
   2452602.35547   1908416.21546  21605789.7034   21605784.8634       -967.4484
        47.0004         37.0004
  -2567044.19148  -1969680.48846  21853398.4304   21853394.5664       2886.1374
        48.0004         38.0004
  -3318949.87147  -2551522.45344  23696230.0314   23696228.6844       3462.6514
        44.0004         28.2504
  -3200060.77747  -2452218.98845  22781717.6024   22781715.0124       3269.7854
        44.2504         31.0004
  -3985390.56247  -3090058.89844  22916896.2734   22916895.2154       4023.5734
        42.2504         29.2504
  -2297811.52348  -1765585.78146  20537010.7504   20537006.1954       2655.7304
        51.7504         41.5004
    -11967.71548      1954.59447  20369054.9454   20369048.4534        914.2374
        50.2504         42.2504
  -2797105.20346  -2137946.43044  23584404.9534   23584404.6294       3120.7194
        41.2504         28.5004
   4229314.48847   3280366.62545  22703922.2114   22703919.5664      -2029.5434
        42.5004         31.5004
 14  5 29 17 42  0.0000000  0 10G19G16G07G08G10G03G13G23G27G20
  -2134860.03546  -1612284.70344  24446030.6954   24446030.8204       4151.8924
        40.7504         24.7504
   2482044.19947   1931357.86346  21611391.8444   21611387.5004       -981.3954
        47.7504         37.2504
  -2653494.28548  -2037044.16446  21836947.2194   21836943.6884       2881.6704
        48.2504         38.5004
  -3422737.46147  -2632395.84044  23676480.0554   23676478.6214       3459.5864
        44.0004         29.0004
  -3297721.03147  -2528317.87145  22763132.8284   22763130.2734       3255.3424
        44.7504         31.5004
  -4105910.18747  -3183970.19944  22893962.6254   22893961.3914       4017.3214
        43.5004         29.2504
  -2377263.85248  -1827496.68046  20521891.6644   20521886.2854       2648.4114
        51.0004         41.7504
    -39058.87148    -19155.42647  20363899.8284   20363892.9384        903.0394
