     2.11           OBSERVATION DATA    G (GPS)             RINEX VERSION / TYPE
teqc  2019Feb25     K Rivera            20250820 06:54:44UTCPGM / RUN BY / DATE
Linux 2.6.32-573.12.1.x86_64|x86_64|gcc -static|Linux 64|=+ COMMENT
teqc  2019Feb25                         20250820 06:52:53UTCCOMMENT
BIT 2 OF LLI FLAGS DATA COLLECTED UNDER A/S CONDITION       COMMENT
V511                                                        MARKER NAME
                                                            MARKER NUMBER
Katie Baraggiotta   University of California, Riverside     OBSERVER / AGENCY
0220413516          TRIMBLE R7          2.32                REC # / TYPE / VERS
1441040465          TRM57971.00                             ANT # / TYPE
 -2413170.2188 -4564294.3121  3734411.5108                  APPROX POSITION XYZ
        1.1763        0.0000        0.0000                  ANTENNA: DELTA H/E/N
     1     1                                                WAVELENGTH FACT L1/2
     7    L1    L2    C1    P1    P2    S1    S2            # / TYPES OF OBSERV
    18                                                      LEAP SECONDS
 SNR is mapped to RINEX snr flag value [0-9]                COMMENT
  L1 & L2: min(max(int(snr_dBHz/6), 0), 9)                  COMMENT
  2025     8     7     0    43   30.0000000     GPS         TIME OF FIRST OBS
                                                            END OF HEADER
 25  8  7  0 43 30.0000000  0  7G01G03G04G09G16G26G31
     10948.98456      5410.88753  24154572.3284                   24154575.5514
        38.2504         19.5004
    -49205.28558    -30601.74258  20133192.7664                   20133191.6174
        48.0004         50.2504
   -124957.83257    -77557.75856  20568235.0784                   20568232.5394
        45.5004         38.2504
   -171485.59857   -108026.23056  22515059.2274                   22515058.6994
        44.2504         41.5004
   -153824.50057    -99444.34055  21160927.6564                   21160924.0004
        44.5004         35.0004
    -50784.54357    -31567.35257  21661051.8364                   21661051.3594
        45.5004         43.5004
     14129.40657      8554.45756  22925324.5234                   22925321.8674
        43.2504         39.0004
 25  8  7  0 44  0.0000000  0  9G01G03G04G06G07G09G16G26G31
     19878.62546     12368.74642  24156272.4694                   24156275.9574
        38.0004         17.7504
    -94418.19547    -65832.63348  20124589.0704                   20124587.5274
        47.0004         50.5004
   -238906.03547   -166348.58246  20546551.8284                   20546548.7464
        46.0004         38.5004
   -190743.02756   -116184.00855  24398287.3984                   24398288.5004
        39.7504         34.5004
   -325387.30956   -189980.17655  24242948.1724                   24242948.2464
        40.5004         31.5004
   -331389.50047   -232626.61746  22484630.8204                   22484629.5634
        43.7504         40.5004
   -294301.33247   -208906.76245  21134195.5234                   21134191.8914
        45.5004         34.5004
    -97382.69547    -67877.62547  21652184.5704                   21652183.9964
        44.5004         43.2504
     25621.66447     17509.38746  22927511.6334                   22927508.0744
        45.2504         40.0004
 25  8  7  0 44 30.0000000  0  9G01G03G04G06G07G09G16G26G31
     28302.40646     18932.39143  24157875.3984                   24157879.0394
        38.0004         19.5004
   -139555.35247   -101004.49648  20116000.2734                   20115998.6254
        47.0004         50.7504
   -353141.39547   -255363.16446  20524813.3054                   20524810.8594
        46.5004         39.0004
   -288007.68746   -191974.68445  24379778.5314                   24379779.8524
        39.0004         33.7504
   -487765.63746   -316508.49645  24212048.0784                   24212048.5864
        40.2504         32.2504
   -491715.37547   -357555.85546  22454121.4614                   22454120.0554
        43.7504         40.5004
   -434705.19947   -318312.32845  21107478.1564                   21107474.2624
        46.5004         34.5004
   -143880.31247   -104109.55147  21643336.3524                   21643336.2504
        44.2504         43.7504
     36723.47747     26160.08246  22929624.9844                   22929621.3754
        45.0004         39.2504
 25  8  7  0 45  0.0000000  0  9G01G03G04G06G07G09G16G26G31
     36349.89546     25202.87143  24159407.6954                   24159410.4224
        39.7504         20.5004
   -184485.16448   -136014.79348  20107450.1334                   20107448.8014
        49.0004         50.5004
   -467530.69947   -344497.68746  20503046.1724                   20503042.7934
        46.0004         38.5004
   -385092.12946   -267624.94145  24361304.1094                   24361305.2584
        39.0004         33.2504
   -650314.67646   -443169.85545  24181115.4454                   24181116.0824
        40.0004         32.5004
   -652330.14147   -482710.17646  22423557.7034                   22423556.2234
        43.7504         41.0004
   -574901.28947   -427555.99245  21080799.4454                   21080795.7584
        46.2504         35.5004
   -190146.48047   -140161.13747  21634532.1334                   21634531.7814
        46.0004         43.5004
     47565.50447     34608.34446  22931687.3674                   22931684.8954
        44.5004         39.7504
 25  8  7  0 45 30.0000000  0  9G01G03G04G06G07G09G16G26G31
     44061.82846     31211.80143  24160874.7974                   24160878.9534
        39.0004         20.0004
   -229165.00048   -170830.30148  20098947.4694                   20098946.7344
        50.0004         51.7504
   -582029.60248   -433717.64846  20481257.8674                   20481254.3164
        48.2504         39.5004
   -481953.01646   -343100.96945  24342871.9304                   24342873.1134
        39.2504         32.5004
   -812990.39146   -569929.93445  24150159.1334                   24150159.7814
        39.2504         33.5004
   -813189.44547   -608055.05146  22392947.5704                   22392945.9694
        43.5004         39.5004
   -714843.72747   -536602.00445  21054169.0474                   21054165.7194
        46.2504         33.7504
   -236139.11347   -175999.58246  21625781.1094                   21625779.9614
        45.0004         40.5004
     58188.90647     42886.24246  22933710.2974                   22933706.7664
        45.0004         37.0004
 25  8  7  0 46  0.0000000  0  9G01G03G04G06G07G09G16G26G31
     51464.39146     36979.72743  24162283.8524                   24162288.0084
        38.2504         19.7504
   -273566.62147   -205429.00848  20090498.3754                   20090497.3524
        47.5004         50.5004
   -696608.19547   -522999.64846  20459454.0394                   20459450.9304
        47.0004         38.0004
   -578561.34446   -418380.22345  24324488.1334                   24324489.3484
        39.5004         33.5004
   -975763.28146   -696765.73044  24119184.3054                   24119184.6054
        37.0004         26.7504
   -974263.51647   -733567.30546  22362296.7894                   22362294.8054
        44.0004         40.5004
   -854500.91047   -645425.73845  21027593.3984                   21027589.4414
        46.2504         34.5004
   -281830.45747   -211603.23447  21617085.3674                   21617085.0514
        44.2504         43.5004
     68620.73447     51014.87146  22935694.1884                   22935690.9304
        44.5004         39.2504
 25  8  7  0 46 30.0000000  0  9G01G03G04G06G07G09G16G26G31
   1634001.68846   1270125.37543  24463431.2344                   24463434.7814
        39.5004         20.7504
   1257757.66448    987810.65248  20381899.7114                   20381898.6174
        48.2504         50.5004
    764185.31347    615281.00046  20737433.6954                   20737430.7074
        46.2504         39.0004
    900532.87946    734160.71545  24605950.6804                   24605951.9574
        40.0004         35.0004
    436822.64856    425098.44155  24387989.7424                   24387989.7934
        38.7504         31.5004
    439900.98447    368379.10546  22631402.5474                   22631401.1764
        43.2504         41.5004
    581581.49247    473599.55945  21300870.3594                   21300866.6174
        46.5004         35.2504
   1248226.50047    980648.93447  21908244.8834                   21908245.2194
        44.7504         43.0004
   1654306.28947   1286613.92246  23237441.0634                   23237436.9104
        44.7504         39.2504
 25  8  7  0 47  0.0000000  0  9G01G03G04G06G07G09G16G26G31
   1640850.83246   1275462.03543  24464734.1644                   24464738.7274
        40.5004         22.0004
   1213983.46548    953700.84048  20373569.8834                   20373568.4924
        49.0004         50.5004
    649523.58647    525934.19546  20715614.2344                   20715611.3554
        46.0004         38.7504
    804502.45746    659331.79745  24587675.5864                   24587677.8914
        39.5004         34.0004
    273930.36746    298169.60545  24356992.7194                   24356992.1024
        41.5004         31.7504
    278473.50847    242591.50446  22600683.8594                   22600682.9344
        42.5004         41.2504
    442576.04347    365283.66045  21274418.4924                   21274414.3134
        46.7504         34.5004
   1203206.82447    945568.64547  21899679.2664                   21899677.8754
        47.2504         43.5004
   1664423.58247   1294497.45746  23239365.7424                   23239363.0044
        44.7504         37.7504
 25  8  7  0 47 30.0000000  0  9G01G03G04G06G07G09G16G26G31
   1647444.33246   1280599.54343  24465989.2894                   24465993.2504
        41.2504         22.5004
   1170546.98348    919854.18148  20365304.5164                   20365302.7584
        49.5004         50.5004
    534846.89547    436575.74246  20693792.1804                   20693789.1334
        46.7504         39.0004
    708786.03546    584747.55145  24569462.4774                   24569463.5434
        40.2504         34.0004
    111004.88346    171214.86345  24325988.4144                   24325988.5204
        41.5004         33.0004
    116895.91847    116686.92646  22569935.7114                   22569935.3874
        43.0004         41.5004
    303925.59447    257244.39145  21248033.9454                   21248030.6134
        46.5004         35.2504
   1158546.11747    910768.08247  21891180.1804                   21891179.6954
        47.0004         43.2504
   1674405.88347   1302275.80146  23241265.4844                   23241262.3364
        45.2504         39.0004
 25  8  7  0 48  0.0000000  0  9G01G03G04G06G07G09G16G26G31
   1653793.06346   1285546.25844  24467198.2664                   24467201.9694
        41.5004         24.2504
   1127460.77347    886280.47348  20357105.3444                   20357104.2154
        47.5004         50.5004
    420169.71947    347216.90246  20671969.6174                   20671966.7274
        46.5004         38.7504
    613396.87146    510418.31645  24551310.6644                   24551311.4384
        40.0004         34.2504
    -51940.17246     44244.90645  24294981.5004                   24294981.0864
        39.5004         30.2504
    -44817.43047     -9323.41846  22539163.0704                   22539162.5784
        43.5004         40.7504
    165645.69947    149493.87545  21221720.0474                   21221716.6374
        45.7504         35.5004
   1114256.48047    876256.66447  21882752.2664                   21882751.4144
        44.5004         43.2504
   1684265.14847   1309958.29746  23243141.5164                   23243137.8524
        44.5004         38.7504
 25  8  7  0 48 30.0000000  0  9G01G03G04G06G07G09G16G26G31
   1659905.57846   1290308.93044  24468361.7584                   24468364.8444
        40.5004         24.0004
   1084735.28148    852987.84848  20348974.7894                   20348973.9024
        49.0004         50.5004
    305504.27347    257867.21946  20650149.9224                   20650146.8094
        46.5004         38.0004
    518346.05546    436352.73845  24533222.6954                   24533224.1294
        40.0004         34.7504
   -214893.15646    -82731.27045  24263972.0164                   24263972.7584
        40.0004         31.7504
   -206654.38747   -135430.07446  22508366.8984                   22508366.0944
        43.5004         41.5004
     27750.41047     42043.05145  21195479.7504                   21195476.2274
        46.2504         35.5004
   1070347.71147    842042.02047  21874396.3284                   21874396.0434
        46.0004         43.0004
   1694010.60547   1317552.07846  23244996.6174                   23244993.4574
        43.5004         38.5004
 25  8  7  0 49  0.0000000  0  9G01G03G04G06G07G09G16G26G31
   1665787.49246   1294891.86743  24469480.9774                   24469485.1334
        41.0004         23.0004
   1042377.96148    819982.09848  20340914.5004                   20340913.6484
        48.0004         50.5004
    190859.85247    168533.91446  20628333.2114                   20628330.1994
        47.0004         38.2504
    423641.71546    362557.14845  24515201.5314                   24515202.2384
        39.7504         34.7504
   -377844.68046   -209706.31245  24232963.6484                   24232962.5704
        41.7504         31.5004
   -368605.64847   -261625.81246  22477548.9924                   22477547.4924
        44.5004         41.5004
   -109749.82447    -65099.94946  21169314.3524                   21169310.8244
        46.5004         36.2504
   1026826.66847    808129.51647  21866115.2344                   21866113.8914
        45.2504         42.7504
   1703648.65247   1325062.14546  23246830.5554                   23246826.7384
        44.0004         38.0004
 25  8  7  0 49 30.0000000  0  9G01G03G04G06G07G09G16G26G31
   1671444.56646   1299299.60944  24470558.1724                   24470562.0004
        40.5004         25.5004
   1000396.23848    787269.03148  20332925.5634                   20332924.5784
        48.7504         50.5004
     76245.84847     79224.30546  20606522.5084                   20606519.8324
        46.5004         38.5004
    329291.94546    289037.81645  24497247.1644                   24497248.2504
        40.2504         34.5004
   -540785.87946   -336673.27745  24201957.1724                   24201956.7344
        40.7504         34.5004
   -530661.94547   -387903.37546  22446710.2664                   22446709.1914
        44.5004         41.5004
   -246844.00047   -171926.53945  21143226.1484                   21143222.3054
        47.5004         35.5004
    983700.23847    774524.50847  21857907.2424                   21857907.3324
        46.5004         42.5004
   1713186.18847   1332493.96146  23248644.9774                   23248641.8364
        44.5004         37.5004
 25  8  7  0 50  0.0000000  0  9G01G03G04G06G07G09G16G26G31
   1676883.56346   1303537.41843  24471592.8524                   24471597.1804
        40.2504         23.0004
    958798.68448    754855.31648  20325009.9774                   20325008.9224
        48.2504         50.5004
    -38327.32047    -10053.47746  20584720.0314                   20584717.3284
        46.5004         38.2504
    235305.97346    215801.98445  24479362.3524                   24479363.0234
        39.7504         34.7504
   -703706.87546   -463624.55545  24170953.1954                   24170952.1294
        39.7504         31.5004
   -692812.77347   -514254.59447  22415854.8284                   22415853.2194
        44.0004         42.0004
   -383519.93447   -278427.21946  21117217.6484                   21117213.7734
        47.2504         36.0004
    940976.45347    741233.23447  21849777.1414                   21849777.5554
        45.7504         42.7504
   1722630.84047   1339853.36346  23250442.5784                   23250438.8524
        44.0004         36.7504
 25  8  7  0 50 30.0000000  0  9G01G03G04G06G07G09G16G26G31
   1682107.09046   1307607.35544  24472587.6174                   24472591.9654
        41.2504         24.0004
    917589.49248    722744.21148  20317168.2344                   20317167.2464
        48.7504         50.5004
   -152853.46547    -99294.61746  20562926.8674                   20562923.5784
        47.0004         38.5004
    141688.64846    142853.40646  24461547.4614                   24461548.0634
        41.5004         36.0004
   -866602.11346   -590555.72345  24139954.8364                   24139955.5514
        39.0004         31.5004
   -855052.09847   -640674.78946  22384980.0084                   22384979.4304
        43.7504         41.5004
   -519770.41447   -384596.37545  21091289.4064                   21091285.8714
        47.2504         35.5004
    898658.93447    708258.52747  21841724.5164                   21841724.6684
        46.2504         42.5004
   1731986.28947   1347143.28946  23252222.1884                   23252219.6334
        43.0004         37.5004
 25  8  7  0 51  0.0000000  0  9G01G03G04G06G07G09G16G26G31
   1687117.85946   1311511.51643  24473540.6254                   24473545.5744
        39.5004         22.5004
    876773.21148    690939.28548  20309400.9924                   20309399.7774
        48.7504         50.2504
   -267326.08647   -188494.04746  20541143.1334                   20541139.9654
        47.5004         38.5004
     48445.21146     70196.18845  24443803.2664                   24443804.7814
        38.5004         34.5004
  -1029465.51646   -717462.14145  24108963.0314                   24108963.6254
        39.7504         33.0004
  -1017373.36347   -767158.81246  22354091.4844                   22354090.8364
        43.7504         41.7504
   -655587.42647   -490427.77746  21065444.6414                   21065441.4344
        47.5004         36.0004
    856751.59847    675603.45347  21833750.3984                   21833749.8444
        46.2504         42.7504
   1741255.75047   1354366.18046  23253986.7424                   23253984.5434
        42.5004         36.5004
 25  8  7  0 51 30.0000000  0  9G01G03G04G06G07G09G16G26G31
   1691921.51646   1315254.27743  24474455.7894                   24474459.9654
        37.0004         20.5004
    836357.03547    659446.12548  20301709.9844                   20301708.9304
        47.0004         50.2504
   -381736.03547   -277644.64546  20519371.7194                   20519368.7464
        46.5004         38.0004
    -44416.54346     -2163.64145  24426132.9614                   24426133.7974
        38.7504         34.5004
  -1192288.17646   -844336.76245  24077979.0944                   24077978.3054
        39.7504         30.5004
  -1179767.51646   -893699.63746  22323189.3754                   22323187.9224
        41.7504         41.7504
   -790960.64147   -595913.34046  21039684.2344                   21039680.1174
        47.0004         36.5004
    815261.11747    643273.20747  21825855.2344                   21825854.7074
        44.0004         42.7504
   1750445.85947   1361527.23046  23255735.3834                   23255733.1844
        42.0004         37.0004
 25  8  7  0 52  0.0000000  0  9G01G03G04G06G07G09G16G26G31
   1696520.16445   1318837.25443  24475329.6254                   24475335.5824
        33.5004         19.5004
    796344.61747    628267.57448  20294096.1724                   20294095.1724
        47.0004         50.2504
   -496077.51647   -366741.89146  20497613.6564                   20497610.6094
        47.0004         38.7504
   -136892.23846    -74222.61345  24408535.5164                   24408536.0824
        40.0004         34.7504
  -1355064.85246   -971175.56645  24047003.2894                   24047003.9804
        39.0004         32.5004
  -1342228.83647  -1020292.79347  22292273.7814                   22292272.2464
        43.7504         42.0004
   -925882.99247   -701047.59046  21014009.0474                   21014004.9734
        47.2504         36.5004
    774190.64547    611270.22347  21818039.7274                   21818039.0904
        44.0004         42.7504
   1759559.85547   1368628.99246  23257469.7894                   23257467.8674
        42.5004         36.5004
 25  8  7  0 52 30.0000000  0  9G01G03G04G06G07G09G16G26G31
                                  24476166.6414                   24476171.6334
        31.5004         17.7504
    756737.99648    597405.24248  20286559.2344                   20286557.9304
        48.5004         50.0004
   -610346.57047   -455782.70746  20475868.9384                   20475865.9384
        47.0004         38.2504
   -228979.23046   -145978.71945  24391011.9224                   24391012.7304
        40.0004         35.5004
  -1517792.07846  -1097975.85545  24016038.3444                   24016037.5394
        41.5004         33.7504
  -1504753.28947  -1146935.12947  22261346.1334                   22261345.3834
        43.0004         42.0004
  -1060349.13347   -805826.34845  20988420.9534                   20988417.2894
        47.0004         35.5004
    733541.53947    579595.58647  21810304.0234                   21810304.0234
        45.7504         42.7504
   1768598.95347   1375672.36746  23259190.2974                   23259187.9494
        42.5004         36.7504
 25  8  7  0 53  0.0000000  0  9G01G03G04G06G07G09G16G26G31
                                  24476964.1174                   24476970.8954
        31.2504         17.2504
    717544.30947    566864.66448  20279100.8284                   20279099.6764
        47.0004         50.0004
   -724533.92247   -544759.85546  20454139.3914                   20454136.5634
        46.2504         38.5004
   -320669.74246   -217425.85945  24373563.6804                   24373564.6724
        41.0004         35.0004
  -1680461.21946  -1224730.81645  23985083.3984                   23985081.9654
        41.2504         33.5004
  -1667331.64847  -1273619.49247  22230408.1024                   22230407.1764
        43.5004         42.2504
  -1194348.50447   -910241.38746  20962921.9304                   20962917.8634
        46.2504         36.2504
    693320.40647    548254.43447  21802650.4064                   21802650.1564
        44.2504         42.7504
   1777569.62147   1382662.43846  23260897.0634                   23260894.5124
        42.5004         36.0004
 25  8  7  0 53 30.0000000  0  9G01G03G04G06G07G09G16G26G31
   1709107.03545   1328643.91043  24477725.9844                   24477732.1604
        35.0004         19.7504
    678766.92248    536648.47748  20271721.8204                   20271720.8204
        48.5004         50.2504
   -838634.08247   -633669.06246  20432427.6174                   20432423.8404
        46.5004         39.2504
   -411959.64846   -288560.83645  24356191.3204                   24356192.5434
        39.5004         35.2504
  -1843067.19946  -1351436.55945  23954139.3054                   23954139.1994
        40.7504         32.0004
  -1829958.44547  -1400341.59047  22199461.8134                   22199460.2624
        44.5004         42.5004
  -1327874.40247  -1014287.49646  20937512.3834                   20937508.3364
        47.0004         36.0004
    653530.13347    517249.02047  21795078.9844                   21795078.1484
        45.7504         43.0004
   1786474.55147   1389601.30546  23262591.3834                   23262589.7384
        42.5004         36.7504
 25  8  7  0 54  0.0000000  0  9G01G03G04G06G07G09G16G26G31
   1712906.53546   1331604.17243  24478449.1564                   24478455.6884
        37.0004         20.0004
    640406.23448    506756.98448  20264422.0314                   20264420.9024
        49.0004         50.0004
   -952644.57047   -722508.39846  20410731.4614                   20410728.3444
        46.7504         39.0004
   -502848.05146   -359382.94745  24338896.1334                   24338897.3244
        38.7504         35.2504
  -2005608.05146  -1478091.60945  23923208.3134                   23923209.0704
        38.2504         32.2504
  -1992631.23047  -1527099.54347  22168506.5394                   22168505.2774
        44.0004         42.0004
  -1460923.31247  -1117961.91846  20912193.8914                   20912189.9064
        47.5004         36.0004
    614170.48447    486579.15247  21787588.9924                   21787588.6844
        45.5004         42.7504
   1795313.72747   1396488.91845  23264273.3524                   23264271.9804
        42.5004         34.7504
 25  8  7  0 54 30.0000000  0  9G01G03G04G06G07G09G16G26G31
   1716515.12546   1334415.65643  24479136.6174                   24479142.3484
        37.7504         20.2504
    602471.11747    477197.12148  20257203.5004                   20257202.2074
        47.5004         50.0004
  -1066554.28947   -811269.21146  20389055.2974                   20389052.0394
        47.2504         39.0004
   -593325.28146   -429884.68445  24321678.6334                   24321679.6094
        40.2504         35.2504
  -2168073.42646  -1604687.92645  23892291.9844                   23892290.2504
        40.2504         30.0004
  -2155338.89847  -1653884.67647  22137543.1954                   22137543.2894
        44.2504         42.7504
  -1593482.80148  -1221254.98046  20886968.6334                   20886964.9844
        48.0004         36.5004
    575249.82447    456251.35547  21780182.2504                   21780181.8444
        44.2504         42.5004
   1804095.48446   1403331.80145  23265944.5394                   23265943.0004
        41.5004         35.5004
 25  8  7  0 55  0.0000000  0  9G01G03G04G06G07G09G16G26G31
   1719937.93046   1337082.39543  24479788.5944                   24479794.1414
        38.0004         18.2504
    564968.11348    447973.96948  20250066.8834                   20250065.6564
        48.7504         49.5004
  -1180354.59847   -899944.76646  20367399.3054                   20367396.4144
        47.0004         39.0004
   -683384.29346   -500060.55945  24304541.1564                   24304541.6334
        39.7504         34.7504
  -2330455.23047  -1731218.93445  23861391.7584                   23861391.7704
        42.0004         31.5004
  -2318072.87947  -1780690.30547  22106576.6094                   22106575.4384
        44.2504         42.7504
  -1725543.07447  -1324159.03946  20861838.1484                   20861834.7544
        47.2504         36.5004
    536774.07047    426270.24647  21772860.8914                   21772860.4384
        45.5004         42.5004
   1812825.82847   1410134.62946  23267606.8594                   23267604.0084
        43.7504         36.5004
 25  8  7  0 55 30.0000000  0  9G01G03G04G06G07G09G16G26G31
   3298595.64146   2567204.89842  24780197.3914                   24780203.1254
        37.7504         16.2504
   2103320.69948   1646690.22348  20542805.6884                   20542804.3284
        49.0004         49.5004
    281382.79747    239071.39546  20645559.4454                   20645555.8524
        46.7504         39.0004
    802400.85546    657694.11345  24587277.0394                   24587277.9454
        40.2504         34.7504
   -917323.87547   -630077.46945  24130301.9924                   24130302.8984
        42.0004         34.7504
   -905403.18047   -679908.65647  22375398.3594                   22375397.1524
        44.5004         42.5004
   -281674.45747   -199066.55946  21136597.6884                   21136593.6094
        47.0004         36.5004
   2074166.23847   1624238.14847  22065417.1024                   22065416.4384
        46.0004         42.5004
   3396926.18047   2644498.49646  23569050.9224                   23569048.7544
        44.5004         36.5004
 25  8  7  0 56  0.0000000  0  9G01G03G04G06G07G09G16G26G31
   3301649.96946   2569584.55542  24780778.9924                   24780785.3164
        37.7504         15.5004
   2066689.10548   1618146.08248  20535834.9774                   20535833.6134
        49.2504         49.5004
    167815.21147    150577.18046  20623948.1414                   20623944.8674
        47.0004         38.5004
    713187.59446    588177.27045  24570299.3284                   24570300.4104
        39.5004         34.7504
  -1079526.05946   -756468.66445  24099435.7664                   24099434.0554
        41.2504         32.0004
  -1068175.73047   -806744.35247  22344423.8284                   22344422.2544
        44.0004         42.7504
   -412719.43047   -301179.47746  21111660.6724                   21111656.8404
        47.2504         37.2504
   2036585.85547   1594954.74247  22058264.8204                   22058264.6684
        45.2504         42.2504
   3405559.30147   2651225.57846  23570692.9304                   23570691.9064
        42.0004         36.7504
 25  8  7  0 56 30.0000000  0  9G01G03G04G06G07G09G16G26G31
   3304516.81646   2571818.16842  24781325.0394                   24781330.8984
        36.2504         14.7504
   2030492.00848   1589940.51648  20528946.5864                   20528945.0864
        48.0004         49.5004
     54366.19547     62175.35546  20602359.2974                   20602356.2854
        47.0004         39.0004
    624396.87146    518989.71945  24553403.8594                   24553404.8524
        40.5004         34.5004
  -1241637.16047   -882788.78545  24068586.9774                   24068585.0904
        42.5004         32.2504
  -1230965.41047   -933593.39147  22313446.0084                   22313444.4924
        44.2504         43.0004
   -543252.96547   -402893.87546  21086820.4304                   21086816.8554
        46.5004         36.5004
   1999451.19947   1566018.63347  22051198.5084                   22051198.5004
        45.0004         42.5004
   3414142.05946   2657913.39146  23572326.6094                   23572324.5864
        41.2504         36.5004
 25  8  7  0 57  0.0000000  0  9G01G03G04G06G07G09G16G26G31
   3307196.30946   2573905.65642  24781835.2584                   24781841.2424
        36.7504         16.7504
   1994730.93848   1562074.71948  20522141.7664                   20522140.8364
        49.0004         49.5004
    -58960.45747    -26131.12546  20580794.0314                   20580790.6374
        47.2504         39.2504
    536030.94146    450133.15245  24536588.3364                   24536589.1214
        38.5004         34.5004
  -1403654.03947  -1009035.50046  24037757.3204                   24037755.7114
        45.0004         36.5004
  -1393768.39547  -1060452.80547  22282465.4224                   22282464.0314
        44.5004         43.0004
   -673270.20347   -504205.94946  21062079.2424                   21062075.6764
        46.7504         37.2504
   1962763.16847   1537430.53147  22044217.8914                   22044217.1994
        46.2504         42.2504
   3422675.82847   2664563.03146  23573951.1334                   23573949.3204
        43.2504         37.2504
 25  8  7  0 57 30.0000000  0  9G01G03G04G06G07G09G16G26G31
   3309691.63346   2575849.70343  24782310.4224                   24782315.9024
        37.7504         19.0004
   1959410.29748   1534552.10248  20515420.5634                   20515419.1414
        49.0004         49.5004
   -172158.04347   -114337.02746  20559252.9144                   20559249.6334
        46.7504         38.5004
    448094.79346    381611.47745  24519855.0004                   24519855.2114
        39.2504         34.5004
  -1565570.61747  -1135204.08646  24006945.0554                   24006943.9184
        45.5004         36.0004
  -1556577.96147  -1187317.35947  22251483.6644                   22251482.3914
        45.0004         43.0004
   -802763.37947   -605109.67646  21037437.7194                   21037433.4454
        46.2504         37.0004
   1926525.64847   1509193.49647  22037322.2114                   22037321.5904
        46.2504         42.0004
   3431164.14847   2671177.28546  23575566.3984                   23575563.7894
        44.2504         37.2504
 25  8  7  0 58  0.0000000  0  9G01G03G04G06G07G09G16G26G31
   3312002.03146   2577649.62143  24782750.3674                   24782755.4264
        39.0004         20.2504
   1924530.56348   1507373.05148  20508783.2194                   20508781.9494
        49.0004         49.2504
   -285223.76247   -202440.17646  20537737.5004                   20537734.1724
        46.7504         38.7504
    360589.55146    313425.59845  24503202.8284                   24503203.6454
        40.5004         35.0004
  -1727384.71147  -1261292.82445  23976152.3444                   23976150.1994
        44.2504         34.5004
  -1719391.30947  -1314184.84847  22220501.4384                   22220500.2074
        45.7504         43.0004
   -931729.01247   -705602.33246  21012896.2424                   21012892.0984
        47.7504         37.7504
   1890738.58647   1481307.47347  22030511.5084                   22030511.2424
        45.5004         42.2504
   3439607.33247   2677756.36346  23577173.2734                   23577169.7894
        43.7504         36.7504
 25  8  7  0 58 30.0000000  0  9G01G03G04G06G07G09G16G26G31
   3314126.57446   2579304.70743  24783154.4064                   24783160.4884
        39.2504         22.0004
   1890092.09448   1480537.84048  20502229.6094                   20502228.3714
        48.2504         49.2504
   -398154.90247   -290438.45346  20516247.2274                   20516244.3754
        46.7504         39.0004
    273516.20346    245576.21145  24486633.1484                   24486634.1294
        40.7504         35.2504
  -1889094.21547  -1387300.02045  23945379.4304                   23945377.6334
        43.0004         34.0004
  -1882205.69547  -1441053.16447  22189519.1884                   22189517.6604
        45.7504         43.2504
  -1060163.51247   -805681.10946  20988455.8524                   20988451.8834
        47.0004         36.5004
   1855401.77047   1453772.27047  22023787.2584                   22023786.7814
        45.5004         42.0004
   3448005.61747   2684300.44146  23578770.6414                   23578767.4734
        44.0004         36.7504
 25  8  7  0 59  0.0000000  0  9G01G03G04G06G07G09G16G26G31
   3316066.12546   2580815.67243  24783523.6954                   24783530.2344
        39.5004         22.0004
   1856096.94947   1454048.08248  20495760.5004                   20495759.7894
        47.7504         49.2504
   -510947.04347   -378328.43046  20494783.9614                   20494780.1804
        47.7504         39.0004
    186877.42646    178065.48045  24470146.6954                   24470147.4884
        39.5004         34.7504
  -2050695.44947  -1513222.90245  23914627.4694                   23914627.7854
        43.2504         35.5004
  -2045016.64847  -1567918.80147  22158536.5004                   22158535.7584
        45.5004         43.2504
  -1188061.14847   -905341.55946  20964117.5314                   20964113.6024
        46.0004         37.0004
   1820516.71947   1426589.10547  22017149.1254                   22017148.4024
        45.0004         42.0004
   3456360.87147   2690810.94146  23580360.5634                   23580357.5784
        42.5004         36.0004
 25  8  7  0 59 30.0000000  0  9G01G03G04G06G07G09G16G26G31
   3317820.35846   2582182.20443  24783857.7894                   24783864.2194
        40.0004         22.5004
   1822545.97347   1427904.43048  20489376.4614                   20489374.9344
        47.0004         49.2504
   -623596.87547   -466107.51646  20473347.2424                   20473344.4064
        47.0004         39.0004
    100674.72346    110894.54345  24453742.4224                   24453743.4344
        37.7504         35.5004
  -2212185.89147  -1639059.47345  23883896.7894                   23883896.0554
        43.5004         35.5004
  -2207820.84847  -1694779.17647  22127555.5634                   22127555.0904
        45.5004         43.5004
  -1315418.09047  -1004580.68046  20939882.4144                   20939878.7424
        46.7504         37.5004
   1786083.80147   1399758.24246  22010596.7584                   22010595.9884
        43.2504         41.5004
   3464673.56347   2697288.26646  23581943.1334                   23581939.5744
        43.5004         36.0004
 25  8  7  1  0  0.0000000  0  9G01G03G04G06G07G09G16G26G31
   3319389.89546   2583404.83243  24784156.8134                   24784162.9804
        39.0004         21.7504
   1789440.89848   1402108.23048  20483076.5084                   20483075.1374
        48.0004         49.5004
   -736100.24647   -553772.47746  20451938.5474                   20451935.5004
        47.2504         39.0004
     14910.41046     44065.21545  24437422.2194                   24437423.6484
        39.5004         34.2504
  -2373561.74647  -1764806.73045  23853188.2504                   23853186.4264
        43.0004         34.7504
  -2370614.15247  -1821631.05947  22096577.7814                   22096576.7584
        46.5004         43.5004
  -1442229.33647  -1103394.58246  20915751.0394                   20915746.8794
        47.0004         37.0004
   1752104.15647   1373280.59447  22004130.8054                   22004129.9534
        45.0004         42.0004
   3472945.04747   2703733.50845  23583516.5554                   23583513.9844
        42.2504         35.2504
 25  8  7  1  0 30.0000000  0  9G01G03G04G06G07G09G16G26G31
   3320774.49646   2584483.35943  24784420.7584                   24784426.7464
        39.0004         21.5004
   1756782.62147   1376660.18448  20476861.7114                   20476860.8874
        47.5004         49.5004
   -848453.82847   -641320.71946  20430558.7424                   20430554.9344
        47.5004         38.5004
    -70413.92646    -22421.28945  24421185.2894                   24421186.7234
        40.2504         35.0004
  -2534820.64546  -1890462.80145  23822501.4844                   23822499.7504
        41.7504         35.0004
  -2533393.15247  -1948471.79347  22065602.3524                   22065600.8094
        44.5004         43.5004
  -1568490.65247  -1201779.97346  20891724.4534                   20891719.8984
        47.0004         37.2504
   1718578.10947   1347156.38746  21997750.7034                   21997750.3674
        45.0004         41.7504
   3481176.43847   2710147.54346  23585083.4144                   23585080.5944
        43.0004         36.0004
 25  8  7  1  1  0.0000000  0  9G01G03G04G06G07G09G16G26G31
   3321977.11346   2585420.11343  24784650.4384                   24784656.1994
        39.0004         20.7504
   1724575.21548   1351563.46548  20470733.1564                   20470732.0784
        48.5004         49.2504
   -960651.07847   -728747.13346  20409207.6254                   20409204.6054
        47.2504         39.0004
   -155293.69546    -88561.37545  24405033.1884                   24405034.1024
        39.2504         34.7504
  -2695956.77747  -2016023.23846  23791837.8204                   23791838.0864
        42.5004         36.2504
  -2696151.26647  -2075296.25847  22034630.3444                   22034628.8364
        45.7504         43.5004
  -1694194.68047  -1299731.10946  20867803.5784                   20867799.4184
        47.5004         37.2504
   1685509.26247   1321388.43446  21991458.3594                   21991457.5124
        45.0004         41.7504
   3489371.50847   2716533.28946  23586642.3054                   23586640.8444
        42.5004         36.7504
 25  8  7  1  1 30.0000000  0  9G01G03G04G06G07G09G16G26G31
   3322992.40646   2586210.89543  24784842.8054                   24784850.0904
        37.2504         19.5004
   1692814.35247   1326814.69948  20464689.2664                   20464687.7854
        47.5004         49.0004
  -1072693.79347   -816053.14546  20387886.7504                   20387883.7544
        47.5004         39.0004
   -239732.60246   -154357.93445  24388965.3984                   24388966.7624
        40.0004         35.5004
  -2856972.38746  -2141489.81245  23761197.1254                   23761196.6524
        40.7504         34.7504
  -2858890.23847  -2202105.80947  22003662.5634                   22003661.0084
        45.2504         43.7504
  -1819342.46547  -1397248.81646  20843988.5944                   20843984.7274
        46.7504         37.7504
   1652892.78147   1295972.98446  21985251.2584                   21985250.5594
        44.5004         41.2504
   3497525.84046   2722887.27345  23588194.4924                   23588191.0044
        41.2504         35.5004
 25  8  7  1  2  0.0000000  0  9G01G03G04G06G07G09G16G26G31
   3323821.63345   2586856.69543  24785001.2734                   24785008.4184
        35.7504         18.2504
   1661502.36748   1302415.71148  20458730.7194                   20458729.4144
        48.2504         49.0004
  -1184577.11347   -903234.94546  20366596.1334                   20366592.7974
        47.7504         39.0004
   -323727.67646   -219808.65645  24372981.8444                   24372982.6024
        39.7504         35.2504
  -3017863.06246  -2266858.98845  23730580.0394                   23730577.8634
        41.0004         32.5004
  -3021605.19947  -2328896.64547  21972697.7424                   21972696.4844
        45.7504         43.2504
  -1943928.67247  -1494328.92246  20820280.6954                   20820276.5234
        46.0004         37.7504
   1620730.47747   1270911.43046  21979130.8134                   21979130.3054
        44.7504         41.7504
   3505641.58647   2729211.17645  23589738.6174                   23589736.0594
        42.0004         35.7504
 25  8  7  1  2 30.0000000  0  9G01G03G04G06G07G09G16G26G31
   3324465.66045   2587358.11342  24785124.5164                   24785132.2814
        34.2504         15.5004
   1630641.11747   1278367.94148  20452857.9534                   20452856.8914
        47.7504         49.2504
  -1296296.64547   -990289.12146  20345336.6724                   20345333.6994
        47.0004         39.0004
   -407276.44946   -284911.59445  24357082.9614                   24357083.6764
        39.2504         34.7504
  -3178626.14846  -2392128.72745  23699988.3984                   23699988.4494
        40.5004         34.0004
  -3184291.70747  -2455665.30147  21941739.6414                   21941738.5824
        45.5004         43.5004
  -2067948.14547  -1590967.42246  20796680.7114                   20796676.2194
        46.5004         37.0004
   1589023.62547   1246204.78146  21973097.1414                   21973096.7424
        45.5004         41.7504
   3513720.41447   2735506.26646  23591276.2194                   23591273.4384
        43.2504         36.0004
 25  8  7  1  3  0.0000000  0  9G01G03G04G06G07G09G16G26G31
   3324920.313 5                  24785211.289
        32.250
   1600227.41047   1254668.90648  20447070.5314                   20447069.3324
        47.7504         49.0004
  -1407853.02047  -1077216.15646  20324107.9844                   20324104.8984
        47.5004         39.0004
   -490381.48846   -349668.76645  24341268.3594                   24341269.6684
        38.5004         35.2504
  -3339262.59446  -2517299.86746  23669420.2894                   23669420.7234
        41.5004         36.2504
  -3346950.28147  -2582412.19547  21910786.5314                   21910785.5554
        45.5004         44.0004
  -2191401.00447  -1687164.39846  20773188.3284                   20773184.4144
        46.5004         37.0004
   1557768.53147   1221850.15246  21967148.6644                   21967149.4884
        43.5004         41.2504
   3521759.42246   2741770.36346  23592806.4534                   23592803.6054
        41.5004         36.0004
 25  8  7  1  3 30.0000000  0  9G01G03G04G06G07G09G16G26G31
   3325186.746 5                  24785263.781
        32.250
   1570263.31647   1231320.21948  20441368.6564                   20441367.5784
        47.5004         49.0004
  -1519241.57047  -1164012.42646  20302911.6804                   20302908.2544
        47.7504         39.0004
   -573040.16446   -414078.12145  24325539.1484                   24325540.0274
        40.0004         35.5004
  -3499768.32847  -2642369.14845  23638877.1644                   23638875.3674
        42.0004         34.0004
  -3509576.21547  -2709133.65247  21879840.2274                   21879838.6684
        46.0004         43.7504
  -2314281.81247  -1782915.62146  20749804.4844                   20749800.6524
        46.0004         37.5004
   1526966.79347   1197848.78546  21961287.9694                   21961288.1564
        44.2504         41.2504
   3529760.68047   2748005.05945  23594328.4774                   23594325.6024
        42.5004         35.5004
 25  8  7  1  4  0.0000000  0  9G01G03G04G06G07G09G16G26G31
   4900679.62915                  25085069.375
        31.000
   3116165.40247   2435919.20748  20735543.6644                   20735543.0084
        47.5004         49.0004
    -55040.30548    -23076.37146  20581539.8054                   20581536.7114
        48.0004         38.7504
    920166.55546    749459.58645  24609687.4144                   24609687.8094
        39.5004         35.0004
  -2084720.34447  -1539734.10945  23908151.6484                   23908149.2194
        43.0004         34.5004
  -2096745.74647  -1608226.74647  22148692.4694                   22148691.6484
        45.5004         43.5004
   -861167.88747   -650619.01246  21026323.0004                   21026319.1054
        46.2504         37.0004
   3072034.50847   2401797.62146  22255305.0634                   22255304.2664
        44.5004         41.0004
   5113139.46146   3981806.65645  23895634.9534                   23895633.0234
        40.5004         35.0004
 25  8  7  1  4 30.0000000  0  9G01G03G04G06G07G09G16G26G31
                                  25085047.688
        31.500
   3087095.75847   2413267.49648  20730012.6564                   20730011.0634
        47.5004         49.2504
   -166090.02347   -109608.62146  20560407.8134                   20560404.5394
        47.0004         39.0004
    838397.69946    685743.57445  24594126.3834                   24594127.7234
        39.7504         34.0004
  -2244964.04747  -1664599.15246  23877659.5864                   23877658.8754
        44.5004         38.5004
  -2259303.06647  -1734894.74647  22117759.1954                   22117757.6804
        46.0004         43.5004
   -982900.14547   -745475.27046  21003158.3134                   21003154.0434
        46.5004         37.5004
   3042133.11747   2378497.81646  22249615.2894                   22249614.5394
        45.0004         41.0004
   5121060.68847   3987978.93445  23897143.0554                   23897140.3324
        42.0004         35.0004
 25  8  7  1  5  0.0000000  0  9G01G03G04G06G07G09G16G26G31
                                  25084990.484
        28.250
   3058476.59447   2390966.80548  20724566.0784                   20724565.0744
        47.5004         49.0004
   -276963.14147   -196003.24246  20539309.1954                   20539305.9144
        46.7504         39.0004
    757077.90246    622377.49245  24578651.9454                   24578653.1374
        40.2504         34.7504
  -2405070.67647  -1789357.44946  23847192.1954                   23847190.7464
        45.2504         38.0004
  -2421818.75047  -1861530.28947  22086833.8754                   22086831.8204
        46.2504         43.7504
  -1104050.02047   -839877.71946  20980104.1644                   20980099.8754
        45.5004         37.0004
   3012684.36347   2355550.72746  22244010.3834                   22244010.7934
        44.2504         41.2504
   5128944.90647   3994122.42245  23898644.0234                   23898641.2814
        42.0004         35.0004
 25  8  7  1  5 30.0000000  0  8G03G04G06G07G09G16G26G31
   3030307.07847   2369016.49248  20719205.6724                   20719204.3794
        47.5004         49.2504
   -387657.75847   -282258.77346  20518244.5474                   20518241.5394
        47.5004         38.5004
    676206.90646    559361.14145  24563262.7424                   24563263.6294
        40.0004         33.7504
  -2565039.10247  -1914007.98046  23816750.8204                   23816746.7074
        45.0004         36.0004
  -2584290.80547  -1988131.84047  22055915.9694                   22055914.3794
        45.5004         44.2504
  -1224615.06647   -933824.46546  20957161.2894                   20957156.6914
        45.7504         37.0004
   2983686.94947   2332955.32846  22238492.9454                   22238492.3834
        45.0004         41.0004
   5136791.78146   4000236.78145  23900137.6024                   23900134.5594
        41.0004         34.7504
 25  8  7  1  6  0.0000000  0  8G03G04G06G07G09G16G26G31
   3002585.66848   2347415.34848  20713930.7194                   20713929.9694
        48.0004         49.0004
   -498172.69547   -368374.29746  20497214.5864                   20497211.2934
        47.7504         39.0004
    595783.73446    496693.71945  24547958.9384                   24547959.2464
        40.0004         33.5004
  -2724869.20747  -2038550.70745  23786335.4224                   23786333.4534
        42.0004         35.7504
  -2746718.02347  -2114698.45747  22025006.7504                   22025005.6724
        44.0004         44.0004
  -1344593.59047  -1027314.17646  20934329.8054                   20934325.6294
        45.5004         37.7504
   2955138.84847   2310710.03546  22233059.9224                   22233060.0434
        44.2504         41.2504
   5144599.80146   4006320.89545  23901623.0394                   23901619.6214
        41.2504         34.0004
 25  8  7  1  6 30.0000000  0  8G03G04G06G07G09G16G26G31
   2975312.11347   2326163.18448  20708741.0474                   20708739.8674
        47.0004         49.0004
   -608505.53948   -454347.92246  20476218.8834                   20476215.5354
        48.0004         39.0004
    515808.70746    434375.54345  24532739.4384                   24532740.7544
        39.5004         33.5004
  -2884559.08646  -2162984.23045  23755946.6484                   23755946.5354
        41.7504         35.5004
  -2909097.86747  -2241228.15647  21994107.6484                   21994105.8984
        46.0004         44.0004
  -1463982.97747  -1120344.81246  20911610.9454                   20911606.4494
        45.5004         36.7504
   2927039.27747   2288814.24246  22227713.2504                   22227712.7274
        44.0004         41.0004
   5152369.09046   4012374.81345  23903100.2894                   23903098.5274
        39.0004         32.7504
 25  8  7  1  7  0.0000000  0  8G03G04G06G07G09G16G26G31
   2948484.87547   2305258.80148  20703635.8284                   20703634.6134
        47.5004         49.0004
   -718655.01647   -540178.65646  20455258.2114                   20455254.7464
        47.5004         39.2504
    436280.94946    372405.85245  24517606.4774                   24517607.6294
        40.0004         33.5004
  -3044108.03146  -2287307.98845  23725584.8914                   23725583.4414
        41.7504         33.5004
  -3071428.95347  -2367719.85547  21963216.3054                   21963215.1804
        45.2504         44.0004
  -1582781.60947  -1212915.13746  20889004.2424                   20888999.8874
        46.5004         37.0004
   2899386.28947   2267266.44146  22222451.7424                   22222450.5084
        44.7504         41.2504
   5160098.06647   4018397.34445  23904572.4384                   23904569.7154
        42.0004         35.5004
 25  8  7  1  7 30.0000000  0  8G03G04G06G07G09G16G26G31
   2922105.80947   2284703.64548  20698615.7424                   20698614.8954
        47.7504         49.0004
   -828616.54347   -625862.95346  20434333.1804                   20434329.8094
        47.2504         39.2504
    357202.77046    310786.48845  24502558.3134                   24502559.2854
        39.5004         33.7504
  -3203513.14847  -2411519.61345  23695251.2734                   23695249.2034
        42.0004         32.5004
  -3233706.63747  -2494169.94947  21932336.1174                   21932334.5274
        46.0004         44.0004
  -1700984.44547  -1305021.19946  20866511.3364                   20866507.0554
        46.0004         37.2504
   2872181.14847   2246067.62546  22217273.8914                   22217273.8054
        44.5004         41.0004
   5167789.02746   4024390.24245  23906035.2114                   23906033.7584
        41.0004         34.5004
 25  8  7  1  8  0.0000000  0  8G03G04G06G07G09G16G26G31
   2896172.47347   2264495.81648  20693680.9144                   20693679.9534
        46.2504         48.7504
   -938389.69147   -711400.44146  20413444.0084                   20413440.4534
        47.7504         39.5004
    278572.37946    249516.05945  24487595.8754                   24487596.1764
        40.0004         33.5004
  -3362774.44546  -2535619.20745  23664944.1484                   23664942.4384
        40.7504         32.7504
  -3395930.40647  -2620578.02747  21901465.7894                   21901464.3874
        45.5004         44.0004
  -1818590.85247  -1396662.51646  20844131.3364                   20844126.6214
        46.0004         37.0004
   2845420.97347   2225215.52746  22212181.6414                   22212181.6094
        43.5004         40.7504
   5175439.94147   4030351.86345  23907492.9304                   23907489.1844
        42.2504         35.0004
 25  8  7  1  8 30.0000000  0  8G03G04G06G07G09G16G26G31
   2870682.68047   2244633.59448  20688830.4454                   20688829.3134
        46.2504         48.7504
  -1047973.96548   -796790.75846  20392590.6884                   20392587.5004
        48.0004         39.2504
    200388.07846    188593.24245  24472717.0474                   24472718.4694
        39.5004         32.7504
  -3521892.25047  -2659606.97745  23634665.4694                   23634662.5434
        42.2504         32.0004
  -3558099.56647  -2746943.54347  21870605.8594                   21870604.3014
        46.2504         44.2504
  -1935599.97747  -1487838.40646  20821864.7344                   20821860.5274
        46.2504         36.0004
   2819103.06647   2204708.05546  22207173.1024                   22207173.1954
        43.0004         41.0004
   5183048.50446   4036280.59445  23908938.6954                   23908938.0354
        39.5004         34.5004
 25  8  7  1  9  0.0000000  0  8G03G04G06G07G09G16G26G31
   2845636.85948   2225117.32048  20684064.4144                   20684063.0704
        48.0004         48.5004
  -1157365.95747   -882031.24646  20371774.2424                   20371771.1334
        47.7504         39.7504
    122651.00046    128018.88345  24457925.0084                   24457925.1884
        40.0004         33.2504
  -3680864.09847  -2783480.98445  23604414.6254                   23604411.8674
        43.2504         33.5004
  -3720210.67647  -2873263.84047  21839757.4064                   21839755.7384
        46.0004         44.5004
  -2052008.19947  -1578546.06646  20799712.8364                   20799708.6294
        46.7504         36.7504
   2793227.48447   2184545.23846  22202249.8914                   22202249.5314
        45.0004         41.0004
   5190615.76247   4042177.05545  23910380.1724                   23910377.2384
        42.7504         34.7504
 25  8  7  1  9 30.0000000  0  8G03G04G06G07G09G16G26G31
   2821034.07047   2205946.27748  20679382.4844                   20679381.5864
        46.7504         48.5004
  -1266563.86348   -967120.49246  20350995.0004                   20350991.2114
        48.2504         39.5004
     45360.62946     67792.62945  24443216.7504                   24443217.1374
        39.0004         32.5004
  -3839689.10947  -2907240.63346  23574191.3914                   23574190.4414
        43.7504         36.0004
  -3882261.75447  -2999537.35947  21808920.3754                   21808918.2934
        47.0004         44.5004
  -2167813.42247  -1668783.86746  20777676.2274                   20777671.7814
        47.0004         36.7504
   2767792.68447   2164725.90646  22197409.0944                   22197408.8714
        43.0004         40.7504
   5198140.96946   4048040.77345  23911812.2504                   23911808.5274
        40.5004         32.7504
 25  8  7  1 10  0.0000000  0  8G03G04G06G07G09G16G26G31
   2796872.96148   2187119.39848  20674785.0864                   20674783.8444
        48.0004         48.5004
  -1375566.09047  -1052057.26646  20330252.0864                   20330248.4534
        47.7504         39.7504
    -31483.78946      7913.85545  24428593.4774                   24428594.2854
        39.5004         32.0004
  -3998366.63747  -3030885.38745  23543995.9534                   23543994.8054
        42.5004         35.2504
  -4044251.13747  -3125762.80147  21778094.0474                   21778092.7704
        46.0004         44.7504
  -2283013.98047  -1758550.50046  20755754.0394                   20755749.6054
        46.0004         36.0004
   2742796.91047   2145248.66846  22192653.2664                   22192652.6454
        45.2504         40.5004
   5205623.21946   4053871.07845  23913235.5634                   23913233.1094
        41.0004         33.7504
 25  8  7  1 10 30.0000000  0  8G03G04G06G07G09G16G26G31
   2773155.66447   2168638.33248  20670272.1174                   20670270.9064
        47.2504         48.5004
  -1484367.62947  -1136837.65646  20309547.7034                   20309544.1524
        47.7504         39.5004
   -107879.50846    -51615.28545  24414056.5784                   24414056.3284
        39.7504         32.0004
  -4156892.50047  -3154411.91445  23513828.4924                   23513825.5744
        43.2504         34.0004
  -4206173.63347  -3251936.11747  21747281.3284                   21747279.9104
        46.5004         45.0004
  -2397604.46547  -1847841.73846  20733948.2034                   20733944.0944
        47.2504         36.5004
   2718241.85247   2126114.83646  22187980.5004                   22187980.1454
        43.5004         40.5004
   5213065.55546   4059670.19145  23914651.9924                   23914650.0084
        41.2504         33.5004
 25  8  7  1 11  0.0000000  0  8G03G04G06G07G09G16G26G31
   2749883.61748   2150504.23048  20665843.4224                   20665842.3134
        48.7504         48.7504
  -1592964.11747  -1221458.26646  20288882.5084                   20288879.1484
        47.5004         40.0004
   -183824.59046   -110793.27045  24399604.3674                   24399604.8634
        38.5004         31.5004
  -4315263.20747  -3277817.47745  23483691.4064                   23483687.7974
        43.7504         34.0004
  -4368024.72747  -3378053.80547  21716482.2504                   21716480.8984
        47.0004         45.2504
  -2511580.71147  -1936654.36346  20712259.1564                   20712255.0434
        46.7504         36.7504
   2694128.47347   2107325.16446  22183392.0164                   22183391.2344
        44.0004         40.0004
   5220469.32047   4065439.34045  23916062.1024                   23916057.9184
        43.5004         33.0004
 25  8  7  1 11 30.0000000  0  8G03G04G06G07G09G16G26G31
   2727057.87548   2132717.89148  20661499.8754                   20661498.8134
        49.5004         48.5004
  -1701351.60947  -1305916.02746  20268257.2584                   20268253.7504
        47.7504         40.0004
   -259317.49246   -169618.90645  24385238.4064                   24385239.5704
        37.5004         31.7504
  -4473475.50447  -3401099.62946  23453585.0084                   23453582.7624
        44.0004         36.0004
  -4529800.41047  -3504112.72747  21685696.9384                   21685695.7344
        46.7504         45.0004
