     2.11           OBSERVATION DATA    G (GPS)             RINEX VERSION / TYPE
teqc  2019Feb25                         20250821 09:01:48UTCPGM / RUN BY / DATE
Linux 2.6.32-573.12.1.x86_64|x86_64|gcc -static|Linux 64|=+ COMMENT
BIT 2 OF LLI FLAGS DATA COLLECTED UNDER A/S CONDITION       COMMENT
04223571                                                    MARKER NAME
0422                                                        MARKER NUMBER
-Unknown-           -Unknown-                               OBSERVER / AGENCY
0220340422          TRIMBLE 5700        2.32                REC # / TYPE / VERS
-Unknown-           TRM41249.00     NONE                    ANT # / TYPE
 -2409679.8912 -4612262.7330  3677306.4141                  APPROX POSITION XYZ
        0.0000        0.0000        0.0000                  ANTENNA: DELTA H/E/N
     1     1                                                WAVELENGTH FACT L1/2
     7    L1    L2    C1    P1    P2    S1    S2            # / TYPES OF OBSERV
    18                                                      LEAP SECONDS
 SNR is mapped to RINEX snr flag value [0-9]                COMMENT
  L1 & L2: min(max(int(snr_dBHz/6), 0), 9)                  COMMENT
  2005    12    23    17     2   30.0000000     GPS         TIME OF FIRST OBS
                                                            END OF HEADER
 05 12 23 17  2 30.0000000  0  6G10G15G16G18G23G27
    -77495.41857    -49298.93757  22019703.6254                   22019706.4654
        47.7504         45.2504
    100896.21157     64051.24656  21774817.5474                   21774818.2154
        45.5004         39.5004
     55150.76256     27501.52053  23829345.6884                   23829346.3834
        37.0004         20.2504
     13458.73457      8605.50456  20914703.5704                   20914703.8244
        47.0004         37.2504
     20249.81657     12682.79756  20439166.3834                   20439165.8874
        47.7504         39.0004
    -97428.95757    -46615.83656  22819399.6644                   22819401.5634
        43.0004         38.5004
 05 12 23 17  3  0.0000000  0 11G10G13G15G16G18G23G24G27G26G29G32
   -127554.01647    -88305.61347  22010177.8674                   22010180.8134
        46.2504         46.2504
                                  24371612.875
        31.000
    165009.99247    114010.00046  21787018.0864                   21787018.5864
        46.7504         39.2504
     94062.69946     57822.46543  23836749.2344                   23836751.0314
        37.2504         19.2504
     21457.30147     14838.12146  20916225.8674                   20916225.4654
        46.2504         37.5004
     32615.71147     22318.53946  20441519.5234                   20441519.2974
        46.2504         39.5004
   -148772.82456    -96527.78554  24687862.3834                   24687871.1844
        37.5004         26.5004
   -179737.08247   -110752.04746  22803736.2194                   22803738.1884
        42.5004         38.2504
    135579.91055     91295.30153  24965284.8134                   24965289.8794
        34.0004         22.5004
    207466.48057    140334.94155  23405464.4144                   23405467.8094
        42.7504         35.5004
   -217110.77756   -127013.18054  24261971.1484                   24261980.0234
        40.5004         29.2504
 05 12 23 17  3 30.0000000  0 11G10G13G15G16G18G23G24G27G26G29G32
   -177427.17247   -127167.78947  22000687.6094                   22000690.4774
        47.5004         46.2504
                                  24388312.094
        30.750
    229536.55147    164290.41046  21799297.2734                   21799297.8874
        45.2504         39.2504
    133303.01246     88399.21943  23844216.6024                   23844218.4304
        36.7504         18.2504
     29630.73047     21207.00846  20917781.1954                   20917780.7194
        47.0004         37.2504
     45187.39547     32114.63346  20443911.6174                   20443911.5634
        46.7504         39.0004
   -224002.47346   -155148.12144  24673546.4924                   24673555.1214
        36.7504         26.0004
   -261762.95747   -174668.31246  22788127.5234                   22788129.7934
        42.7504         38.2504
    203815.21946    144465.55544  24978267.6484                   24978274.7504
        37.2504         26.5004
    312221.55147    221962.11345  23425398.8524                   23425402.0984
        42.0004         35.5004
   -327354.80146   -212917.43445  24240993.2114                   24241000.0984
        40.2504         30.0004
 05 12 23 17  4  0.0000000  0 11G10G13G15G16G18G23G24G27G26G29G32
   -227034.74647   -165823.00447  21991247.0234                   21991250.3164
        47.5004         46.2504
    349244.10945    100030.27353  24405080.4384                   24405080.4104
        35.5004         19.2504
    294553.75847    214953.13746  21811669.8914                   21811670.1254
        44.0004         38.7504
    172949.65246    119292.65643  23851761.5314                   23851763.0234
        37.0004         19.7504
     38060.27747     27775.46546  20919385.2974                   20919385.3054
        47.2504         38.0004
     58044.00447     42132.75846  20446358.2344                   20446358.1954
        47.7504         39.0004
   -299083.78946   -213652.87944  24659259.7734                   24659267.2854
        37.2504         28.5004
   -343423.65646   -238300.02746  22772587.8284                   22772590.0004
        41.7504         37.5004
    272091.32046    197667.60244  24991261.3054                   24991267.4304
        37.0004         28.0004
    417161.85947    303733.62545  23445367.8204                   23445371.5824
        43.0004         35.2504
   -437545.12546   -298779.86345  24220024.0864                   24220031.3554
        39.0004         30.7504
 05 12 23 17  4 30.0000000  0 11G10G13G15G16G18G23G24G27G26G29G32
   -276352.63347   -204252.50047  21981862.4144                   21981865.2274
        47.5004         46.2504
    437709.62545    168964.20742  24421914.6174                   24421917.3484
        33.0004         14.7504
    360083.55547    266015.29346  21824139.8524                   21824140.0514
        44.5004         39.0004
    213024.59046    150519.80543  23859388.0634                   23859389.1844
        37.5004         19.2504
     46771.10547     34563.10946  20921042.9064                   20921042.4064
        47.5004         37.7504
     71208.51647     52390.80546  20448863.5164                   20448863.1134
        47.0004         38.7504
   -373989.36746   -272020.68444  24645004.5474                   24645013.4964
        38.0004         28.0004
   -424692.32847   -301626.27346  22757122.5314                   22757125.0554
        43.2504         38.0004
    340429.65646    250918.20744  25004266.0394                   25004272.1914
        37.5004         27.0004
    522309.42647    385666.64145  23465376.8444                   23465380.9694
        43.5004         35.2504
   -547654.85546   -384579.48045  24199070.7814                   24199077.5744
        40.5004         30.5004
 05 12 23 17  5  0.0000000  0 11G10G13G15G16G18G23G24G27G26G29G32
   -325364.31247   -242443.37547  21972535.6724                   21972538.3204
        47.2504         46.2504
    526549.04346    238189.73842  24438821.2584                   24438823.9454
        37.0004         15.5004
    426140.29747    317488.05146  21836709.7734                   21836710.1414
        44.0004         39.5004
    253542.21146    182091.87543  23867097.9064                   23867099.0234
        37.0004         19.0004
     55780.98847     41583.77746  20922757.2734                   20922757.1994
        47.5004         37.2504
     84696.60247     62900.98846  20451430.5004                   20451430.3364
        47.7504         39.2504
   -448698.98846   -330235.81644  24630787.7274                   24630796.6334
        37.5004         29.5004
   -505549.54347   -364631.90246  22741736.5084                   22741738.3954
        42.0004         38.0004
    408844.16846    304228.12544  25017284.8594                   25017291.1684
        36.5004         27.5004
    627678.69547    467772.41045  23485427.7194                   23485431.9304
        43.0004         35.5004
   -657664.62946   -470301.19144  24178136.5164                   24178142.9654
        39.5004         29.7504
 05 12 23 17  5 30.0000000  0 11G10G13G15G16G18G23G24G27G26G29G32
   -374064.69947   -280391.68447  21963268.0864                   21963271.0164
        46.5004         46.2504
    615765.04345    307708.53942  24455797.7894                   24455801.4384
        33.2504         14.7504
    492726.69947    369373.53546  21849380.5394                   21849381.1094
        45.0004         39.2504
    294505.60546    214011.32843  23874893.1024                   23874893.8834
        37.0004         19.5004
     65095.97747     48842.18446  20924530.0864                   20924530.1174
        47.2504         38.0004
     98512.15247     73666.33246  20454059.1414                   20454059.0984
        46.5004         39.0004
   -523204.09046   -388291.58644  24616609.9924                   24616618.3594
        37.5004         29.2504
   -585987.43047   -427310.77746  22726429.5554                   22726431.7194
        42.5004         38.2504
    477337.47746    357599.45744  25030317.8054                   25030324.8594
        36.7504         26.7504
    733272.56347    550053.19945  23505520.9774                   23505526.1954
        43.2504         35.2504
   -767566.62146   -555938.93445  24157222.7814                   24157229.2464
        40.0004         30.5004
 05 12 23 17  6  0.0000000  0 11G10G13G15G16G18G23G24G27G26G29G32
   -422451.15647   -318095.37547  21954060.6804                   21954063.2584
        47.0004         46.2504
    705357.69545    377520.87542  24472846.0394                   24472850.2734
        33.7504         16.2504
    559843.27747    421672.13346  21862152.3054                   21862152.8874
        44.5004         39.0004
    335915.06346    246278.35543  23882773.0944                   23882774.3284
        37.0004         19.2504
     74719.94147     56341.36746  20926361.2974                   20926361.2384
        46.7504         37.7504
    112656.93047     84688.22346  20456750.9454                   20456750.4414
        47.5004         39.2504
   -597498.48446   -446183.18045  24602471.9384                   24602480.9344
        37.2504         30.0004
   -666000.52347   -489658.66046  22711203.6954                   22711206.0824
        42.5004         38.2504
    545909.72746    411032.30544  25043366.7274                   25043374.0744
        36.5004         27.5004
    839091.53947    632509.37945  23525659.0004                   23525663.0004
        43.0004         34.7504
   -877355.35546   -641488.41445  24136330.6024                   24136336.8324
        40.7504         31.2504
 05 12 23 17  6 30.0000000  0 11G10G13G15G16G18G23G24G27G26G29G32
   -470521.39547   -355552.66847  21944913.0704                   21944915.8404
        47.5004         46.0004
    795326.93845    447626.82442  24489967.7194                   24489970.8984
        34.5004         14.7504
    627490.06347    474383.88746  21875025.6724                   21875026.0944
        43.7504         39.0004
    377770.84446    278893.21143  23890737.6414                   23890739.8164
        36.7504         19.7504
     84656.25047     64083.92246  20928251.7894                   20928251.8874
        46.0004         37.5004
    127132.16447     95967.60946  20459505.2424                   20459504.9454
        47.0004         39.0004
   -671576.34446   -503906.03544  24588375.3284                   24588384.0824
        37.5004         29.5004
   -745583.73847   -551671.55546  22696059.6334                   22696061.7584
        42.2504         38.7504
    614560.62146    464526.41044  25056431.2424                   25056438.6254
        36.2504         27.0004
    945135.93447    715141.21545  23545838.5634                   23545842.4774
        43.0004         34.7504
   -987025.64146   -726945.60945  24115460.7274                   24115467.0354
        40.7504         30.7504
 05 12 23 17  7  0.0000000  0 11G10G13G15G16G18G23G24G27G26G29G32
   -518276.80147   -392764.63347  21935825.5164                   21935827.9144
        47.0004         46.0004
    885668.82845    518022.97342  24507158.9454                   24507162.4304
        35.7504         16.2504
    695663.56647    527506.07446  21887998.7424                   21887998.7664
        45.0004         39.5004
    420069.49646    311853.10943  23898787.1954                   23898789.1174
        36.5004         19.5004
     94904.74647     72069.74646  20930202.2504                   20930201.8484
        47.2504         37.0004
    141935.55947    107502.71146  20462322.5704                   20462322.3754
        46.5004         39.0004
   -745435.40646   -561458.40244  24574320.7114                   24574328.9694
        38.5004         29.0004
   -824735.56647   -613348.32446  22680997.0864                   22680999.4414
        42.5004         39.2504
    683286.42646    518078.94544  25069509.8364                   25069515.6174
        37.2504         27.0004
   1051402.41847    797946.11345  23566060.4774                   23566064.7344
        42.5004         33.7504
  -1096576.06246   -812309.38745  24094613.6094                   24094620.3984
        40.0004         31.5004
 05 12 23 17  7 30.0000000  0 11G10G13G15G16G18G23G24G27G26G29G32
   -565717.21147   -429731.14147  21926797.6644                   21926800.7704
        47.5004         46.2504
    976380.83646    588707.67642  24524421.7114                   24524424.5784
        36.7504         15.5004
    764361.36747    581036.80146  21901071.2974                   21901071.6054
        45.0004         39.2504
    462808.96146    345156.52043  23906921.2894                   23906921.5044
        38.5004         20.0004
    105466.67247     80299.80546  20932212.3594                   20932212.1484
        46.7504         37.5004
    157066.18047    119292.79746  20465201.6024                   20465201.7154
        47.5004         39.5004
   -819072.00446   -618837.41844  24560307.3914                   24560316.2894
        36.0004         29.7504
   -903453.08647   -674686.65246  22666017.5704                   22666020.3674
        43.0004         39.0004
    752084.72346    571687.89144  25082601.2034                   25082608.0784
        37.2504         26.0004
   1157888.64147    880922.23045  23586324.5554                   23586328.1254
        42.7504         35.0004
  -1206003.58246   -897577.41045  24073790.0394                   24073796.6914
        40.7504         32.2504
 05 12 23 17  8  0.0000000  0 11G10G13G15G16G18G23G24G27G26G29G32
   -612842.15247   -466451.82847  21917830.0234                   21917833.1524
        47.7504         46.5004
   1067461.06346    659679.14842  24541755.5784                   24541757.5984
        38.2504         16.2504
    833581.94947    634974.88346  21914243.5004                   21914243.6724
        44.7504         39.2504
    505987.59846    378802.18443  23915136.8834                   23915137.9964
        36.2504         19.0004
    116343.63747     88775.34846  20934282.1414                   20934282.0904
        46.5004         37.5004
    172523.59447    131337.51646  20468143.0634                   20468143.2034
        47.2504         38.7504
   -892482.05146   -676039.88744  24546338.2734                   24546346.3714
        37.0004         29.7504
   -981732.96547   -735683.96546  22651122.0944                   22651124.2074
        42.7504         39.5004
    820953.52046    625351.85944  25095706.2344                   25095712.8484
        37.5004         25.0004
   1264593.36347    964068.60945  23606628.9844                   23606633.6804
        42.5004         34.5004
  -1315304.86346   -982747.06245  24052990.8444                   24052997.1764
        41.2504         32.5004
 05 12 23 17  8 30.0000000  0 11G10G13G15G16G18G23G24G27G26G29G32
   -659658.04747   -502931.69147  21908921.1724                   21908924.2624
        46.5004         46.5004
   1158900.44946    730930.58642  24559154.2344                   24559157.5984
        36.7504         16.7504
    903316.66847    689313.59846  21927513.9064                   21927513.7234
        44.5004         39.0004
    549596.93846    412783.39543  23923436.1254                   23923436.9884
        36.7504         19.7504
    127530.36747     97492.25446  20936410.7974                   20936410.7624
        46.0004         37.7504
    188300.35947    143631.08646  20471145.3674                   20471144.8874
        46.2504         38.7504
   -965668.42246   -733068.05145  24532411.4844                   24532419.7344
        37.7504         31.0004
  -1059578.85547   -796343.10546  22636308.0864                   22636310.2704
        42.5004         39.5004
    889884.03546    679063.82844  25108823.8134                   25108830.1374
        37.5004         24.5004
   1371508.31647   1047378.79745  23626974.7664                   23626979.1294
        42.7504         34.0004
  -1424483.50046  -1067821.14145  24032214.3284                   24032221.1414
        40.0004         32.7504
 05 12 23 17  9  0.0000000  0 11G10G13G15G16G18G23G24G27G26G29G32
   -706169.17247   -539174.08247  21900070.5784                   21900073.3634
        47.5004         46.5004
   1250692.367 5                  24576622.039
        35.750
    973558.95347    744047.81646  21940880.5704                   21940880.4884
        44.2504         39.5004
    593630.11346    447094.88743  23931814.7424                   23931816.4884
        37.0004         18.5004
    139023.82447    106448.17246  20938598.2114                   20938598.0004
        46.5004         37.2504
    204391.27347    156169.44946  20474207.0944                   20474207.4614
        47.2504         38.7504
  -1038631.77746   -789922.44945  24518526.3204                   24518534.8554
        37.0004         30.5004
  -1136992.13747   -856665.15646  22621577.1484                   22621579.0394
        42.2504         39.5004
    958869.44146    732818.64844  25121951.3134                   25121957.8524
        36.7504         25.7504
   1478626.66447   1130847.48045  23647358.7274                   23647363.2854
        42.5004         33.2504
  -1533540.86346  -1152800.69545  24011461.8134                   24011468.3134
        40.5004         33.0004
 05 12 23 17  9 30.0000000  0 11G10G13G15G16G18G23G24G27G26G29G32
   -752375.80148   -575179.20747  21891277.6094                   21891280.6374
        48.0004         46.7504
   1342833.88346    827403.22752  24594155.9694                   24594156.2974
        37.7504         17.7504
   1044306.27347    799175.57046  21954342.9144                   21954343.3444
        45.2504         39.0004
    638084.86346    481734.88343  23940274.5634                   23940276.3554
        36.0004         19.2504
    150824.84847    115643.75446  20940843.7974                   20940843.4064
        46.5004         38.0004
    220795.07447    168951.61746  20477329.2034                   20477328.7894
        47.2504         39.0004
  -1111368.80146   -846600.47345  24504685.0704                   24504693.2704
        38.0004         30.7504
  -1213970.34847   -916648.18746  22606928.3984                   22606930.6054
        42.5004         39.0004
   1027907.14846    786614.12144  25135089.1334                   25135095.5234
        38.2504         24.0004
   1585946.44547   1214473.10945  23667781.6884                   23667785.6914
        42.2504         33.0004
  -1642474.35546  -1237683.73045  23990731.8524                   23990738.4734
        41.7504         32.0004
 05 12 23 17 10  0.0000000  0 11G10G13G15G16G18G23G24G27G26G29G32
   -798279.10947   -610947.97347  21882542.4144                   21882545.0204
        47.2504         46.7504
   1435321.34045    899471.27342  24611754.3204                   24611757.2774
        32.7504         16.2504
   1115555.26647    854694.22746  21967901.7584                   21967902.0354
        44.0004         39.5004
    682958.03546    516700.89543  23948813.7664                   23948815.6844
        37.0004         19.7504
    162933.46147    125079.02046  20943148.0004                   20943147.6174
        46.5004         37.5004
    237509.68847    181975.99246  20480509.6024                   20480509.6564
        47.0004         38.7504
  -1183877.06646   -903100.23845  24490887.5634                   24490895.1374
        37.7504         31.7504
  -1290511.75847   -976290.85246  22592363.0164                   22592365.4574
        42.2504         39.7504
   1096993.46945    840447.55144  25148236.8444                   25148242.6054
        35.7504         26.2504
   1693464.46547   1298253.23045  23688241.3594                   23688246.1174
        42.0004         31.5004
  -1751282.27346  -1322468.91445  23970026.3134                   23970032.9734
        41.0004         33.5004
 05 12 23 17 10 30.0000000  0 11G10G13G15G16G18G23G24G27G26G29G32
   -843883.48847   -646483.80947  21873864.5004                   21873867.2464
        47.7504         47.0004
   1528148.090 6                  24629419.477
        37.500
   1187299.36347    910598.68446  21981553.3054                   21981554.5314
        43.5004         39.5004
    728243.04346    551987.87943  23957431.4304                   23957432.6334
        36.7504         19.2504
    175346.44547    134751.45746  20945510.0234                   20945509.9024
        47.2504         37.5004
    254529.71147    195238.34446  20483748.5554                   20483748.2664
        47.5004         38.7504
  -1256157.31246   -959422.30945  24477132.5634                   24477140.4064
        38.2504         31.2504
  -1366617.98047  -1035594.40246  22577880.7034                   22577882.9454
        42.7504         39.5004
   1166121.64546    894313.53943  25161390.1484                   25161397.7624
        37.0004         23.5004
   1801174.10946   1382182.66045  23708737.7034                   23708742.8164
        41.5004         32.2504
  -1859966.06647  -1407157.36745  23949344.8054                   23949350.8284
        42.0004         32.7504
 05 12 23 17 11  0.0000000  0 11G10G13G15G16G18G23G24G27G26G29G32
   -889186.57848   -681784.86347  21865243.2974                   21865246.1564
        48.0004         46.7504
   1621313.68445    991224.47752  24647147.1644                   24647148.8444
        32.7504         17.2504
   1259538.42247    966888.81646  21995300.7584                   21995301.3204
        44.0004         39.5004
    773939.89846    587595.70343  23966126.8444                   23966128.4844
        37.5004         19.5004
    188067.34847    144663.82846  20947930.6094                   20947930.5514
        47.2504         37.0004
    271856.59448    208739.80546  20487045.6724                   20487045.6374
        48.0004         38.7504
  -1328203.62146  -1015562.10945  24463421.6724                   24463430.2424
        38.0004         31.7504
  -1442283.85547  -1094554.83246  22563481.8444                   22563484.2814
        42.7504         39.2504
   1235291.68846    948212.23444  25174552.8054                   25174559.2154
        36.0004         24.5004
   1909075.53146   1466261.53145  23729270.9144                   23729275.7344
        41.7504         33.0004
  -1968520.54346  -1491745.06245  23928687.2114                   23928693.2974
        41.7504         33.5004
 05 12 23 17 11 30.0000000  0 11G10G13G15G16G18G23G24G27G26G29G32
   -934194.07047   -716855.58647  21856678.6484                   21856681.5554
        47.5004         46.7504
   1714810.19546   1064078.71543  24664941.0554                   24664942.5514
        39.0004         19.0004
   1332264.50847   1023558.45746  22009139.5314                   22009140.2854
        44.2504         39.5004
    820040.80946    623518.48043  23974899.6644                   23974901.6214
        36.7504         18.5004
    201091.64147    154812.60546  20950409.0864                   20950409.0044
        47.0004         37.2504
    289483.66847    222475.18046  20490400.1334                   20490399.5044
        47.0004         38.5004
  -1400018.14146  -1071521.27045  24449756.7504                   24449764.1644
        39.0004         32.2504
  -1517512.28947  -1153174.39546  22549166.2894                   22549168.4884
        42.7504         39.5004
   1304495.30945   1002137.03144  25187721.4224                   25187729.3674
        34.5004         24.5004
   2017161.29346   1550484.03945  23749838.8204                   23749844.2034
        41.5004         33.0004
  -2076948.47346  -1576234.14845  23908053.6414                   23908060.1334
        41.5004         33.7504
 05 12 23 17 12  0.0000000  0 11G10G13G15G16G18G23G24G27G26G29G32
   -978904.25447   -751694.63747  21848170.7664                   21848173.4224
        47.7504         46.7504
   1808636.590 6                  24682794.836
        36.750
   1405477.11747   1080607.20346  22023071.8364                   22023072.3364
        44.2504         39.0004
    866544.70746    659755.19942  23983748.7664                   23983750.5274
        36.5004         17.7504
    214422.22347    165200.06646  20952946.0004                   20952945.8204
        46.7504         37.2504
    307411.75047    236445.11346  20493811.5084                   20493811.0554
        47.5004         39.2504
  -1471595.36346  -1127295.51245  24436135.8444                   24436143.1844
        38.7504         32.0004
  -1592298.68747  -1211449.52046  22534934.5634                   22534937.0164
        42.2504         39.2504
   1373732.09046   1056087.68843  25200897.5234                   25200904.3674
        37.0004         21.7504
   2125430.94946   1634849.83645  23770442.2504                   23770447.0004
        41.5004         31.5004
  -2185245.21946  -1660620.99245  23887445.2814                   23887451.7154
        41.2504         33.2504
 05 12 23 17 12 30.0000000  0 11G10G13G15G16G18G23G24G27G26G29G32
  -1023326.12947   -786309.03547  21839717.5474                   21839720.1414
        47.7504         46.7504
   1902781.75816                  24700711.031
        40.000
   1479164.99647   1138026.28146  22037093.8444                   22037094.7274
        44.2504         38.7504
    913440.80146    696297.53543  23992673.1564                   23992675.0784
        36.5004         19.2504
    228051.37947    175820.17646  20955539.5164                   20955539.3244
        46.2504         37.2504
    325630.94147    250641.87946  20497278.5004                   20497278.4384
        47.0004         38.7504
  -1542940.66846  -1182889.02745  24422558.6024                   24422566.1884
        38.5004         32.0004
  -1666649.23447  -1269385.01246  22520786.4064                   22520788.8324
        42.5004         39.5004
   1442990.63346   1110055.35244  25214076.9844                   25214083.6524
        37.2504         25.0004
   2233873.47346   1719350.34845  23791078.2894                   23791082.8634
        41.2504         31.5004
  -2293416.82446  -1744910.31645  23866860.8284                   23866866.8484
        41.2504         34.0004
 05 12 23 17 13  0.0000000  0 11G10G13G15G16G18G23G24G27G26G29G32
  -1067457.90247   -820697.37947  21831319.2504                   21831321.8244
        47.5004         46.5004
   1997244.37945   1187350.30552  24718684.7734                   24718686.7234
        35.7504         15.5004
   1553327.62147   1195815.29746  22051206.7894                   22051207.5004
        44.0004         39.2504
    960729.07846    733145.49643  24001672.4614                   24001673.6054
        37.5004         19.0004
    241982.03947    186675.22346  20958190.2504                   20958190.0434
        47.5004         37.5004
    344142.07847    265066.14146  20500801.2194                   20500800.6604
        47.0004         38.5004
  -1614048.71946  -1238297.65645  24409026.7194                   24409034.9964
        38.5004         31.5004
  -1740559.35247  -1326977.31246  22506721.4844                   22506723.9184
        42.5004         39.5004
   1512270.35546   1164039.41443  25227261.2734                   25227267.6764
        38.2504         22.2504
   2342488.80546   1803985.50845  23811746.6644                   23811752.4774
        40.5004         31.0004
  -2401458.55147  -1829098.42645  23846301.1254                   23846307.3204
        42.2504         33.7504
 05 12 23 17 13 30.0000000  0 11G10G13G15G16G18G23G24G27G26G29G32
  -1111299.96547   -854859.96947  21822976.3524                   21822979.0594
        47.0004         46.5004
   2092022.109 5                  24736720.977
        35.250
   1627962.25047   1253972.10246  22065409.3984                   22065410.1454
        44.5004         39.0004
   1008406.54346    770296.67243  24010744.5474                   24010745.5354
        37.0004         18.2504
    256214.95747    197765.79346  20960898.9614                   20960898.8634
        46.5004         37.2504
    362943.83247    279716.85546  20504378.5314                   20504378.7114
        46.5004         38.2504
  -1684916.23046  -1293518.84845  24395541.0704                   24395549.2384
        38.0004         31.5004
  -1814026.67647  -1384224.57846  22492741.5004                   22492743.6884
        43.0004         39.0004
   1581568.41846   1218037.89843  25240447.6484                   25240454.1994
        37.0004         22.0004
   2451274.33246   1888753.28145  23832448.2504                   23832453.1484
        39.7504         30.2504
  -2509367.95746  -1913183.43045  23825766.3284                   23825772.3244
        41.5004         33.5004
 05 12 23 17 14  0.0000000  0 11G10G13G15G16G18G23G24G27G26G29G32
  -1154854.66047   -888798.63747  21814688.1484                   21814690.4224
        47.5004         46.5004
   2187109.79746   1280033.29753  24754816.2894                   24754815.0704
        39.7504         19.2504
   1703064.15647   1312493.01246  22079700.7504                   22079701.3404
        44.0004         38.5004
   1056468.59046    807747.58242  24019891.0784                   24019892.0274
        37.7504         17.7504
    270749.08247    209091.07046  20963664.8364                   20963664.6024
        46.5004         37.0004
    382033.01247    294591.53546  20508011.1884                   20508011.1454
        46.5004         38.7504
  -1755541.86746  -1348551.55945  24382101.8444                   24382109.3054
        37.7504         32.2504
  -1887050.63747  -1441126.36746  22478845.5474                   22478847.8364
        42.5004         39.2504
   1650880.25446   1272047.00443  25253637.1174                   25253644.6294
        36.2504         22.5004
   2560225.80546   1973650.35545  23853181.4844                   23853186.1454
        39.2504         30.2504
  -2617144.34047  -1997164.75845  23805256.9144                   23805262.6644
        42.5004         33.7504
 05 12 23 17 14 30.0000000  0 11G10G13G15G16G18G23G24G27G26G29G32
  -1198124.34447   -922515.22347  21806454.0474                   21806456.5084
        47.7504         46.5004
   2282502.88346   1328591.50852  24772969.2424                   24772970.8634
        38.5004         16.7504
   1778628.99647   1371374.64846  22094080.1644                   22094080.9224
        42.7504         38.0004
   1104910.81346    845494.70743  24029108.6334                   24029110.4924
        37.5004         19.0004
    285583.26247    220650.16446  20966487.5634                   20966487.4414
        46.2504         37.0004
    401406.38347    309687.66046  20511698.4694                   20511698.0664
        47.0004         38.5004
  -1825924.40246  -1403394.83245  24368707.7194                   24368715.1764
        39.5004         32.2504
  -1959630.89847  -1497682.41046  22465034.1484                   22465036.0904
        42.5004         39.0004
   1720201.20346   1326063.23443  25266829.1484                   25266835.7974
        38.5004         22.7504
   2669338.68446   2058673.22744  23873945.0004                   23873950.4184
        38.5004         29.7504
  -2724787.22746  -2081042.07445  23784772.8524                   23784779.0984
        41.5004         33.7504
 05 12 23 17 15  0.0000000  0 11G10G13G15G16G18G23G24G27G26G29G32
  -1241110.33647   -956010.74247  21798274.1644                   21798276.8164
        47.5004         46.7504
   2378197.74246   1403158.74642  24791179.5164                   24791182.3014
        37.7504         14.7504
   1854653.11747   1430614.18046  22108546.8984                   22108547.6914
        43.5004         38.7504
   1153729.51246    883535.20343  24038398.6024                   24038400.1564
        37.2504         19.0004
    300717.37547    232442.96546  20969367.5164                   20969367.4694
        47.0004         38.0004
    421061.72747    325003.50846  20515438.4064                   20515438.1174
        47.0004         38.5004
  -1896061.45346  -1458046.82845  24355361.1954                   24355368.4654
        38.5004         32.5004
  -2031765.89147  -1553891.50446  22451307.1804                   22451309.5864
        43.2504         39.5004
   1789527.63745   1380083.80943  25280019.8444                   25280027.2074
        35.5004         19.7504
   2778609.69546   2143819.30544  23894738.7974                   23894743.8714
        38.5004         29.7504
  -2832294.95347  -2164814.06245  23764314.5784                   23764320.7344
        42.5004         34.5004
 05 12 23 17 15 30.0000000  0 11G10G13G15G16G18G23G24G27G26G29G32
  -1283814.69947   -989286.82047  21790147.4614                   21790149.6134
        46.7504         47.0004
   2474189.58245   1477957.78942  24809445.4224                   24809448.6524
        35.0004         16.7504
   1931131.84847   1490207.94546  22123100.2664                   22123101.1884
        43.5004         38.7504
   1202920.48446    921865.79743  24047759.7424                   24047761.4024
        38.0004         18.5004
    316150.54347    244468.79746  20972304.2814                   20972304.3094
        46.0004         37.2504
    440996.00447    340536.69946  20519231.8594                   20519231.6994
        47.0004         38.0004
  -1965951.49646  -1512506.34845  24342061.5234                   24342068.6334
        38.7504         32.2504
  -2103455.00447  -1609753.14146  22437664.6254                   22437667.2154
        42.5004         39.7504
   1858855.14546   1434105.18843  25293213.3594                   25293220.3754
        36.5004         22.7504
   2888034.69946   2229085.35944  23915561.8594                   23915566.9694
        38.5004         29.5004
  -2939666.62547  -2248480.05545  23743882.5004                   23743887.9614
        42.7504         35.0004
 05 12 23 17 16  0.0000000  0 11G10G13G15G16G18G23G24G27G26G29G32
  -1326237.30947  -1022343.34847  21782075.1334                   21782077.2194
        47.0004         47.0004
   2570476.71946   1552986.50042  24827768.2344                   24827771.4414
        36.0004         16.2504
   2008063.03947   1550154.27046  22137740.2974                   22137740.6334
        43.5004         38.5004
   1252481.48446    960484.70343  24057191.1644                   24057192.4804
        37.5004         19.5004
    331884.19147    256728.76646  20975298.1414                   20975298.1254
        46.2504         37.2504
    461208.63347    356286.79346  20523078.4144                   20523078.2584
        45.5004         38.2504
  -2035590.67246  -1566770.38345  24328809.2424                   24328816.5704
        37.2504         31.7504
  -2174695.19547  -1665264.97346  22424108.2584                   22424110.6254
        42.7504         39.2504
   1928181.59046   1488125.64543  25306406.2424                   25306414.0314
        36.2504         22.7504
   2997612.25446   2314470.29345  23936413.4144                   23936418.7344
        38.2504         30.0004
  -3046899.12947  -2332037.60545  23723476.4224                   23723482.6484
        43.0004         35.2504
 05 12 23 17 16 30.0000000  0 11G10G13G15G16G18G23G24G27G26G29G32
  -1368379.67248  -1055181.50847  21774055.5164                   21774057.8444
        48.0004         47.0004
   2667054.00446   1628241.67242  24846146.5234                   24846148.9184
        38.7504         16.7504
   2085443.14847   1610450.39846  22152465.7424                   22152465.8444
        43.7504         38.5004
   1302408.88346    999389.15243  24066691.2344                   24066693.2974
        37.5004         19.5004
    347917.96947    269222.60546  20978349.3914                   20978349.0314
        47.0004         37.2504
    481697.12547    372251.84046  20526976.8204                   20526976.5044
        47.2504         38.5004
  -2104976.82046  -1620837.27745  24315605.7734                   24315612.4064
        37.7504         31.5004
  -2245485.25847  -1720426.05946  22410637.3284                   22410640.0554
        42.5004         39.0004
   1997503.23446   1542142.50043  25319597.4454                   25319604.3054
        36.5004         21.5004
   3107338.53546   2399971.12545  23957294.3054                   23957299.1564
        38.0004         30.0004
  -3153991.05547  -2415485.62545  23703097.6724                   23703102.8444
        43.2504         35.5004
 05 12 23 17 17  0.0000000  0 11G10G13G15G16G18G23G24G27G26G29G32
  -1410242.41048  -1087801.77047  21766089.3754                   21766092.1484
        48.2504         47.2504
   2763919.32846   1678541.10953  24864580.6174                   24864580.5594
        37.5004         20.0004
   2163269.35247   1671094.13746  22167275.2504                   22167275.3714
        43.0004         38.5004
   1352699.68046   1038576.73843  24076262.0234                   24076263.6094
        38.5004         20.0004
    364252.52347    281950.82046  20981457.7034                   20981457.6884
        45.7504         37.2504
    502460.00447    388430.69546  20530928.0234                   20530927.7074
        47.0004         38.0004
  -2174106.95746  -1674704.67645  24302450.6414                   24302457.5274
        37.5004         32.2504
  -2315823.02347  -1775234.71546  22397252.5004                   22397254.9454
        42.2504         40.0004
   2066817.10546   1596153.31643  25332788.4384                   25332794.5514
        37.2504         23.5004
   3217211.19546   2485586.01644  23978202.5784                   23978207.8714
        37.0004         28.2504
  -3260940.01647  -2498822.24245  23682745.4384                   23682751.3324
        43.2504         35.0004
 05 12 23 17 17 30.0000000  0 11G10G13G15G16G18G23G24G27G26G29G32
  -1451826.30547  -1120204.75847  21758175.8914                   21758178.3444
        47.5004         47.2504
   2861068.76246   1754241.88743  24883066.7274                   24883068.1954
        37.5004         20.0004
   2241538.17247   1732082.77046  22182169.2664                   22182169.7274
        43.0004         38.5004
   1403351.03146   1078045.25043  24085900.5164                   24085902.3404
        36.2504         20.5004
    380888.28547    294913.72746  20984623.3984                   20984623.3984
        46.2504         37.0004
    523495.69147    404822.13346  20534931.0704                   20534930.4884
        46.5004         38.0004
  -2242978.09846  -1728370.28545  24289343.1954                   24289351.3054
        37.2504         31.0004
  -2385706.48047  -1829689.35546  22383954.2274                   22383956.5904
        42.5004         39.5004
   2136120.33646   1650155.65244  25345974.8984                   25345983.1604
        36.5004         25.2504
   3327227.17646   2571312.57044  23999137.7034                   23999142.8364
        37.5004         29.0004
  -3367743.81247  -2582045.75445  23662421.1254                   23662426.6644
        43.0004         35.2504
 05 12 23 17 18  0.0000000  0 10G10G15G16G18G23G24G27G26G29G32
  -1493133.23848  -1152391.93447  21750315.8834                   21750318.2974
        48.2504         47.5004
   2320245.51247   1793413.11346  22197146.5234                   22197147.1294
        42.5004         38.2504
   1454358.38346   1117791.18043  24095606.9144                   24095608.3484
        36.0004         20.2504
    397824.59447    308110.82046  20987846.2814                   20987846.1764
        46.2504         37.2504
    544801.39847    421423.96946  20538985.1954                   20538984.7854
        46.2504         38.5004
  -2311588.57846  -1781832.78545  24276287.7344                   24276294.8134
        37.7504         32.0004
  -2455134.75447  -1883789.29346  22370742.9774                   22370744.6374
        43.5004         39.7504
   2205408.61746   1704146.51244  25359161.1024                   25359167.9694
        37.2504         24.5004
   3437382.53946   2657147.76644  24020100.2194                   24020104.9574
        37.0004         29.0004
  -3474401.37547  -2665155.32046  23642125.1174                   23642130.3204
        43.0004         36.0004
 05 12 23 17 18 30.0000000  0 10G10G15G16G18G23G24G27G26G29G32
  -1534157.01247  -1184358.46947  21742508.9384                   21742511.3134
        47.5004         47.2504
   2399395.43447   1855088.32046  22212209.1024                   22212209.4144
        43.5004         38.5004
   1505726.06346   1157817.94543  24105381.8914                   24105383.4774
        37.0004         19.7504
    415068.89147    321547.91446  20991127.5784                   20991127.9064
        45.7504         37.5004
    566382.52747    438240.43046  20543092.0554                   20543091.6414
        46.0004         38.0004
  -2379928.37146  -1835084.36745  24263282.6024                   24263290.3554
        36.5004         31.2504
  -2524098.91047  -1937527.59446  22357619.6724                   22357621.1484
        43.0004         39.7504
   2274686.13346   1758128.91844  25372345.0474                   25372350.5554
        37.0004         24.5004
   3547681.72746   2743095.01244  24041088.7974                   24041094.5354
        36.7504         28.5004
  -3580903.53147  -2748143.80145  23621858.1484                   23621863.3014
        43.5004         35.0004
 05 12 23 17 19  0.0000000  0 10G10G15G16G18G23G24G27G26G29G32
  -1574895.07047  -1216102.37147  21734757.0864                   21734758.9924
        47.5004         47.2504
   2478987.85947   1917108.33246  22227354.7504                   22227355.2234
        42.2504         38.7504
   1557454.13746   1198125.44143  24115225.3914                   24115227.1764
        37.2504         20.0004
    432625.01647    335227.98446  20994468.6174                   20994468.4264
        47.0004         37.0004
    588240.76247    455272.80546  20547251.5004                   20547251.0664
        46.7504         38.5004
  -2447991.41046  -1888120.31645  24250331.5314                   24250337.9494
        37.0004         31.5004
  -2592593.55947  -1990900.04346  22344584.9844                   22344586.8484
        43.0004         40.2504
   2343952.97746   1812102.99643  25385524.1884                   25385532.1604
        36.0004         22.2504
   3658125.22346   2829154.67244  24062106.7894                   24062111.3404
        37.7504         29.0004
  -3687244.73847  -2831006.87145  23601622.1644                   23601627.2504
        43.7504         35.5004
 05 12 23 17 19 30.0000000  0 10G10G15G16G18G23G24G27G26G29G32
  -1615346.03147  -1247622.56247  21727059.1954                   21727061.4494
        47.5004         47.2504
   2559022.27747   1979472.76246  22242584.8524                   22242585.3794
        42.5004         39.0004
   1609541.77046   1238713.16043  24125137.3834                   24125138.9264
        37.5004         19.0004
    450495.52747    349153.02746  20997869.4064                   20997869.1484
        46.2504         37.7504
    610376.63347    472521.52046  20551464.0234                   20551463.3134
        46.5004         37.7504
  -2515772.58246  -1940936.63345  24237432.7814                   24237439.3014
        36.7504         31.0004
  -2660614.66847  -2043903.50046  22331641.1884                   22331643.0864
        43.0004         40.2504
   2413208.43845   1866068.21143  25398704.0944                   25398711.0354
        35.0004         21.5004
   3768712.21546   2915326.19944  24083149.7584                   24083155.5004
        37.5004         29.2504
  -3793420.62547  -2913741.13746  23581417.6254                   23581422.3674
        43.2504         36.0004
 05 12 23 17 20  0.0000000  0 10G10G15G16G18G23G24G27G26G29G32
  -1655515.31647  -1278923.26647  21719415.2664                   21719417.5274
        47.5004         47.5004
   2639490.77747   2042175.41846  22257897.7734                   22257898.0594
        42.5004         38.2504
   1661981.50946   1279575.24443  24135116.3054                   24135118.1644
        38.0004         19.2504
    468676.31647    363319.85946  21001329.0704                   21001329.2154
        46.5004         37.7504
    632784.01247    489981.78946  20555727.7814                   20555727.5124
        46.5004         38.5004
  -2583273.46946  -1993534.54345  24224587.5704                   24224594.5824
        36.7504         30.2504
  -2728164.84047  -2096539.99646  22318787.1334                   22318789.3674
        43.2504         40.2504
   2482444.94545   1920018.69143  25411880.2584                   25411886.1684
        35.0004         23.0004
   3879435.67646   3001604.00444  24104220.3524                   24104226.0704
        37.7504         28.7504
  -3899433.55147  -2996348.43045  23561243.8134                   23561248.6644
        44.0004         35.7504
 05 12 23 17 20 30.0000000  0 10G10G15G16G18G23G24G27G26G29G32
  -1695408.75047  -1310009.01247  21711823.5164                   21711826.4494
        47.7504         47.2504
   2720385.02047   2105209.84446  22273290.6884                   22273292.0044
        43.0004         38.2504
   1714764.77346   1320705.05143  24145161.7974                   24145162.5824
        37.5004         19.2504
    487162.75047    377724.84846  21004846.9534                   21004846.5204
        46.2504         37.0004
    655456.14547    507648.37146  20560042.5474                   20560042.3444
        46.7504         38.0004
  -2650496.41845  -2045915.89845  24211795.2894                   24211802.4844
        35.5004         31.7504
  -2795247.20747  -2148811.96546  22306021.2274                   22306023.8674
        43.0004         40.7504
   2551654.49645   1973948.11743  25425050.6724                   25425056.6334
        34.7504         23.7504
   3990287.82846   3087982.12145  24125315.6644                   24125320.0744
        37.5004         30.0004
  -4005286.40247  -3078830.98046  23541100.0474                   23541105.2384
        44.0004         36.5004
 05 12 23 17 21  0.0000000  0 10G10G15G16G18G23G24G27G26G29G32
  -1735026.12147  -1340879.65247  21704284.4144                   21704287.1804
        47.7504         47.2504
   2801702.88747   2168574.35246  22288765.2974                   22288766.1644
        42.7504         38.5004
   1767889.95346   1362101.21943  24155270.4694                   24155271.4964
        38.0004         19.2504
    505956.32847    392369.16446  21008423.1254                   21008422.8634
        47.2504         36.7504
    678392.52047    525520.86346  20564406.9454                   20564406.4494
        46.0004         37.7504
  -2717437.32445  -2098077.48445  24199056.9614                   24199063.7194
        35.2504         30.2504
  -2861858.75047  -2200717.06246  22293345.8674                   22293347.5904
        43.0004         41.2504
   2620835.16445   2027855.03143  25438215.3834                   25438221.4884
        35.5004         20.7504
   4101266.78146   3174459.01645  24146433.8284                   24146439.0904
        38.2504         30.5004
  -4110975.91447  -3161186.27346  23520987.8834                   23520993.1134
        44.0004         36.7504
 05 12 23 17 21 30.0000000  0 10G10G15G16G18G23G24G27G26G29G32
  -1774370.70347  -1371537.72747  21696797.5944                   21696799.8404
        47.5004         47.5004
   2883439.06347   2232264.80146  22304319.3984                   22304320.2734
        42.7504         37.5004
   1821351.35246   1403759.43843  24165443.3204                   24165445.0204
        36.5004         19.2504
    525054.94147    407251.17646  21012057.4694                   21012057.4264
        46.0004         36.7504
    701589.02747    543596.04746  20568820.9614                   20568820.9304
        45.5004         38.0004
  -2784096.00046  -2150019.16445  24186371.6254                   24186378.5234
        36.0004         30.0004
  -2928000.09847  -2252255.77346  22280759.9454                   22280761.7114
        43.0004         41.2504
   2689981.32845   2081735.12943  25451372.0084                   25451379.4344
        31.7504         22.5004
   4212367.58646   3261030.85544  24167575.8054                   24167581.1294
        38.0004         29.2504
  -4216502.42247  -3243414.54746  23500906.8134                   23500912.0434
        43.7504         36.5004
 05 12 23 17 22  0.0000000  0 11G10G08G15G16G18G23G24G27G26G29G32
  -1813450.79348  -1401989.71147  21689360.6484                   21689363.2504
        48.0004         47.5004
   -194840.21556   -129218.34054  24919385.6334                   24919388.7154
        37.2504         26.7504
   2965582.71547   2296272.77346  22319951.5234                   22319951.0044
        42.7504         37.5004
   1875138.09446   1445671.15243  24175678.5634                   24175680.3634
        37.2504         19.0004
    544451.57047    422365.39546  21015748.9304                   21015748.2704
        47.2504         37.5004
    725036.56347    561866.84046  20573283.0234                   20573282.9144
        46.7504         38.0004
  -2850476.84446  -2201744.36344  24173739.7504                   24173746.3524
        36.2504         29.5004
  -2993676.80947  -2303432.42646  22268261.7274                   22268263.7734
        43.2504         40.5004
   2759082.79345   2135580.25043  25464521.8594                   25464529.2854
        32.7504         21.7504
   4323579.68446   3347689.44545  24188738.7894                   24188744.2704
        37.7504         30.2504
  -4321871.19147  -3325519.91446  23480855.8364                   23480860.7624
        43.7504         36.0004
 05 12 23 17 22 30.0000000  0 11G10G08G15G16G18G23G24G27G26G29G32
  -1852272.68048  -1432240.49247  21681973.2584                   21681975.7664
        48.2504         47.7504
   -293276.99256   -205922.21554  24900653.6174                   24900656.2624
        37.7504         24.2504
   3048125.37947   2360591.68046  22335658.0944                   22335659.0784
        42.0004         38.0004
   1929241.83246   1487829.85942  24185974.4614                   24185976.0904
        37.7504         17.7504
    564141.24247    437707.97746  21019495.4144                   21019495.3134
        47.0004         37.2504
    748728.05547    580327.71946  20577791.5944                   20577791.3594
        46.2504         38.0004
  -2916582.61345  -2253255.23045  24161160.2664                   24161166.8014
        35.5004         30.2504
  -3058892.42647  -2354249.78546  22255851.3284                   22255853.3594
        43.0004         40.5004
   2828130.96155   2189384.00053  25477662.0004                   25477668.5044
        33.5004         21.5004
   4434894.80146   3434428.25445  24209921.2584                   24209927.2344
        36.7504         30.7504
  -4427085.44947  -3407504.89546  23460833.6564                   23460838.9344
        43.5004         36.5004
 05 12 23 17 23  0.0000000  0 11G10G08G15G16G18G23G24G27G26G29G32
  -1890839.21948  -1462292.30547  21674634.4774                   21674636.7424
        48.0004         47.5004
   -391515.47346   -282471.90244  24881959.5554                   24881962.1764
        38.2504         25.2504
   3131061.87547   2425217.45346  22351440.6954                   22351441.1524
        42.5004         38.0004
   1983657.57046   1530231.66043  24196330.1414                   24196331.6374
        37.0004         18.2504
    584122.34847    453277.64146  21023297.8674                   21023297.8284
        46.5004         37.2504
    772659.93447    598975.91446  20582345.2664                   20582345.2424
        46.2504         37.7504
  -2982412.37146  -2304551.02745  24148632.8134                   24148639.7974
        36.0004         30.5004
  -3123647.08247  -2404707.95346  22243529.4844                   22243531.1994
        43.2504         40.5004
                                  25490787.6644                   25490797.0824
        27.5004         21.5004
   4546308.38346   3521243.81345  24231122.7814                   24231128.7544
        37.7504         31.5004
  -4532145.05147  -3489369.36745  23440841.3914                   23440846.6564
        43.2504         35.5004
 05 12 23 17 23 30.0000000  0 11G10G08G15G16G18G23G24G27G26G29G32
  -1929145.57848  -1492141.38747  21667344.8754                   21667347.0944
        48.5004         47.7504
   -489548.23456   -358861.05554  24863304.2664                   24863308.4654
        36.2504         29.2504
   3214394.78547   2490152.12546  22367298.5704                   22367298.9614
        42.2504         38.0004
   2038387.58646   1572878.44143  24206743.5164                   24206745.8594
        36.2504         19.7504
    604400.91447    469079.09446  21027156.4694                   21027156.7504
        46.7504         37.0004
    796836.18047    617814.53146  20586945.8834                   20586945.9264
        46.2504         38.0004
  -3047957.58246  -2355625.11744  24136160.5234                   24136166.6374
        36.2504         29.7504
  -3187933.35247  -2454801.14546  22231295.8914                   22231298.0314
        43.0004         40.7504
   2966055.25455   2296857.21553  25503905.9454                   25503914.8324
        30.5004         20.7504
   4657823.15246   3608138.24645  24252342.7584                   24252349.0784
        38.0004         30.0004
  -4637042.21547  -3571107.27345  23420880.0314                   23420885.1454
        43.2504         35.7504
 05 12 23 17 24  0.0000000  0 11G10G08G15G16G18G23G24G27G26G29G32
  -1967192.16448  -1521788.04347  21660104.9304                   21660107.3954
        48.0004         47.7504
   -587372.30946   -435087.59044  24844688.5234                   24844693.2544
        37.7504         29.5004
   3298121.03147   2555393.29746  22383231.2194                   22383231.8094
        43.0004         37.2504
   2093429.18046   1615767.95743  24217218.5314                   24217219.6994
        36.7504         18.5004
    624977.81347    485113.00046  21031072.4614                   21031072.2154
        47.5004         37.0004
    821255.66847    636842.67646  20591593.3204                   20591592.8094
        45.5004         38.2504
  -3113215.04346  -2406474.98844  24123743.0394                   24123748.5944
        36.0004         29.7504
  -3251748.80947  -2504527.47346  22219152.3364                   22219154.1024
        43.0004         40.7504
   3034931.65255   2350527.07053  25517014.8134                   25517021.5164
        33.7504         22.2504
   4769436.77346   3695109.67245  24273582.7974                   24273589.3094
        38.2504         32.2504
  -4741774.19547  -3652716.46946  23400950.3524                   23400955.2424
        43.7504         36.2504
 05 12 23 17 24 30.0000000  0 11G10G08G15G16G18G23G24G27G26G29G32
  -2004977.35548  -1551231.01647  21652914.6094                   21652917.0784
        48.5004         47.7504
   -684983.05145   -511148.07843  24826113.2034                   24826117.8364
        31.5004         20.0004
   3382240.35547   2620940.75046  22399238.5864                   22399238.5744
        42.0004         37.0004
   2148781.69946   1658899.78143  24227751.5784                   24227752.8554
        36.7504         19.5004
    645855.94947    501381.64146  21035045.4454                   21035045.3954
        46.5004         37.0004
    845919.25447    656061.02346  20596286.1254                   20596286.0634
        45.7504         38.0004
  -3178179.39546  -2457096.46144  24111380.2274                   24111386.2774
        36.5004         29.7504
  -3315089.27347  -2553883.67246  22207098.8834                   22207100.9804
        43.7504         41.5004
   3103749.62155   2404151.40254  25530111.5634                   25530118.6094
        34.0004         25.0004
   4881149.26246   3782158.10545  24294841.9534                   24294847.2854
        39.2504         32.7504
  -4846336.46147  -3734193.43446  23381052.1484                   23381057.1294
        44.0004         36.5004
 05 12 23 17 25  0.0000000  0 11G10G08G15G16G18G23G24G27G26G29G32
  -2042499.94948  -1580469.37147  21645774.0704                   21645776.6054
        48.5004         47.5004
   -782376.27056   -587038.85954  24807581.4384                   24807584.7624
        38.5004         29.0004
   3466751.46547   2686793.50046  22415319.9454                   22415320.8204
        42.2504         37.0004
   2204444.04346   1702272.96943  24238344.3594                   24238345.0314
        37.0004         18.5004
    667037.71547    517886.87946  21039076.1564                   21039075.7974
        45.7504         37.2504
    870827.38747    675469.92246  20601026.3834                   20601026.4964
        45.5004         38.0004
  -3242845.71946  -2507485.71545  24099074.1724                   24099080.4574
        37.0004         30.2504
  -3377950.79347  -2602866.66446  22195137.1254                   22195138.9804
        43.5004         41.0004
   3172508.15654   2457729.43053  25543193.4924                   25543202.6644
        29.0004         22.0004
   4992959.92646   3869283.03945  24316119.0474                   24316124.9224
        39.0004         32.5004
  -4950724.70747  -3815534.80546  23361188.6174                   23361193.0044
        43.5004         36.5004
 05 12 23 17 25 30.0000000  0 11G10G08G15G16G18G23G24G27G26G29G32
  -2079764.24647  -1609506.45347  21638682.9224                   21638685.2344
        47.7504         47.5004
   -879553.23055   -662761.12953  24789087.8444                   24789092.5554
        33.5004         22.7504
   3551647.48847   2752946.18446  22431475.3754                   22431476.2234
        42.0004         36.7504
   2260409.75046   1745882.60543  24248995.1724                   24248995.5124
        37.2504         19.5004
    688520.13747    534626.40246  21043164.0314                   21043164.5514
        46.7504         37.2504
    895975.10947    695065.52746  20605811.5164                   20605811.6524
        46.0004         37.7504
