     2.11           OBSERVATION DATA    G (GPS)             RINEX VERSION / TYPE
teqc  2019Feb25                         20250821 05:29:43UTCPGM / RUN BY / DATE
Linux 2.6.32-573.12.1.x86_64|x86_64|gcc -static|Linux 64|=+ COMMENT
BIT 2 OF LLI FLAGS DATA COLLECTED UNDER A/S CONDITION       COMMENT
35323560                                                    MARKER NAME
3560                                                        MARKER NUMBER
-Unknown-           -Unknown-                               OBSERVER / AGENCY
0220413532          TRIMBLE R7          2.32                REC # / TYPE / VERS
-Unknown-           TRM39105.00     NONE                    ANT # / TYPE
 -2418318.1505 -4604951.8678  3681203.6206                  APPROX POSITION XYZ
        0.0000        0.0000        0.0000                  ANTENNA: DELTA H/E/N
     1     1                                                WAVELENGTH FACT L1/2
     7    L1    L2    C1    P1    P2    S1    S2            # / TYPES OF OBSERV
    18                                                      LEAP SECONDS
 SNR is mapped to RINEX snr flag value [0-9]                COMMENT
  L1 & L2: min(max(int(snr_dBHz/6), 0), 9)                  COMMENT
  2025     8     7    21    30   30.0000000     GPS         TIME OF FIRST OBS
                                                            END OF HEADER
 25  8  7 21 30 30.0000000  0  7G01G02G10G28G31G32G08
   -374570.21157   -226532.76255  21859501.5164                   21859502.4844
        44.5004         34.2504
   -319469.82057   -215420.11356  21386488.7974                   21386487.1294
        46.5004         38.0004
   -247054.26657   -171664.77756  22818392.6414                   22818396.4304
        43.5004         40.0004
   -312590.60258   -182879.15656  20925891.4304                   20925891.5784
        48.0004         38.2504
   -415294.33258   -279950.61357  21122243.7274                   21122244.1454
        48.7504         44.7504
   -242887.07457   -164746.87957  22243298.5784                   22243300.5784
        47.5004         44.0004
   -215709.98056   -101193.06654  25287988.3054                   25288001.5124
        36.0004         24.5004
 25  8  7 21 31  0.0000000  0 10G01G02G25G10G28G31G32G08G03G04
   -695400.85247   -476530.66045  21798448.9224                   21798450.3714
        45.0004         34.0004
   -575566.31647   -414975.85946  21337755.3674                   21337753.4184
        46.7504         37.5004
   -364789.48455   -215782.21154  24523954.5234                   24523960.5514
        34.5004         24.0004
   -445443.55147   -326253.93746  22780640.2114                   22780643.8134
        43.0004         40.0004
   -577200.82447   -389068.93746  20875538.0084                   20875538.0904
        46.2504         37.5004
   -748178.46548   -539340.78547  21058898.2194                   21058898.3164
        48.5004         44.5004
   -438110.01247   -316868.69147  22206149.1644                   22206151.0904
        47.5004         44.0004
   -400102.35946   -244875.77044  25252899.5394                   25252912.7624
        36.2504         24.7504
                                  23448938.5554                   23448943.5474
        29.7504         20.0004
   -570900.86356   -354188.13753  24782887.1564                   24782896.6844
        38.0004         20.7504
 25  8  7 21 31 30.0000000  0  9G01G02G25G10G28G31G32G08G04
  -1015901.17247   -726271.12545  21737460.2274                   21737461.0044
        44.5004         31.5004
   -831267.33247   -614223.45346  21289097.4534                   21289095.1764
        47.7504         38.0004
   -650930.07046   -438748.91044  24469504.4064                   24469510.2544
        36.0004         27.7504
   -643707.96947   -480745.78946  22742912.0004                   22742915.6524
        44.5004         39.5004
   -841338.52747   -594890.52746  20825274.2974                   20825274.1054
        47.2504         38.0004
  -1080701.65248   -798449.70347  20995621.0944                   20995621.4884
        48.7504         44.7504
   -633351.77048   -469005.14147  22168995.3054                   22168997.7034
        48.0004         44.0004
   -584702.66845   -388720.46544  25217772.0704                   25217785.3554
        35.7504         26.5004
   -913556.03146   -621191.97743  24717682.1094                   24717691.1414
        37.5004         21.5004
 25  8  7 21 32  0.0000000  0  9G01G02G25G10G28G31G32G08G04
  -1335993.92247   -975694.01245  21676548.7664                   21676549.8324
        44.7504         32.0004
  -1086497.82448   -813104.39846  21240528.6484                   21240526.3874
        48.7504         37.7504
   -936660.56645   -661395.94944  24415131.2584                   24415138.2774
        35.2504         26.2504
   -841772.36347   -635081.78546  22705221.7894                   22705225.4024
        44.0004         39.0004
  -1104928.68448   -800285.44946  20775114.4534                   20775114.3444
        48.0004         37.5004
  -1412786.52048  -1057217.07447  20932427.6024                   20932427.4454
        49.2504         44.5004
   -828538.39848   -621098.67247  22131852.7734                   22131854.7934
        48.0004         43.7504
   -769438.52046   -532670.82044  25182617.4924                   25182631.0044
        37.5004         27.5004
  -1256132.53545   -888134.52343  24652491.1484                   24652501.3914
        35.7504         20.7504
 25  8  7 21 32 30.0000000  0  9G01G02G25G10G28G31G32G08G04
  -1655640.68057  -1224769.32053  21615721.8054                   21615722.9614
        42.2504         23.2504
  -1341221.29347  -1011590.27346  21192056.8204                   21192054.0664
        47.5004         37.7504
                                  24360843.1804                   24360850.4224
        34.5004         25.5004
  -1039600.35947   -789233.58646  22667575.8674                   22667580.0784
        43.2504         38.7504
  -1367935.10947  -1005225.51646  20725066.0234                   20725066.3674
        47.7504         37.2504
  -1744394.29348  -1315612.68047  20869324.7194                   20869324.5704
        49.0004         45.2504
  -1023634.85547   -773121.91847  22094727.1254                   22094729.4454
        47.7504         44.7504
   -954276.20346   -676700.46944  25147443.9064                   25147458.0984
        36.5004         27.0004
  -1598593.62146  -1154987.12543  24587322.8284                   24587332.4734
        37.7504         19.7504
 25  8  7 21 33  0.0000000  0 10G01G02G25G10G28G31G32G08G03G04
   -399381.54347   -245866.12545  21854780.0634                   21854780.8364
        45.0004         33.5004
    -19982.44147     17946.47346  21443479.3134                   21443477.7424
        47.5004         37.7504
     68682.07845    121988.06344  24606441.6094                   24606447.0004
        35.5004         24.0004
    338261.77347    284425.12146  22929774.8284                   22929778.6334
        44.0004         39.5004
    -54902.23448     17916.98846  20974927.7664                   20974927.1764
        48.0004         37.5004
   -500064.54348   -346005.02047  21106112.1724                   21106112.1454
        49.0004         44.5004
    356811.12147    302550.21547  22357417.4144                   22357419.2424
        46.7504         43.7504
    436234.79346    406814.27344  25412050.1174                   25412063.7034
        36.5004         27.2504
                                  23485322.5784                   23485328.3484
        32.5004         28.0004
   -365480.90646   -194119.98043  24821976.5004                   24821985.8094
        37.2504         19.0004
 25  8  7 21 33 30.0000000  0 10G01G02G25G10G28G31G32G08G03G04
   -718054.06647   -494182.35245  21794138.6564                   21794139.7114
        44.5004         30.7504
   -273616.90248   -179690.82046  21395214.8204                   21395212.6374
        48.5004         38.7504
   -215621.98056    -99547.51254  24552341.0394                   24552345.5744
        36.5004         27.0004
    140982.60247    130700.98846  22892234.2664                   22892237.6524
        43.7504         38.5004
   -316665.94547   -186054.71946  20925115.8754                   20925115.7274
        47.0004         37.0004
   -830635.08648   -603592.39547  21043206.8284                   21043206.9494
        49.2504         44.5004
    161966.03957    150722.62557  22320340.0394                   22320341.7234
        47.0004         44.5004
    251261.28546    262678.80144  25376851.1884                   25376864.7074
        37.5004         27.0004
    802628.82855    372072.72353  23419483.3204                   23419487.7544
        30.5004         18.5004
   -707634.75046   -460733.20743  24756867.2894                   24756876.4304
        37.7504         21.0004
 25  8  7 21 34  0.0000000  0  9G01G02G25G10G28G31G32G08G04
  -1036216.53947   -742101.15645  21733594.5394                   21733595.2304
        45.7504         34.0004
   -526687.30548   -376888.53946  21347057.0394                   21347055.0824
        48.0004         36.2504
                                  24498335.000
        34.000
                                  22854748.8284                   22854754.0634
        44.7504         39.2504
   -577788.89147   -389527.13746  20875426.0944                   20875426.1174
        44.7504         36.5004
  -1160663.76248   -860757.52347  20980404.3134                   20980404.8794
        48.7504         43.5004
    -32734.09848      -991.80947  22283289.7274                   22283291.9734
        48.0004         42.2504
     66235.66446    118502.69944  25341642.2504                   25341655.6564
        38.2504         28.7504
  -1049614.44946   -727210.66443  24691790.1644                   24691799.9654
        36.7504         20.0004
