     2.11           OBSERVATION DATA    G (GPS)             RINEX VERSION / TYPE
teqc  2019Feb25                         20250821 05:38:45UTCPGM / RUN BY / DATE
Linux 2.6.32-573.12.1.x86_64|x86_64|gcc -static|Linux 64|=+ COMMENT
BIT 2 OF LLI FLAGS DATA COLLECTED UNDER A/S CONDITION       COMMENT
35323561                                                    MARKER NAME
3561                                                        MARKER NUMBER
-Unknown-           -Unknown-                               OBSERVER / AGENCY
0220413532          TRIMBLE R7          2.32                REC # / TYPE / VERS
-Unknown-           TRM39105.00     NONE                    ANT # / TYPE
 -2418317.7335 -4604948.7708  3681201.8318                  APPROX POSITION XYZ
        0.0000        0.0000        0.0000                  ANTENNA: DELTA H/E/N
     1     1                                                WAVELENGTH FACT L1/2
     7    L1    L2    C1    P1    P2    S1    S2            # / TYPES OF OBSERV
    18                                                      LEAP SECONDS
 SNR is mapped to RINEX snr flag value [0-9]                COMMENT
  L1 & L2: min(max(int(snr_dBHz/6), 0), 9)                  COMMENT
  2025     8     7    21    36   30.0000000     GPS         TIME OF FIRST OBS
                                                            END OF HEADER
 25  8  7 21 36 30.0000000  0  8G01G02G03G10G28G31G32G04
   -320344.28957   -166844.84855  21732346.7894                   21732348.0824
        45.5004         34.0004
   -252136.04358   -137296.57456  21407882.2194                   21407880.3324
        48.7504         38.0004
   -323441.92256   -136246.99255  23324679.8834                   23324685.3014
        39.0004         34.2504
   -181912.41057   -102073.93456  22968167.8054                   22968171.9614
        43.0004         39.2504
   -261609.23057   -136214.64856  20928806.8444                   20928807.1294
        45.5004         38.0004
   -330088.04358   -172922.02757  20967959.3674                   20967959.4574
        49.5004         45.2504
   -195192.43057   -101286.67257  22398446.1024                   22398447.9734
        47.0004         43.5004
   -289780.82856   -132660.79753  24666909.8594                   24666918.7074
        39.0004         22.7504
 25  8  7 21 37  0.0000000  0 10G01G02G03G10G28G31G32G04G26G25
   -635240.85247   -412218.76245  21672424.4614                   21672424.8794
        45.2504         34.0004
   -501663.98448   -331733.95346  21360398.3834                   21360396.2894
        50.0004         38.0004
   -668846.74646   -405393.37145  23258950.4144                   23258957.0554
        38.7504         31.5004
   -376970.37947   -254067.26246  22931049.3834                   22931053.7974
        42.2504         39.0004
   -518731.38347   -336569.56246  20879878.3364                   20879878.4924
        45.5004         37.2504
   -656654.79348   -427389.56247  20905815.8204                   20905815.7934
        49.2504         45.5004
   -388891.62947   -252221.15247  22361586.1024                   22361588.6414
        45.7504         43.0004
   -630548.74246   -398194.08643  24602063.5864                   24602072.8714
        37.0004         20.0004
   -557273.59856   -361993.90654  25177584.7114                   25177597.9224
        37.0004         28.2504
   -487950.60256   -285645.55554  24476410.0084                   24476415.5124
        36.2504         25.0004
 25  8  7 21 37 30.0000000  0 10G01G02G03G10G28G31G32G04G26G25
   -949740.71547   -657283.57845  21612576.5784                   21612577.7624
        46.0004         34.7504
   -750757.24648   -525832.61746  21312997.2584                   21312995.6414
        49.0004         38.0004
  -1014313.68446   -674588.39845  23193210.8364                   23193216.4654
        39.5004         35.0004
   -571862.03147   -405931.00846  22893962.9454                   22893967.5664
        43.0004         39.0004
   -775342.80947   -536526.52746  20831047.2114                   20831047.1254
        46.2504         37.7504
   -982791.54348   -681522.04347  20843754.1804                   20843753.8364
        49.0004         45.0004
   -582582.99247   -403149.52047  22324727.9384                   22324730.1484
        46.2504         43.0004
   -971268.50846   -663689.89543  24537226.3984                   24537235.6914
        36.5004         19.0004
   -902596.77745   -631076.70344  25111871.5784                   25111884.9804
        35.5004         27.5004
   -768078.84346   -503927.28644  24423103.8674                   24423109.0164
        38.0004         26.7504
 25  8  7 21 38  0.0000000  0 10G01G02G03G10G28G31G32G04G26G25
  -1263723.82847   -901945.71545  21552827.8204                   21552828.6094
        46.7504         34.5004
   -999298.16448   -719500.89546  21265701.7274                   21265699.9224
        48.7504         38.0004
  -1359723.60946   -943738.80545  23127481.3524                   23127484.3714
        40.0004         31.5004
   -766469.30547   -557573.16446  22856930.7034                   22856934.7814
        43.2504         38.5004
  -1031325.77747   -735993.77346  20782335.3204                   20782335.0004
        46.0004         37.5004
  -1308377.73848   -935225.51247  20781797.0394                   20781796.9654
        48.7504         45.2504
   -776149.58647   -553980.68747  22287893.9454                   22287895.8094
        46.7504         43.0004
  -1311821.74245   -929055.91443  24472421.8444                   24472430.4454
        35.5004         18.2504
  -1248028.86746   -900244.37144  25046137.8134                   25046151.4574
        36.5004         27.5004
  -1047691.38346   -721807.14844  24369895.7424                   24369901.2854
        37.2504         26.7504
 25  8  7 21 38 30.0000000  0 10G01G02G03G10G28G31G32G04G26G25
  -1577161.97347  -1146183.20345  21493182.4844                   21493183.3244
        46.2504         34.5004
  -1247260.80148   -912718.55946  21218516.0864                   21218514.2774
        49.7504         38.0004
  -1705049.35546  -1212823.68045  23061767.3284                   23061773.4884
        38.0004         32.2504
   -960766.12547   -708973.39546  22819957.6954                   22819961.3054
        43.0004         38.5004
  -1286654.58247   -934951.28146  20733747.3754                   20733747.8134
        46.0004         37.2504
  -1633385.26248  -1188478.07047  20719949.8054                   20719949.9414
        49.5004         45.0004
   -969566.51247   -704695.21547  22251087.7894                   22251090.3794
        46.7504         43.5004
  -1652181.96545  -1194271.50043  24407653.3284                   24407662.0514
        35.5004         20.5004
  -1593541.12945  -1169474.53544  24980389.5164                   24980402.7814
        35.7504         29.2504
  -1326760.54345   -939263.61344  24316790.2974                   24316796.5434
        34.7504         26.0004
 25  8  7 21 39  0.0000000  0 10G01G02G03G10G28G31G32G04G26G25
   -314609.87947   -162376.35245  21733438.1254                   21733438.7664
        46.2504         34.5004
     80795.57048    122130.53946  21471237.0004                   21471234.8134
        49.5004         38.0004
   -474845.37546   -254223.13745  23295868.1414                   23295871.6094
        38.7504         33.0004
    420686.91447    367483.40646  23082839.3444                   23082843.1524
        44.0004         38.0004
     34111.68447     94217.24646  20985080.9614                   20985080.8954
        45.5004         38.0004
   -382368.07448   -213659.42647  20958010.4774                   20958010.7664
        49.5004         45.2504
    412604.58247    372321.17647  22514105.7974                   22514107.6844
        45.2504         42.7504
   -416904.62946   -231717.60243  24642718.6884                   24642727.9304
        38.0004         22.2504
   -363686.72746   -211146.24644  25214422.5784                   25214435.9344
        36.0004         27.7504
    -29842.17645     71322.14844  24563584.4844                   24563591.3284
        35.7504         25.7504
 25  8  7 21 39 30.0000000  0 10G01G02G03G10G28G31G32G04G26G25
   -626920.28947   -405735.08245  21674007.5554                   21674008.5234
        46.2504         34.5004
   -165979.97748    -70162.11746  21424276.8524                   21424274.9654
        49.0004         37.7504
   -819967.77046   -523149.52345  23230193.5634                   23230198.3594
        41.2504         35.5004
    227042.89547    216591.85246  23045990.2584                   23045994.2274
        42.7504         37.5004
   -219878.34047   -103697.05946  20936748.3914                   20936748.2974
        47.0004         38.0004
   -706179.75848   -465980.16047  20896391.4694                   20896391.1294
        49.5004         45.2504
    219515.72747    221862.29747  22477362.4774                   22477365.1884
        47.0004         43.0004
   -756846.02746   -496606.82043  24578030.0314                   24578038.8444
        36.7504         22.0004
   -709320.04346   -480470.75044  25148650.6484                   25148663.6564
        36.5004         27.7504
   -307787.40245   -145258.55544  24510694.1024                   24510700.0234
        34.2504         25.0004
 25  8  7 21 40  0.0000000  0 10G01G02G03G10G28G31G32G04G26G25
   -938654.62547   -648644.91845  21614686.3054                   21614687.2034
        46.5004         34.7504
   -412153.24648   -261985.47346  21377431.8204                   21377429.8204
        49.2504         37.7504
  -1164977.50846   -791988.16445  23164538.4844                   23164543.7424
        37.5004         31.2504
     33734.47347     65961.79746  23009204.5004                   23009208.9494
        43.0004         38.2504
   -473190.46147   -301083.12946  20888544.5004                   20888544.5904
        47.0004         37.5004
  -1029380.80148   -717825.07447  20834888.2504                   20834888.3244
        49.0004         45.7504
     26598.42247     71537.07847  22440651.6804                   22440653.2384
        47.0004         43.0004
  -1096568.46145   -761325.41443  24513382.3984                   24513391.2734
        34.0004         19.7504
  -1055000.96145   -749832.31244  25082870.1414                   25082882.9224
        35.2504         27.7504
   -585159.09846   -361392.28944  24457912.3594                   24457917.2194
        36.5004         26.0004
 25  8  7 21 40 30.0000000  0 10G01G02G03G10G28G31G32G04G26G25
  -1249808.23847   -891102.24645  21555475.4614                   21555476.4734
        45.2504         34.7504
   -657721.79748   -453337.61346  21330701.5634                   21330699.5164
        49.7504         38.2504
  -1509870.83246  -1060736.13745  23098908.2584                   23098914.5824
        38.7504         34.0004
   -159235.77347    -84404.75046  22972484.1954                   22972488.1134
        43.5004         38.2504
   -725822.51647   -497939.26646  20840470.6724                   20840470.4694
        47.0004         37.7504
  -1351966.80948   -969190.73847  20773502.1954                   20773502.2894
        49.7504         45.5004
   -166145.78147    -78653.26247  22403974.0004                   22403975.8984
        46.7504         42.7504
  -1436068.92245  -1025871.01243  24448777.2274                   24448786.0124
        34.7504         18.5004
  -1400724.16846  -1019226.83244  25017080.5234                   25017093.9734
        36.0004         27.2504
   -861952.87945   -577075.70343  24405240.3524                   24405245.1954
        35.5004         23.5004
 25  8  7 21 41  0.0000000  0 10G01G02G03G10G28G31G32G04G26G25
  -1560380.70347  -1133106.73445  21496375.7734                   21496376.4734
        45.2504         34.5004
   -902687.77348   -644220.21546  21284086.2584                   21284084.4924
        49.5004         38.5004
  -1854648.30146  -1329393.79745  23033299.5944                   23033302.5634
        40.5004         33.5004
   -351869.40247   -234508.98846  22935826.4064                   22935831.0594
        42.5004         38.0004
   -977776.60947   -694267.12946  20792525.1414                   20792525.3484
        46.0004         38.0004
  -1673936.85948  -1220076.43447  20712233.3204                   20712233.1524
        49.0004         45.5004
   -358719.49647   -228710.71147  22367327.9224                   22367330.0514
        45.5004         42.7504
  -1775348.71546  -1290244.71143  24384214.4924                   24384223.5434
        36.2504         19.0004
  -1746488.75446  -1288653.58644  24951283.6174                   24951296.8984
        36.7504         28.5004
  -1138168.69545   -792308.78144  24352677.8444                   24352683.4264
        35.7504         24.5004
 25  8  7 21 41 30.0000000  0 10G01G02G03G10G28G31G32G04G26G25
  -1870372.38347  -1374658.66045  21437386.5784                   21437387.0204
        46.5004         34.5004
  -1147053.87948   -834635.39146  21237585.0554                   21237582.9494
        49.0004         37.5004
  -2199310.94546  -1597961.93445  22967711.2504                   22967718.3284
        39.2504         34.5004
   -544168.80547   -384352.79346  22899233.6254                   22899237.6764
        43.0004         37.5004
  -1229055.54747   -890068.89546  20744708.2344                   20744708.3284
        47.2504         37.5004
  -1995291.27348  -1470482.41047  20651081.4774                   20651081.2894
        48.5004         45.5004
   -551126.14547   -378638.02347  22330714.7584                   22330716.6484
        46.5004         42.7504
  -2114409.85546  -1554448.03543  24319693.5474                   24319702.2384
        37.0004         20.0004
  -2092294.45346  -1558112.39144  24885478.2274                   24885491.6954
        36.7504         28.0004
  -1413807.35246  -1007092.12544  24300225.9844                   24300230.0984
        37.5004         25.5004
 25  8  7 21 42  0.0000000  0 10G01G02G03G10G28G31G32G04G26G25
   -604351.05947   -388148.51245  21678301.9534                   21678302.6454
        46.2504         34.2504
    184607.68448    203022.94546  21490991.5164                   21490989.6604
        49.5004         37.5004
   -968426.14546   -638830.93045  23201941.8364                   23201946.0784
        40.0004         34.5004
    839292.37547    693668.79346  23162497.6804                   23162501.6914
        42.0004         36.2504
     95768.39847    142261.46546  20996813.7974                   20996813.3714
        47.5004         37.0004
   -740597.15648   -492798.62547  20889841.9844                   20889841.8714
        48.7504         46.0004
    832059.66047    699169.06347  22593925.9144                   22593927.9694
        45.5004         42.2504
   -877820.84446   -590871.99643  24555008.5164                   24555016.7074
        36.7504         19.5004
   -862707.12946   -599992.21544  25119461.4144                   25119474.4264
        36.0004         29.0004
   -113438.15646      6182.65644  24547676.9454                   24547682.5124
        37.5004         25.5004
 25  8  7 21 42 30.0000000  0 10G01G02G03G10G28G31G32G04G26G25
   -913178.19547   -628793.00045  21619534.6564                   21619534.9494
        46.5004         34.0004
    -58562.98048     13539.28546  21444718.0314                   21444715.8484
        48.7504         38.0004
  -1312858.65646   -907219.70345  23136399.0004                   23136404.0634
        41.7504         35.7504
    647658.50047    544343.58646  23126031.1724                   23126035.0044
        42.0004         37.0004
   -154164.89147    -52491.73846  20949253.1414                   20949252.8674
        47.0004         37.0004
  -1060716.60248   -742242.28147  20828924.8914                   20828924.6214
        48.7504         45.5004
    639981.21547    549497.50447  22557374.3054                   22557376.6684
        45.0004         42.0004
  -1216446.70746   -854736.10243  24490569.2974                   24490578.1374
        38.5004         19.7504
  -1208590.21146   -869511.27344  25053641.7194                   25053654.8134
        36.7504         28.2504
   -387920.66846   -207699.78144  24495444.9144                   24495451.1914
        36.5004         27.2504
 25  8  7 21 43  0.0000000  0 10G01G02G03G10G28G31G32G04G26G25
  -1221423.34847   -868983.99245  21560877.1024                   21560878.0084
        47.0004         34.5004
   -301139.66048   -175481.53146  21398557.1094                   21398555.3984
        49.2504         37.7504
  -1657177.44546  -1175520.04345  23070876.2034                   23070881.0434
        40.7504         34.2504
    456354.15647    395275.14546  23089627.1954                   23089631.8524
        42.5004         37.0004
   -403429.41847   -246723.82846  20901819.3524                   20901819.3404
        47.0004         37.5004
  -1380218.66448   -991204.87147  20768125.5474                   20768125.3244
        49.2504         45.7504
    448062.19947    399950.18847  22520853.4694                   22520855.9454
        47.2504         42.7504
  -1554857.63346  -1118432.73043  24426171.9224                   24426180.0004
        37.0004         19.5004
  -1554511.19945  -1139059.85244  24987814.7034                   24987828.4414
        35.5004         27.0004
   -661826.05546   -421132.49644  24443322.3754                   24443328.1214
        37.5004         27.2504
 25  8  7 21 43 30.0000000  0 10G01G02G03G10G28G31G32G04G26G25
  -1529085.00047  -1108720.30945  21502330.8674                   21502331.8634
        47.2504         34.0004
   -543123.21548   -364040.17246  21352509.1094                   21352507.1994
        49.2504         38.0004
  -2001381.68446  -1443731.01245  23005376.4694                   23005381.3984
        40.2504         34.7504
    265378.82847    246463.07846  23053285.6724                   23053289.8594
        42.7504         38.2504
   -652026.20747   -440435.59846  20854513.4534                   20854512.9804
        47.5004         37.2504
  -1699101.68748  -1239685.09047  20707444.2504                   20707443.7734
        49.7504         46.0004
    256301.09847    250525.89547  22484362.8134                   22484364.2544
        46.7504         42.0004
  -1893053.91045  -1381962.09843  24361814.5164                   24361823.7074
        35.7504         18.5004
  -1900467.86346  -1408636.27044  24921981.0634                   24921994.7034
        37.2504         28.5004
   -935153.24246   -634114.64844  24391310.7734                   24391315.8244
        38.0004         27.5004
 25  8  7 21 44  0.0000000  0 10G01G02G03G10G28G31G32G04G26G25
  -1836167.15247  -1348005.07045  21443895.0634                   21443895.9574
        47.0004         34.5004
   -784520.21548   -552141.76646  21306572.5394                   21306570.6024
        49.5004         37.0004
  -2345476.10546  -1711856.46145  22939897.4924                   22939902.5164
        41.2504         34.5004
     74726.52747     97902.71946  23017005.6094                   23017010.3594
        43.0004         38.0004
   -899961.83247   -633632.16846  20807332.5314                   20807332.5664
        47.5004         37.7504
  -2017369.56248  -1487685.97347  20646879.9774                   20646879.4064
        48.7504         45.5004
     64691.02047    101219.32847  22447900.1484                   22447902.7034
        46.7504         42.5004
  -2231041.06646  -1645328.49643  24297498.3284                   24297506.5394
        37.7504         19.0004
  -2246463.54346  -1678243.08644  24856140.8524                   24856153.0554
        37.2504         28.0004
  -1207906.57046   -846649.64544  24339406.5394                   24339412.0594
        37.0004         26.5004
 25  8  7 21 44 30.0000000  0 10G01G02G03G10G28G31G32G04G26G25
  -2142669.18047  -1586837.77745  21385569.5234                   21385570.1644
        47.0004         34.7504
  -1025332.39548   -739787.64846  21260747.8914                   21260745.7704
        49.2504         37.0004
  -2689460.72346  -1979896.30945  22874439.5704                   22874444.2304
        40.0004         35.5004
   -115604.03547    -50406.93046  22980787.1564                   22980791.9344
        42.0004         37.5004
  -1147238.22347   -826315.05946  20760277.5474                   20760277.2774
        47.7504         37.7504
  -2335021.25848  -1735206.71147  20586432.8364                   20586432.5514
        48.0004         45.7504
   -126770.21547    -47971.29347  22411466.4144                   22411468.1524
        46.7504         42.2504
  -2568819.91846  -1908532.63343  24233221.2814                   24233229.1024
        37.7504         20.0004
  -2592496.83245  -1947879.19944  24790292.1484                   24790305.2194
        35.0004         27.2504
  -1480085.85946  -1058737.34844  24287612.9304                   24287618.3014
        37.5004         29.2504
 25  8  7 21 45  0.0000000  0 10G01G02G03G10G28G31G32G04G26G25
   -873158.33647   -597608.52045  21627149.4774                   21627150.6024
        47.5004         35.0004
    309868.19548    300628.36746  21514828.0634                   21514826.1684
        49.0004         37.5004
  -1457902.29346  -1020240.25045  23108797.4454                   23108801.4654
        41.0004         34.5004
   1269814.16047   1029139.58646  23244423.2814                   23244428.3014
        42.5004         37.5004
    181572.84448    209122.15246  21013141.4384                   21013141.7934
        48.0004         37.5004
  -1076623.80548   -754637.21547  20825897.5084                   20825897.2544
        49.2504         45.7504
   1257343.41047   1030558.76647  22674855.3134                   22674857.4964
        47.2504         42.2504
  -1330958.49246   -943965.09843  24468777.7584                   24468785.7974
        36.2504         19.2504
  -1363132.88745   -989933.00844  25024232.4694                   25024245.1644
        35.0004         26.5004
   -176259.86746    -42769.01244  24535723.0314                   24535727.6994
        37.7504         26.2504
 25  8  7 21 45 30.0000000  0 10G01G02G03G10G28G31G32G04G26G25
  -1178498.68447   -835536.03545  21569045.2194                   21569045.6454
        47.2504         34.5004
     70219.68848    113889.23046  21469224.6174                   21469222.6254
        49.5004         37.2504
  -1801667.78146  -1288109.41445  23043380.2814                   23043384.5784
        38.2504         34.0004
   1080122.69547    881327.93046  23208326.6414                   23208330.9384
        43.2504         37.2504
    -64391.37948     17461.73846  20966336.2194                   20966336.2384
        48.2504         37.5004
  -1393041.99248  -1001196.78147  20765685.3444                   20765685.0944
        48.5004         45.7504
   1066172.61747    881594.47346  22638476.1414                   22638477.9884
        46.5004         41.5004
  -1668324.59045  -1206847.53143  24404578.7344                   24404587.0664
        34.7504         18.5004
  -1709237.51246  -1259624.69944  24958369.8754                   24958383.1524
        36.5004         28.5004
   -447290.91846   -253961.96144  24484148.0474                   24484152.9774
        38.7504         27.5004
 25  8  7 21 46  0.0000000  0 10G01G02G03G10G28G31G32G04G26G25
  -1483260.49647  -1073012.74645  21511051.0554                   21511051.7424
        46.7504         34.0004
   -168852.93048    -72401.16046  21423730.4384                   21423728.5004
        49.2504         37.5004
  -2145327.00846  -1555895.71945  22977985.1954                   22977988.0434
        41.5004         35.2504
    890745.58647    733761.23046  23172289.8364                   23172293.7154
        43.5004         37.0004
   -309705.71548   -173692.26646  20919654.6484                   20919654.1954
        48.0004         37.5004
  -1708845.28548  -1247277.20347  20705589.7584                   20705589.3284
        48.0004         45.7504
    875140.52347    732738.26647  22602123.8134                   22602126.7034
        47.7504         43.0004
  -2005488.83646  -1469572.66043  24340419.1414                   24340427.1454
        37.5004         20.2504
  -2055378.91045  -1529345.00044  24892501.9774                   24892514.3484
        34.2504         26.0004
   -717750.84146   -464709.88144  24432680.4534                   24432685.1454
        38.0004         27.0004
 25  8  7 21 46 30.0000000  0 10G01G02G03G10G28G31G32G04G26G25
  -1787444.68447  -1310039.35945  21453166.4694                   21453167.0554
        47.2504         35.0004
   -407352.84448   -258245.28146  21378345.4454                   21378343.8714
        48.7504         37.7504
  -2488881.35246  -1823600.27746  22912608.0004                   22912613.5354
        40.7504         36.5004
    701679.97747    586437.25846  23136311.6884                   23136315.8204
        43.5004         36.5004
   -554373.60248   -364342.55146  20873095.7344                   20873095.5634
        48.0004         37.5004
  -2024034.60248  -1492879.21547  20645611.3134                   20645611.1174
        48.7504         45.7504
    684243.46947    583987.27346  22565797.5944                   22565799.4414
        47.2504         41.7504
  -2342453.75046  -1732142.51643  24276296.6174                   24276304.1644
        37.0004         19.0004
  -2401557.19145  -1799094.06244  24826626.0474                   24826638.7544
        35.0004         27.0004
   -987640.97746   -675013.84444  24381322.6024                   24381326.2664
        38.0004         25.5004
 25  8  7 21 47  0.0000000  0 10G01G02G03G10G28G31G32G04G26G25
  -2091051.69547  -1546616.22345  21395391.7974                   21395392.7074
        47.2504         34.5004
   -645283.29748   -443645.67646  21333068.7504                   21333067.2384
        48.7504         37.7504
  -2832331.68046  -2091223.84445  22847251.2034                   22847254.1254
        39.5004         34.2504
    512923.50447    439354.16046  23100392.7664                   23100396.5864
        44.2504         37.0004
   -798398.13348   -554491.52046  20826659.2974                   20826659.2234
        48.2504         38.0004
  -2338610.34847  -1738003.11347  20585749.0634                   20585749.0164
        47.7504         46.0004
    493478.16447    435338.98047  22529496.0004                   22529498.6884
        46.0004         42.2504
  -2679221.43745  -1994558.71942  24212210.9844                   24212219.0354
        35.0004         16.7504
  -2747771.91845  -2068871.50444  24760744.0164                   24760756.0314
        35.0004         27.2504
  -1256962.22746   -884874.52044  24330071.9924                   24330075.1844
        38.2504         26.0004
 25  8  7 21 47 30.0000000  0 10G01G02G03G10G28G31G32G04G26G25
  -2394079.80547  -1782741.99245  21337727.6484                   21337728.4614
        47.7504         34.2504
   -882644.78948   -628602.71946  21287900.4924                   21287898.9574
        49.0004         37.5004
  -3175676.89847  -2358765.44546  22781915.6644                   22781920.7934
        42.2504         36.7504
    324475.99247    292511.82846  23064532.2424                   23064536.6484
        42.5004         36.2504
  -1041780.18047   -744139.84846  20780345.7664                   20780345.2624
        47.7504         37.7504
  -2652570.46548  -1982647.30947  20526004.7664                   20526004.5554
        48.0004         46.0004
    302843.67647    286792.59047  22493219.3524                   22493221.4654
        45.7504         42.2504
  -3015791.62945  -2256820.94543  24148163.7114                   24148172.4534
        34.5004         18.5004
  -3094020.28545  -2338675.12944  24694855.3134                   24694866.6484
        34.0004         26.7504
  -1525713.28546  -1094290.93044  24278930.6884                   24278934.9804
        38.0004         27.2504
 25  8  7 21 48  0.0000000  0 10G01G02G03G10G28G31G32G04G26G25
  -1121095.08647   -790805.82845  21579968.5704                   21579968.9024
        47.0004         34.2504
    455992.27748    414491.06646  21542635.1334                   21542632.9144
        48.7504         36.7504
  -1943482.21147  -1398613.64545  23016393.5784                   23016397.8444
        42.5004         35.5004
   1711765.73447   1373516.68446  23328524.8134                   23328529.7114
        43.7504         36.7504
    290909.58248    294319.72346  21033947.8524                   21033947.9804
        48.5004         37.2504
  -1390480.60248   -999200.60947  20766172.6174                   20766172.0124
        48.2504         46.2504
   1687767.50447   1365953.97747  22756761.9304                   22756764.3554
        46.2504         42.0004
  -1776731.00446  -1291318.93443  24383948.7034                   24383957.0354
        36.0004         19.5004
  -1864866.00845  -1380892.29344  24928754.5234                   24928766.9734
        33.7504         27.2504
   -218461.81646    -75653.34844  24527692.4454                   24527696.2234
        37.0004         27.5004
 25  8  7 21 48 30.0000000  0 10G01G02G03G10G28G31G32G04G26G25
  -1422959.83647  -1026025.08645  21522525.6094                   21522525.8054
        47.5004         35.5004
    219767.12548    230419.47746  21497682.5474                   21497680.6684
        48.7504         37.0004
  -2286613.09047  -1665988.21546  22951098.3834                   22951102.9884
        42.0004         36.0004
   1523936.04747   1227155.76246  23292781.9064                   23292786.5944
        44.0004         36.2504
     48810.23448    105670.90246  20987877.7974                   20987877.5314
        48.5004         38.0004
  -1703203.73048  -1242880.91847  20706663.4694                   20706662.6994
        49.0004         46.2504
   1497392.06347   1217609.45747  22720535.1564                   22720536.8634
        46.2504         42.2504
  -2112905.44546  -1553272.87143  24319977.0864                   24319984.9574
        37.5004         19.7504
  -2211173.48445  -1650741.95343  24862853.2664                   24862866.1134
        34.7504         23.7504
   -486068.30546   -284177.84044  24476767.1094                   24476772.7424
        36.0004         26.7504
 25  8  7 21 49  0.0000000  0 10G01G02G03G10G28G31G32G04G26G25
  -1724247.84847  -1260794.94545  21465192.3594                   21465192.5944
        47.5004         34.5004
    -15898.73448     46783.70346  21452837.1884                   21452835.1094
        48.5004         37.2504
  -2629642.34846  -1933283.68046  22885821.4304                   22885826.1884
        40.5004         36.7504
   1336407.50447   1081029.50446  23257096.5234                   23257101.2304
        44.5004         36.0004
   -192656.68048    -82485.12146  20941928.3674                   20941927.6884
        48.5004         37.5004
  -2015313.39548  -1486083.20347  20647270.7424                   20647270.2034
        48.2504         46.0004
   1307137.16047   1069358.85247  22684330.5864                   22684332.6844
        46.5004         42.0004
  -2448889.13746  -1815078.10942  24256041.3674                   24256049.5164
        37.0004         17.2504
  -2557513.88745  -1920617.27744  24796947.5004                   24796959.9534
        34.0004         25.7504
   -753108.23445   -492260.90244  24425951.2584                   24425956.8674
        35.5004         25.5004
 25  8  7 21 49 30.0000000  0 10G01G02G03G10G28G31G32G04G26G25
  -2024957.85248  -1495114.39545  21407969.4534                   21407969.5554
        48.0004         34.5004
   -251006.24248   -136416.98846  21408097.4454                   21408095.4494
        49.0004         37.2504
  -2972569.13746  -2200499.23045  22820564.7894                   22820568.2544
        41.0004         35.5004
   1149179.49247    935137.42646  23221468.6024                   23221472.9384
        44.2504         36.5004
   -433492.45348   -270149.34046  20896098.5554                   20896098.6174
        48.5004         37.7504
  -2326807.86748  -1728806.11747  20587995.1724                   20587994.5784
        48.5004         46.2504
   1117001.55147    921201.21946  22648148.6174                   22648150.6294
        45.2504         41.0004
  -2784682.34446  -2076734.91442  24192141.8984                   24192150.0314
        36.0004         17.2504
  -2903885.07445  -2190516.58244  24731033.6484                   24731047.0984
        33.0004         25.0004
  -1019580.72746   -699901.73844  24375243.3984                   24375248.7854
        36.7504         25.7504
 25  8  7 21 50  0.0000000  0 10G01G02G03G10G28G31G32G04G26G25
  -2325092.17648  -1728985.27045  21350855.4844                   21350855.9694
        48.2504         35.0004
   -485560.15648   -319186.30946  21363463.4694                   21363461.0864
        49.0004         37.0004
  -3315396.07846  -2467637.01246  22755326.7344                   22755331.6994
        39.2504         36.2504
    962247.82047    789476.27346  23185896.3204                   23185901.5234
        43.7504         36.7504
   -673702.10248   -457325.67246  20850388.3984                   20850388.1804
        48.2504         37.7504
  -2637689.52048  -1971051.51247  20528836.3524                   20528836.0004
        49.0004         46.0004
    926980.16847    773132.60246  22611988.8284                   22611991.6374
        46.5004         41.5004
  -3120288.89546  -2338246.27742  24128278.5314                   24128285.5084
        37.0004         17.2504
  -3250288.20345  -2460440.77344  24665116.5474                   24665128.6134
        34.5004         24.7504
  -1285488.63745   -907102.68444  24324643.0864                   24324647.1564
        35.7504         24.5004
 25  8  7 21 50 30.0000000  0 10G01G02G03G10G28G31G32G04G26G25
  -2624648.41448  -1962405.68445  21293851.6174                   21293851.9924
        48.0004         34.0004
   -719560.76248   -501524.48046  21318934.4774                   21318932.5744
        48.7504         37.0004
  -3658121.23446  -2734695.48046  22690108.1804                   22690112.1094
        41.5004         36.2504
    775613.00447    644046.43046  23150381.4384                   23150386.0274
        43.7504         37.5004
   -913285.86748   -644014.30546  20804797.0474                   20804796.7504
        48.0004         37.5004
  -2947956.12548  -2212817.64147  20469794.5784                   20469793.8484
        48.2504         46.0004
    737072.91047    625152.91046  22575850.8054                   22575852.5164
        46.5004         41.7504
  -3455707.80946  -2599611.47743  24064449.9064                   24064457.5434
        38.2504         19.2504
  -3596719.89545  -2730387.23844  24599192.2974                   24599204.1374
        34.2504         24.2504
  -1550830.03145  -1113862.11744  24274149.8984                   24274154.0314
        35.5004         25.0004
 25  8  7 21 51  0.0000000  0 10G01G02G03G10G28G31G32G04G26G25
  -2923626.93047  -2195375.93445  21236958.3284                   21236958.4734
        47.5004         34.0004
   -953010.88348   -683433.71146  21274510.7344                   21274508.4694
        48.0004         36.7504
  -4000745.14846  -3001675.04346  22624909.3524                   22624913.5274
        41.0004         36.7504
    589272.85247    498846.19546  23114921.7344                   23114927.1174
        42.7504         36.5004
  -1152246.75048   -830217.58246  20759324.3364                   20759323.8364
        48.2504         37.5004
  -3257607.43748  -2454104.32847  20410869.6254                   20410869.2344
        49.0004         46.0004
    547276.85547    477259.83247  22539733.9384                   22539736.2544
        46.5004         42.0004
  -3790941.03146  -2860831.92243  24000656.6804                   24000664.7704
        37.0004         19.0004
  -3943179.41045  -3000355.38743  24533263.3674                   24533274.7544
        34.0004         23.2504
  -1815605.82445  -1320180.87144  24223764.2194                   24223769.5354
        34.5004         25.0004
 25  8  7 21 51 30.0000000  0 10G01G02G03G10G28G31G32G04G26G25
  -1646598.90647  -1200289.12545  21479968.4774                   21479969.2544
        47.5004         35.0004
    389513.87548    362689.43846  21529984.2504                   21529982.4414
        49.0004         36.7504
  -2767837.91446  -2040968.02045  22859522.8284                   22859527.4614
        41.5004         35.2504
   1978650.70347   1581478.15246  23379311.9924                   23379316.7854
        43.0004         36.0004
    184839.42248    211667.76246  21013763.4774                   21013762.6134
        48.5004         37.7504
  -1991214.49248  -1467304.58247  20651856.3284                   20651855.7154
        48.7504         46.0004
   1933014.61347   1557055.48846  22803430.3284                   22803433.0944
        47.0004         41.5004
  -2550559.80946  -1894300.84042  24236693.2034                   24236701.2464
        36.7504         17.2504
  -2714235.10545  -2042736.10544  24767124.1644                   24767134.8164
        34.7504         24.5004
   -504388.71145   -298453.16443  24473281.5314                   24473285.8594
        34.7504         23.5004
 25  8  7 21 52  0.0000000  0 10G01G02G03G10G28G31G32G04G26G25
  -1944424.08647  -1432360.67645  21423293.8594                   21423294.5784
        47.5004         34.5004
    157155.44548    181630.87946  21485768.3674                   21485765.7704
        48.0004         37.0004
  -3110262.41446  -2307792.18746  22794362.2974                   22794367.0744
        40.5004         37.0004
   1792892.43046   1436731.32046  23343963.4694                   23343968.2734
        41.5004         36.2504
    -52885.71548     26427.40246  20968525.6094                   20968525.6174
        48.5004         37.2504
  -2299637.85948  -1707634.43047  20593165.1174                   20593164.6374
        48.5004         46.0004
   1743431.22747   1409328.14147  22767354.7194                   22767357.4384
        47.0004         42.2504
  -2885427.93746  -2155236.85242  24172969.7274                   24172977.7974
        38.7504         17.7504
  -3060748.84445  -2312746.48044  24701183.6174                   24701195.3244
        35.2504         24.2504
   -768036.75046   -503893.13344  24423111.0704                   24423115.2154
        37.0004         25.7504
 25  8  7 21 52 30.0000000  0 10G01G02G03G10G28G31G32G04G26G25
  -2241673.17247  -1663983.30945  21366729.3834                   21366730.1914
        47.2504         34.7504
    -74661.35948       994.36346  21441654.8134                   21441653.1914
        48.0004         37.2504
  -3452588.09047  -2574539.39146  22729219.9304                   22729223.8914
        42.2504         37.0004
   1607421.77747   1292208.60245  23308669.5394                   23308674.2894
        42.2504         35.5004
   -289997.52048   -158335.03146  20923405.0474                   20923404.4804
        48.5004         38.5004
  -2607447.54348  -1947486.07847  20534591.2114                   20534590.7344
        49.0004         46.0004
   1553949.94147   1261680.36346  22731296.8594                   22731299.4104
        45.2504         41.0004
  -3220116.16046  -2416032.72342  24109281.1954                   24109288.1764
        37.5004         17.7504
  -3407288.49245  -2582777.06243  24635239.4534                   24635250.6134
        35.0004         23.5004
  -1031122.20346   -708894.73844  24373048.5634                   24373052.7384
        38.2504         29.2504
 25  8  7 21 53  0.0000000  0 10G01G02G03G10G28G31G32G04G26G25
  -2538345.35947  -1895156.41845  21310274.2734                   21310274.8244
        47.2504         34.2504
   -305938.28948   -179221.45746  21397644.4384                   21397642.6054
        48.2504         37.0004
  -3794814.42647  -2841209.14546  22664096.1954                   22664098.2424
        43.0004         36.2504
   1422237.63747   1147909.16445  23273430.3914                   23273434.9064
        42.7504         35.7504
   -526497.89148   -342621.02746  20878400.1094                   20878399.8984
        48.5004         37.7504
  -2914642.85248  -2186858.99247  20476133.3674                   20476132.7974
        48.2504         46.0004
   1364569.00047   1114110.75047  22695259.6024                   22695262.7774
        45.2504         42.0004
  -3554625.21146  -2676688.89543  24045626.0004                   24045633.6024
        36.5004         19.2504
  -3753852.07045  -2852826.23844  24569290.4534                   24569301.6054
        35.2504         25.2504
  -1293644.83646   -913457.73444  24323091.6024                   24323096.1884
        38.2504         29.2504
 25  8  7 21 53 30.0000000  0 10G01G02G03G10G28G31G32G04G26G25
  -2834440.39147  -2125879.80145  21253929.5864                   21253929.9964
        47.5004         35.0004
   -536677.68048   -359018.42246  21353736.1804                   21353734.2234
        48.0004         36.5004
  -4136941.24247  -3107801.32846  22598991.5004                   22598995.6414
        42.5004         37.5004
   1237338.57047   1003831.85545  23238245.8984                   23238250.0394
        43.2504         35.5004
   -762389.19948   -526432.43746  20833511.7274                   20833511.4804
        48.0004         37.5004
  -3221223.23048  -2425752.75047  20417793.1564                   20417792.5824
        48.0004         46.0004
   1175286.38347    966617.78146  22659240.4224                   22659242.3754
        45.5004         41.0004
  -3888956.24246  -2937206.37543  23982005.0634                   23982012.0084
        37.2504         19.7504
  -4100438.04745  -3122892.93444  24503336.3834                   24503347.6214
        35.0004         24.2504
  -1555604.93746  -1117582.43744  24273241.9224                   24273247.0314
        38.0004         29.7504
 25  8  7 21 54  0.0000000  0 10G01G02G03G10G28G31G32G04G26G25
  -3129958.49647  -2356153.64145  21197694.3524                   21197694.6684
        47.5004         34.7504
   -766882.10548   -538398.53146  21309930.0704                   21309927.8324
        48.5004         36.5004
  -4478968.93447  -3374316.34046  22533905.4614                   22533910.2854
        42.5004         37.2504
   1052722.59447    859975.14845  23203114.2734                   23203118.9024
        43.0004         35.0004
   -997674.40247   -709771.55146  20788738.4304                   20788738.0904
        47.5004         37.2504
  -3527188.68047  -2664167.33647  20359569.7034                   20359569.2304
        47.7504         46.0004
    986099.35247    819199.31646  22623238.7664                   22623242.2934
        45.5004         41.5004
  -4223110.71946  -3197586.36343  23918417.5474                   23918423.9224
        37.0004         18.5004
  -4447045.47745  -3392976.31243  24437379.5164                   24437390.3794
        33.5004         23.0004
  -1817003.23846  -1321269.32844  24223499.7034                   24223504.6414
        38.2504         29.7504
 25  8  7 21 54 30.0000000  0 10G01G02G03G10G28G31G32G04G26G25
  -1849469.70747  -1358370.14545  21441363.3204                   21441363.8404
        47.5004         35.0004
    578873.75047    510242.35946  21566018.3524                   21566016.7034
        47.0004         37.0004
  -3245466.08647  -2413145.16046  22768634.1174                   22768636.0044
        42.2504         36.2504
   2443814.14147   1943942.46945  23467830.2894                   23467835.0234
        43.7504         35.0004
    343071.85247    334965.80146  21043873.8914                   21043873.6414
        47.7504         37.0004
  -2257109.42648  -1674495.13747  20601258.2114                   20601257.2274
        49.2504         46.0004
   2372432.04347   1899458.53546  22887049.1644                   22887051.3244
        45.7504         40.7504
  -2981658.83645  -2230221.12542  24154656.9614                   24154664.4184
        35.0004         16.7504
  -3218241.27045  -2435466.21143  24671211.6954                   24671223.8014
        33.2504         23.7504
   -502411.42246   -296912.04345  24473657.6724                   24473663.6764
        37.2504         31.2504
 25  8  7 21 55  0.0000000  0 10G01G02G03G10G28G31G32G04G26G25
  -2143833.35247  -1587744.40245  21385347.9064                   21385348.1214
        47.7504         34.2504
    349732.64847    331690.80946  21522414.6484                   21522412.6174
        47.5004         36.2504
  -3587295.18747  -2679505.37946  22703585.2664                   22703589.3554
        43.5004         37.5004
   2259759.59447   1800523.22745  23432806.1094                   23432810.6094
        43.0004         34.7504
    108991.57847    152565.59446  20999330.1954                   20999329.5784
        47.7504         37.0004
  -2561845.10548  -1911951.45347  20543268.8754                   20543267.9774
        49.2504         46.0004
   2183429.97747   1752184.14846  22851083.5944                   22851086.1644
        44.7504         41.2504
  -3315463.77346  -2490328.63343  24091136.3984                   24091143.2544
        38.0004         20.2504
  -3564886.81645  -2705579.32443  24605248.1174                   24605258.6994
        34.2504         22.7504
   -762687.05546   -499724.18445  24424128.4774                   24424134.0354
        38.0004         30.0004
 25  8  7 21 55 30.0000000  0 10G01G02G03G10G28G31G32G04G26G25
  -2437618.32047  -1816667.74245  21329442.1954                   21329443.0004
        47.0004         34.5004
    121120.84047    153551.69546  21478910.9534                   21478909.2624
        47.2504         36.5004
  -3929023.67247  -2945787.21146  22638557.1884                   22638560.2894
        43.7504         37.2504
   2075984.58247   1657321.80945  23397834.8054                   23397839.6174
        43.7504         35.5004
   -124488.82048    -29367.16846  20954900.0784                   20954899.6134
        48.7504         37.2504
  -2865964.25448  -2148927.35947  20485396.6484                   20485395.9304
        49.2504         46.0004
   1994518.24247   1604980.14846  22815135.6024                   22815136.1484
        45.0004         40.5004
  -3649094.44146  -2750300.41443  24027648.5164                   24027655.5004
        38.5004         19.7504
  -3911548.05945  -2975704.64844  24539280.3364                   24539291.0554
        34.5004         24.7504
  -1022400.73046   -702098.43444  24374706.5944                   24374711.9574
        37.5004         29.0004
 25  8  7 21 56  0.0000000  0 10G01G02G03G10G28G31G32G04G26G25
  -2730823.75847  -2045139.50045  21273647.2344                   21273647.6294
        46.7504         34.2504
   -106963.52748    -24176.41845  21435508.4224                   21435506.4414
        48.0004         35.7504
  -4270650.78547  -3211990.03546  22573547.3284                   22573550.7894
        43.0004         38.0004
   1892488.21547   1514337.49245  23362916.7194                   23362921.5664
        43.0004         35.5004
   -357371.19947   -210833.94946  20910584.1334                   20910583.6914
        47.7504         37.7504
  -3169465.99648  -2385422.17247  20427642.0554                   20427640.9734
        49.0004         46.0004
   1805695.41047   1457845.46146  22779203.0164                   22779205.2344
        46.2504         41.2504
  -3982551.43446  -3010136.85943  23964193.1804                   23964200.6054
        38.2504         19.0004
  -4258222.87146  -3245840.56644  24473310.1724                   24473320.5744
        36.0004         25.7504
  -1281552.14146   -904034.58644  24325391.5704                   24325397.2584
        37.2504         28.5004
 25  8  7 21 56 30.0000000  0 10G01G02G03G10G28G31G32G04G26G25
  -3023451.66447  -2273161.22345  21217961.8524                   21217962.2274
        47.0004         34.2504
   -334524.74647   -201496.89546  21392204.9064                   21392202.8284
        47.5004         36.0004
  -4612178.40247  -3478115.34846  22508556.0234                   22508560.8364
        42.0004         37.2504
   1709266.77047   1371567.41045  23328050.6564                   23328055.7074
        43.7504         35.5004
   -589660.21547   -391838.37946  20866380.7504                   20866380.5664
        47.2504         37.2504
  -3472352.12948  -2621437.28147  20370004.8594                   20370003.9574
        49.2504         46.2504
   1616957.23847   1310776.72746  22743287.4304                   22743288.8794
        45.2504         40.0004
  -4315838.05146  -3269840.56642  23900771.0164                   23900777.9344
        38.5004         17.7504
  -4604911.66446  -3515987.36343  24407337.0314                   24407347.5904
        36.7504         23.2504
  -1540143.78945  -1105534.54343  24276182.3284                   24276188.6994
        33.5004         22.7504
 25  8  7 21 57  0.0000000  0 10G01G02G03G10G28G31G32G04G26G25
  -3315499.95347  -2500731.29345  21162386.6724                   21162387.2774
        47.2504         34.7504
   -561562.94548   -378409.81246  21349000.9144                   21348999.1644
        48.2504         36.2504
  -4953604.46147  -3744161.55546  22443585.5164                   22443587.9694
        42.0004         36.5004
   1526320.56647   1229011.79745  23293237.4774                   23293242.6604
        43.0004         35.0004
   -821356.43048   -572380.87946  20822290.0944                   20822289.8874
        49.0004         37.2504
  -3774620.80548  -2856971.27047  20312484.6484                   20312484.2814
        49.2504         46.5004
   1428303.69147   1163773.95346  22707387.9534                   22707390.5904
        46.2504         41.5004
  -4648953.35946  -3529410.75443  23837381.2504                   23837387.7424
        39.0004         20.5004
  -4951610.93746  -3786142.36744  24341362.4304                   24341372.8054
        36.7504         24.0004
  -1798174.01645  -1306597.07043  24227081.3834                   24227086.3634
        33.7504         22.7504
 25  8  7 21 57 30.0000000  0 10G01G02G03G10G28G31G32G04G26G25
  -2031538.86747  -1500242.11745  21406716.9534                   21406716.7584
        47.0004         35.0004
    787346.55147    672688.46546  21605690.0474                   21605688.2774
        47.5004         36.0004
  -3719497.43746  -2782519.59046  22678427.4224                   22678430.0944
        41.0004         36.5004
   2919074.07446   2314274.13345  23558269.4304                   23558274.7704
        41.2504         34.0004
    522965.20747    475142.47746  21078106.6254                   21078106.1914
        47.2504         37.5004
  -2500841.78948  -1864416.13347  20554876.7974                   20554876.0664
        49.5004         46.2504
   2815158.87947   2244440.28946  22971297.9454                   22971299.6294
        45.5004         40.5004
  -3406467.58246  -2561239.84443  24073817.7504                   24073824.6254
        37.0004         19.7504
  -3722887.66046  -2828695.37944  24575180.5944                   24575190.6684
        36.2504         24.5004
   -480214.96945   -279615.98443  24477880.4384                   24477884.9614
        32.7504         22.5004
 25  8  7 21 58  0.0000000  0 10G01G02G03G10G28G31G32G04G26G25
  -2322426.82847  -1726908.03545  21351362.3134                   21351362.3524
        47.0004         34.5004
    561347.37547    496585.16846  21562683.6024                   21562681.5004
        47.7504         36.5004
  -4060719.00046  -3048406.41846  22613495.0394                   22613499.7624
        41.0004         37.0004
   2736674.46546   2172144.43445  23523560.6094                   23523565.1884
        41.0004         34.0004
    292447.61348    295518.38346  21034240.1564                   21034239.7384
        48.2504         37.2504
  -2801873.94148  -2098986.59047  20497592.2114                   20497591.2234
        49.5004         46.5004
   2626668.99647   2097565.08246  22935429.6024                   22935431.3524
        47.0004         40.7504
  -3739243.16446  -2820545.32443  24010492.7114                   24010499.5594
        37.7504         18.5004
  -4069602.37146  -3098862.42244  24509202.6024                   24509213.0124
        36.0004         25.7504
   -737123.30545   -479804.27343  24428993.5234                   24428996.0704
        34.5004         21.5004
 25  8  7 21 58 30.0000000  0 10G01G02G03G10G28G31G32G04G26G25
  -2612733.32847  -1953120.87545  21296118.6564                   21296119.2704
        46.7504         34.2504
    335865.44548    320884.92646  21519776.1024                   21519774.0824
        48.2504         36.5004
  -4401836.82446  -3314212.45746  22548582.1024                   22548587.4734
        41.5004         37.5004
   2554546.91446   2030226.72345  23488902.3674                   23488907.6994
        41.2504         33.5004
     62516.58647    116351.35946  20990485.7344                   20990485.6054
        47.5004         37.5004
  -3102286.83648  -2333074.50847  20440425.6564                   20440425.0984
        49.5004         46.5004
   2438259.08247   1950752.10246  22899575.7974                   22899578.7274
        46.0004         41.0004
  -4071849.27746  -3079718.73843  23947199.1954                   23947206.7774
        39.5004         20.5004
  -4416321.25446  -3369032.71944  24443224.3204                   24443234.3284
        36.0004         27.0004
   -993470.19546   -679554.96144  24380212.4774                   24380213.3874
        37.2504         24.2504
 25  8  7 21 59  0.0000000  0 10G01G02G03G10G28G31G32G04G26G25
  -2902459.44547  -2178881.46945  21240986.0314                   21240986.0744
        46.5004         34.7504
    110896.98847    145584.80146  21476966.0784                   21476963.9344
        46.2504         36.0004
  -4742851.89847  -3579938.41046  22483689.2814                   22483693.0824
        42.0004         37.5004
   2372688.63746   1888518.84045  23454296.1254                   23454301.2704
        41.2504         34.5004
   -166831.58647    -62361.50046  20946842.5704                   20946841.9144
        46.5004         37.5004
  -3402081.21948  -2566680.47347  20383376.7814                   20383376.0744
        49.0004         46.7504
   2249925.79347   1803998.90646  22863737.3054                   22863738.9064
        46.7504         40.5004
  -4404288.50846  -3338762.07043  23883937.8054                   23883945.7034
        37.5004         19.5004
  -4763043.87945  -3639205.93044  24377244.5084                   24377254.7074
        35.5004         26.5004
  -1249257.21146   -878869.44944  24331538.2194                   24331540.9774
        37.7504         28.0004
 25  8  7 21 59 30.0000000  0 10G01G02G03G10G28G31G32G04G26G25
  -3191604.54347  -2404189.31645  21185963.5784                   21185963.7344
        46.5004         34.7504
   -113559.60547    -29316.48446  21434253.2734                   21434251.8244
        47.2504         36.5004
  -5083763.34847  -3845583.59846  22418816.2974                   22418820.2194
        42.0004         38.2504
   2191098.62947   1747020.00845  23419740.7974                   23419746.0554
        42.0004         34.2504
   -395599.02047   -240621.83246  20903309.2584                   20903308.9924
        47.2504         37.5004
  -3701256.48848  -2799804.01247  20326445.2344                   20326444.8594
        49.5004         46.5004
   2061667.86747   1657304.35546  22827913.6954                   22827916.9304
        47.0004         41.7504
  -4736561.27746  -3597675.67643  23820709.0864                   23820716.0004
        38.5004         18.5004
  -5109767.95345  -3909380.27744  24311265.2814                   24311275.3054
        35.5004         26.0004
  -1504484.32046  -1077747.68044  24282969.4774                   24282973.7504
        36.7504         27.7504
 25  8  7 22  0  0.0000000  0 10G01G02G03G10G28G31G32G04G26G25
  -3480166.04347  -2629042.41845  21131052.1174                   21131052.3094
        46.5004         34.5004
   -337504.14847   -203818.75446  21391638.0864                   21391636.2154
        47.7504         36.5004
  -5424568.34046  -4111145.83246  22353963.3834                   22353966.6564
        41.5004         37.7504
   2009777.87546   1605730.98045  23385237.2114                   23385242.2154
        41.7504         34.5004
   -623785.71147   -418429.63346  20859887.0944                   20859886.6484
        47.2504         37.5004
  -3999810.00448  -3032443.06247  20269632.4694                   20269631.9884
        49.5004         46.7504
   1873485.74247   1510668.93846  22792102.9384                   22792104.8404
        45.0004         39.7504
  -5068666.07446  -3856458.47343  23757511.1484                   23757517.5274
        38.7504         19.5004
  -5456489.28145  -4179552.50844  24245286.1644                   24245296.1024
        35.2504         24.0004
  -1759149.44945  -1276188.03944  24234507.9454                   24234512.8834
        35.7504         28.0004
 25  8  7 22  0 30.0000000  0 10G01G02G03G10G28G31G32G04G26G25
  -2192715.04347  -1625833.83245  21376045.5784                   21376045.8324
        47.5004         34.7504
   1014487.32847    849681.05946  21648913.7424                   21648911.6294
        47.5004         36.2504
  -4189836.01247  -3149016.64546  22588924.7974                   22588928.4614
        42.0004         37.2504
   3404150.04347   2692254.60545  23650577.2344                   23650582.6454
        42.2504         34.2504
    724032.46147    631818.29746  21116368.1884                   21116367.8834
        47.5004         36.7504
  -2722312.46948  -2036990.39547  20512732.4304                   20512731.3754
        49.2504         46.7504
   3260802.98847   2591695.33646  23056101.7424                   23056104.2814
        46.2504         41.0004
  -3825173.92246  -2887503.28142  23994139.3984                   23994146.8444
        36.5004         17.7504
  -4227775.35245  -3222112.84444  24479102.5634                   24479112.8444
        35.7504         25.5004
   -437825.43046   -246584.90244  24485947.2584                   24485951.8914
        36.7504         27.5004
 25  8  7 22  1  0.0000000  0 10G01G02G03G10G28G31G32G04G26G25
  -2480109.93747  -1849777.89545  21321356.2894                   21321356.8364
        47.0004         35.2504
    791558.45348    675970.20746  21606491.4304                   21606489.4104
        48.0004         36.5004
  -4530427.97346  -3414412.87546  22524111.8674                   22524115.5904
        41.7504         38.0004
   3223362.28947   2551380.89145  23616174.9614                   23616179.8634
        42.0004         34.5004
    496998.50448    454908.72746  21073165.1094                   21073164.8834
        48.2504         36.7504
  -3019623.07848  -2268660.94947  20456155.8444                   20456155.1214
        49.5004         47.0004
   3072765.96947   2445172.93046  23020319.3984                   23020320.7274
        45.7504         39.7504
