     2.11           OBSERVATION DATA    G (GPS)             RINEX VERSION / TYPE
teqc  2019Feb25                         20250821 01:26:43UTCPGM / RUN BY / DATE
Linux 2.6.32-573.12.1.x86_64|x86_64|gcc -static|Linux 64|=+ COMMENT
BIT 2 OF LLI FLAGS DATA COLLECTED UNDER A/S CONDITION       COMMENT
04223200                                                    MARKER NAME
0422                                                        MARKER NUMBER
-Unknown-           -Unknown-                               OBSERVER / AGENCY
0220340422          TRIMBLE 5700        2.32                REC # / TYPE / VERS
-Unknown-           TRM41249.00     NONE                    ANT # / TYPE
 -2430805.0950 -4657393.5447  3606069.0748                  APPROX POSITION XYZ
        0.0000        0.0000        0.0000                  ANTENNA: DELTA H/E/N
     1     1                                                WAVELENGTH FACT L1/2
     7    L1    L2    C1    P1    P2    S1    S2            # / TYPES OF OBSERV
    18                                                      LEAP SECONDS
 SNR is mapped to RINEX snr flag value [0-9]                COMMENT
  L1 & L2: min(max(int(snr_dBHz/6), 0), 9)                  COMMENT
  2025     7     2     0     0   30.0000000     GPS         TIME OF FIRST OBS
                                                            END OF HEADER
 25  7  2  0  0 30.0000000  0 10G10G02G08G03G25G28G04G32G31G01
   3402586.33257   2590084.50456  22576475.9844                   22576475.8554
        44.5004         41.5004
 -23906946.86757 -18592258.81256  21230454.4384                   21230448.9924
        47.5004         39.0004
   -123268.79755   -167196.20754  25012779.4924                   25012786.3594
        33.0004         24.0004
  -8186372.81656  -6360215.23855  23335528.7814                   23335529.3554
        41.2504         33.2504
  -1984504.74256  -1526346.61355  24425787.7734                   24425789.0744
        37.2504         30.0004
 -25954530.28957 -20199683.48456  20747618.4774                   20747615.1134
        47.7504         39.0004
  -1199507.89555   -915653.64852  24826564.6644                   24826569.9774
        34.7504         17.2504
  -6796232.35958  -5478255.16857  22062154.8054                   22062153.2774
        48.2504         46.5004
 -23888498.00058 -18590482.62957  20930460.5164                   20930456.7304
        49.2504         47.0004
 -18685225.55957 -14525122.82055  21736360.0234                   21736356.7424
        44.2504         34.5004
 25  7  2  0  1  0.0000000  0 10G10G02G08G03G25G28G04G32G31G01
   3453622.60947   2629852.98846  22586187.5084                   22586187.3914
        43.5004         41.5004
 -23914181.25447 -18597896.01246  21229078.1254                   21229072.0944
        46.5004         39.0004
    -56617.73045   -115260.57044  25025462.1804                   25025470.2704
        34.7504         26.2504
  -8278994.04746  -6432387.50045  23317902.8674                   23317903.8794
        41.2504         34.0004
  -2020245.84846  -1554196.80145  24418986.6094                   24418987.8554
        37.5004         30.2504
 -25967754.10947 -20209987.73846  20745102.0474                   20745098.5004
        46.7504         39.0004
  -1289473.88745   -985756.78142  24809444.1024                   24809450.1414
        35.0004         17.2504
  -6740375.68747  -5434730.51247  22072783.8444                   22072782.3754
        47.0004         46.5004
 -23968119.37948 -18652525.20347  20915308.8054                   20915305.3634
        49.0004         47.0004
 -18755470.86347 -14579859.38345  21722992.1174                   21722989.5704
        44.0004         34.2504
 25  7  2  0  1 30.0000000  0 10G10G02G08G03G25G28G04G32G31G01
   3504906.10947   2669814.11346  22595947.2114                   22595946.5944
        44.0004         41.0004
 -23920899.85247 -18603131.28546  21227799.4694                   21227793.6454
        46.5004         39.0004
      9967.65645    -63376.11744  25038133.7274                   25038140.6564
        35.0004         27.0004
  -8371613.43446  -6504558.32046  23300277.9844                   23300278.6214
        41.7504         36.2504
  -2055545.91846  -1581703.29745  24412268.8204                   24412270.6024
        36.7504         30.0004
 -25980386.36347 -20219831.03146  20742698.3754                   20742694.4184
        47.0004         38.7504
  -1379317.96145  -1055764.88342  24792347.4304                   24792353.0474
        35.5004         17.7504
  -6684420.12947  -5391128.79347  22083432.1174                   22083430.7114
        47.5004         46.0004
 -24047256.16048 -18714190.15647  20900249.6334                   20900245.8014
        48.7504         46.7504
 -18825273.62147 -14634251.09445  21709708.8914                   21709706.5664
        44.5004         34.5004
 25  7  2  0  2  0.0000000  0 10G10G02G08G03G25G28G04G32G31G01
   3556441.00447   2709971.12546  22605753.9534                   22605753.7894
        43.5004         40.7504
 -23927098.54347 -18607961.44546  21226619.7424                   21226614.0204
        46.5004         38.7504
     76488.88745    -11541.64544  25050792.4534                   25050799.7814
        35.7504         27.5004
  -8464226.03546  -6576723.84446  23282654.9224                   23282655.1414
        41.5004         36.5004
  -2090398.82446  -1608861.38745  24405636.5314                   24405638.1844
        37.5004         30.5004
 -25992423.11747 -20229210.29346  20740407.8444                   20740404.0204
        47.5004         39.0004
  -1469035.94145  -1125674.67642  24775275.2114                   24775279.7384
        35.5004         17.7504
  -6628362.92647  -5347447.87947  22094099.1804                   22094097.9224
        47.0004         46.0004
 -24125901.74648 -18775472.35947  20885283.8284                   20885279.9694
        49.5004         47.0004
 -18894627.50447 -14688293.03545  21696511.8364                   21696508.8204
        44.5004         35.0004
 25  7  2  0  2 30.0000000  0 10G10G02G08G03G25G28G04G32G31G01
   3608224.90647   2750322.18446  22615608.1174                   22615607.6524
        44.2504         41.0004
 -23932780.00847 -18612388.55946  21225538.2974                   21225533.3134
        47.0004         39.2504
    142940.44946     40238.55545  25063438.6174                   25063445.6484
        36.5004         30.0004
  -8556833.57446  -6648885.43046  23265031.3134                   23265032.2934
        41.2504         37.0004
  -2124805.31646  -1635671.60545  24399089.9614                   24399090.7154
        37.0004         30.2504
 -26003867.09447 -20238127.65646  20738230.0394                   20738226.1884
        46.7504         39.0004
  -1558630.01646  -1195487.96142  24758225.1024                   24758229.9494
        36.2504         17.7504
  -6572207.89147  -5303690.73447  22104785.1484                   22104783.6134
        47.0004         46.0004
 -24204056.29348 -18836371.94147  20870411.5394                   20870407.7464
        49.2504         46.7504
 -18963532.94947 -14741985.54345  21683399.0004                   21683396.1414
        45.0004         34.2504
 25  7  2  0  3  0.0000000  0 10G10G02G08G03G25G28G04G32G31G01
   3660261.10547   2790869.83246  22625510.3674                   22625509.7934
        45.0004         41.0004
 -23937940.68447 -18616409.87946  21224556.4304                   21224550.7854
        47.0004         38.7504
    209323.02345     91964.95344  25076070.6174                   25076077.4964
        34.5004         27.7504
  -8649431.91446  -6721039.85246  23247410.8284                   23247411.5004
        40.5004         37.5004
  -2158760.17246  -1662129.89145  24392628.5474                   24392629.1254
        38.7504         30.7504
 -26014715.16047 -20246580.67246  20736165.6484                   20736161.6524
        46.2504         38.7504
  -1648096.71946  -1265202.01642  24741200.2584                   24741205.2624
        36.2504         17.7504
  -6515953.09047  -5259855.85247  22115490.1954                   22115488.5084
        47.7504         46.0004
 -24281714.23448 -18896884.55947  20855633.6334                   20855629.8674
        49.0004         47.0004
 -19031984.57447 -14795324.43445  21670373.5394                   21670370.1564
        45.0004         34.5004
 25  7  2  0  3 30.0000000  0 10G10G02G08G03G25G28G04G32G31G01
   3712546.78147   2831611.88346  22635459.6484                   22635459.3324
        44.5004         41.0004
 -23942584.00448 -18620028.05546  21223673.0784                   21223667.5314
        48.0004         39.5004
    275630.80145    143633.09044  25088688.2424                   25088696.0824
        34.0004         26.5004
  -8742023.15246  -6793188.73446  23229790.9224                   23229791.4924
        40.7504         37.5004
  -2192264.38746  -1688237.03145  24386252.6644                   24386253.9694
        38.2504         30.0004
 -26024970.44147 -20254571.77346  20734214.0394                   20734210.4844
        47.2504         39.0004
  -1737438.66446  -1334818.82442  24724198.7034                   24724203.1214
        37.5004         17.2504
  -6459602.72347  -5215946.48447  22126213.4454                   22126211.7464
        47.5004         45.7504
 -24358876.48048 -18957010.91447  20840950.1094                   20840946.1024
        49.0004         47.0004
 -19099983.18447 -14848310.32045  21657433.4614                   21657430.7584
        44.5004         35.0004
 25  7  2  0  4  0.0000000  0 10G10G02G08G03G25G28G04G32G31G01
   3765086.27347   2872551.71146  22645458.3444                   22645457.5474
        44.2504         41.0004
 -23946705.43447 -18623239.56246  21222888.4384                   21222882.8284
        46.5004         39.2504
    341865.45745    195244.25844  25101293.4924                   25101300.4574
        32.5004         25.0004
  -8834601.99246  -6865327.96546  23212173.2034                   23212174.7274
        40.5004         37.5004
  -2225311.82046  -1713988.25445  24379963.3054                   24379965.1174
        37.2504         30.2504
 -26034628.83647 -20262097.77746  20732376.3134                   20732372.7464
        45.7504         39.0004
  -1826651.26246  -1404334.96142  24707222.2114                   24707225.8164
        38.0004         17.2504
  -6403153.72747  -5171960.27347  22136955.3134                   22136953.5744
        47.7504         45.5004
 -24435536.37148 -19016745.83247  20826362.0944                   20826357.9414
        49.2504         47.0004
 -19167522.32047 -14900938.18445  21644581.0634                   21644578.5084
        44.5004         34.0004
 25  7  2  0  4 30.0000000  0 10G10G02G08G03G25G28G04G32G31G01
   3817875.94947   2913686.48446  22655503.0234                   22655503.1334
        44.0004         41.0004
 -23950309.31248 -18626047.78546  21222202.7974                   21222196.7704
        48.5004         39.0004
    408020.35945    246793.27744  25113882.5084                   25113889.4024
        33.0004         25.0004
  -8927171.36346  -6937459.80146  23194558.2034                   23194558.9304
        40.2504         36.7504
  -2257904.40646  -1739385.05944  24373761.0084                   24373762.7154
        37.2504         29.2504
 -26043694.40247 -20269161.84046  20730650.9774                   20730647.1174
        46.5004         38.7504
  -1915737.97746  -1473752.92643  24690269.0944                   24690273.2304
        39.0004         18.2504
  -6346611.24247  -5127901.21147  22147714.7814                   22147713.3874
        47.7504         45.5004
 -24511694.88748 -19076090.07047  20811869.3054                   20811865.5824
        48.7504         47.0004
 -19234603.63747 -14953209.29745  21631816.0164                   21631813.2544
        44.7504         34.5004
 25  7  2  0  5  0.0000000  0 10G10G02G08G03G25G28G04G32G31G01
   3870919.03547   2955018.72346  22665597.4304                   22665596.6954
        45.0004         41.0004
 -23953392.14548 -18628449.99646  21221615.8444                   21221610.7384
        48.0004         39.2504
    474096.21145    298280.69144  25126456.0084                   25126463.3284
        34.5004         25.5004
  -9019727.07846  -7009581.03145  23176945.3364                   23176946.1954
        40.5004         35.5004
  -2290036.99246  -1764423.43445  24367646.8674                   24367648.7194
        37.5004         30.0004
 -26052164.12147 -20275761.60246  20729039.3134                   20729035.4344
        46.5004         39.5004
  -2004695.41446  -1543070.20742  24673341.4694                   24673344.7974
        38.5004         17.2504
  -6289973.19547  -5083767.69547  22158493.1334                   22158491.0784
        46.5004         45.5004
 -24587346.93748 -19135039.65647  20797473.3204                   20797469.3984
        49.2504         47.2504
 -19301221.81647 -15005119.52745  21619138.8754                   21619136.3674
        45.2504         35.2504
 25  7  2  0  5 30.0000000  0 10G10G02G08G03G25G28G04G32G31G01
   3924215.46147   2996548.36346  22675739.3754                   22675738.8634
        44.0004         41.2504
 -23955954.43047 -18630446.59046  21221128.7814                   21221123.1054
        47.2504         39.2504
    540090.10246    349704.24244  25139014.0234                   25139021.9924
        37.0004         28.5004
  -9112268.36746  -7081691.00845  23159334.9064                   23159335.5274
        40.0004         35.5004
  -2321707.98446  -1789102.10244  24361619.7344                   24361620.8714
        37.2504         29.5004
 -26060038.43047 -20281897.40646  20727540.9384                   20727537.6604
        47.0004         39.2504
  -2093523.32046  -1612286.57642  24656437.4534                   24656441.4494
        38.0004         17.7504
  -6233241.03147  -5039560.83247  22169288.6884                   22169286.8984
        46.7504         45.5004
 -24662490.48048 -19193593.00847  20783173.9144                   20783170.1484
        48.5004         47.5004
 -19367374.90647 -15056667.35945  21606550.6484                   21606547.8834
        44.7504         34.7504
 25  7  2  0  6  0.0000000  0 11G10G02G08G03G25G28G04G26G32G31G01
   3977766.10947   3038276.09046  22685929.7664                   22685929.6174
        44.2504         41.2504
 -23957995.20747 -18632036.80546  21220740.3444                   21220734.6134
        47.0004         39.0004
    606000.04346    401062.41444  25151555.3914                   25151564.2114
        37.2504         27.5004
  -9204793.59446  -7153788.46145  23141727.6174                   23141728.7894
        39.0004         35.5004
  -2352914.64846  -1813418.95745  24355681.9224                   24355682.9264
        37.5004         30.2504
 -26067316.89847 -20287568.92246  20726155.6954                   20726152.1844
        47.7504         39.0004
  -2182220.87146  -1681401.35242  24639558.3674                   24639562.8714
        37.2504         17.7504
   -126238.46556    -78812.28953  25097535.9144                   25097543.8444
        37.5004         22.0004
  -6176415.16847  -4995280.95747  22180102.2194                   22180100.3754
        47.0004         45.2504
 -24737122.30148 -19251747.60947  20768972.1414                   20768968.0944
        48.5004         47.2504
 -19433060.05147 -15107850.54745  21594050.6804                   21594048.1134
        44.5004         35.0004
 25  7  2  0  6 30.0000000  0 11G10G02G08G03G25G28G04G26G32G31G01
   4031556.05947   3080190.28946  22696165.6954                   22696165.1724
        44.5004         41.0004
 -23959529.66047 -18633232.49646  21220448.6564                   21220442.7234
        47.5004         39.0004
    671808.55546    452341.54344  25164079.5084                   25164087.8324
        38.0004         28.2504
  -9297316.66046  -7225884.23445  23124120.9694                   23124122.0904
        38.5004         35.2504
  -2383670.25046  -1837384.33645  24349829.0704                   24349829.8484
        37.5004         31.5004
 -26074014.75047 -20292788.01246  20724881.6414                   20724877.5004
        47.7504         39.2504
  -2270802.55946  -1750425.80542  24622702.4844                   24622705.9924
        37.7504         16.7504
   -218341.04746   -150580.17644  25080008.5234                   25080017.0164
        37.7504         26.0004
  -6119511.80147  -4950940.69147  22190930.9534                   22190929.3754
        47.0004         45.5004
 -24811255.09048 -19309513.36347  20754865.2274                   20754860.8244
        48.2504         47.0004
 -19498290.14147 -15158679.14545  21581637.9844                   21581634.9414
        44.5004         35.0004
 25  7  2  0  7  0.0000000  0 11G10G02G08G03G25G28G04G26G32G31G01
   4085579.07847   3122286.09446  22706446.0554                   22706445.1054
        44.7504         40.7504
 -23960564.41448 -18634038.79346  21220251.3754                   21220245.4804
        48.0004         39.2504
    737506.53546    503534.56344  25176581.5314                   25176589.3594
        39.2504         29.2504
  -9389842.91046  -7297982.48045  23106513.9144                   23106514.4694
        38.5004         35.2504
  -2413979.30146  -1861001.74245  24344061.3134                   24344062.5044
        37.7504         31.5004
 -26080138.60947 -20297559.82846  20723716.0234                   20723712.4964
        46.0004         38.7504
  -2359274.50446  -1819364.76642  24605865.8444                   24605870.3484
        37.7504         17.2504
   -310623.32046   -222488.16844  25062447.5394                   25062456.3204
        37.5004         27.2504
  -6062538.40647  -4906545.86347  22201772.3984                   22201770.6294
        46.2504         45.5004
 -24884893.08648 -19366893.55947  20740851.7584                   20740847.7704
        48.2504         47.2504
 -19563069.35547 -15209156.42245  21569311.2584                   21569308.0944
        44.7504         34.5004
 25  7  2  0  7 30.0000000  0 11G10G02G08G03G25G28G04G26G32G31G01
   4139838.36347   3164566.00446  22716771.0704                   22716770.9924
        43.5004         41.0004
 -23961096.41048 -18634453.34446  21220150.0944                   21220144.4064
        48.0004         39.0004
    803094.69146    554642.00044  25189063.4224                   25189070.8094
        40.0004         28.2504
  -9482368.11746  -7370079.92645  23088907.3284                   23088907.4844
        39.0004         35.2504
  -2443836.78946  -1884267.29345  24338379.2814                   24338381.2854
        38.2504         30.5004
 -26085685.67647 -20301882.20346  20722660.7114                   20722656.5234
        46.0004         39.0004
  -2447633.17246  -1888215.46143  24589051.7194                   24589055.4494
        37.7504         19.0004
   -403079.64146   -294531.76244  25044853.3984                   25044862.1954
        36.7504         27.0004
  -6005492.97747  -4862094.90247  22212627.5704                   22212625.8054
        46.2504         45.2504
 -24958030.83648 -19423883.96147  20726934.2584                   20726929.9694
        49.2504         47.2504
 -19627392.47747 -15259278.30145  21557070.5704                   21557067.3874
        45.0004         34.7504
 25  7  2  0  8  0.0000000  0 11G10G02G08G03G25G28G04G26G32G31G01
   4194331.86347   3207028.41846  22727140.9384                   22727140.6994
        44.5004         41.0004
 -23961127.93747 -18634477.91046  21220144.2034                   21220138.6954
        47.0004         39.0004
    868568.16446    605660.09044  25201522.6254                   25201530.1954
        39.2504         27.7504
  -9574893.45346  -7442177.48445  23071299.6644                   23071300.5984
        39.2504         34.7504
  -2473243.00446  -1907181.20345  24332783.7664                   24332785.3674
        38.2504         31.2504
 -26090658.50847 -20305757.12546  20721714.0004                   20721710.1414
        46.7504         39.0004
  -2535880.53146  -1956979.41042  24572258.8134                   24572262.8134
        37.0004         17.2504
   -495709.74245   -366710.79344  25027226.7664                   25027235.1484
        35.2504         27.7504
  -5948378.87147  -4817590.43447  22223496.5704                   22223494.8134
        46.5004         45.2504
 -25030668.21148 -19480484.44147  20713112.1484                   20713107.9304
        48.2504         47.2504
 -19691259.52347 -15309044.80145  21544917.3364                   21544914.0124
        45.5004         35.0004
 25  7  2  0  8 30.0000000  0 11G10G02G08G03G25G28G04G26G32G31G01
   4249065.29347   3249677.78546  22737556.1094                   22737556.0354
        43.2504         40.5004
 -23960653.64848 -18634108.34046  21220234.5784                   21220228.8134
        48.0004         39.0004
    933929.96946    656591.17644  25213960.7504                   25213968.4104
        40.0004         25.7504
  -9667412.27046  -7514269.96545  23053694.1094                   23053694.7584
        40.0004         34.7504
  -2502190.73446  -1929737.85244  24327275.3754                   24327276.4844
        37.0004         29.7504
 -26095051.80947 -20309180.45746  20720878.0784                   20720874.3204
        45.5004         39.5004
  -2624010.63346  -2025651.94542  24555487.7344                   24555491.5434
        37.5004         17.2504
   -588505.46946   -439018.85244  25009568.0164                   25009576.1294
        36.2504         28.2504
  -5891191.53547  -4773028.89147  22234378.3834                   22234377.2704
        46.7504         45.2504
 -25102797.45748 -19536688.99247  20699386.4844                   20699382.1024
        49.0004         47.5004
 -19754662.84847 -15358449.94945  21532851.8594                   21532848.8444
        45.2504         35.5004
 25  7  2  0  9  0.0000000  0 11G10G02G08G03G25G28G04G26G32G31G01
   4304037.11347   3292512.91446  22748016.7974                   22748016.7114
        43.5004         40.5004
 -23959675.37948 -18633346.06246  21220420.7894                   21220414.7894
        48.0004         39.0004
    999176.05146    707432.07844  25226376.8054                   25226384.2114
        39.2504         28.5004
  -9759924.99246  -7586357.71946  23036089.7974                   23036089.6414
        41.2504         36.2504
  -2530679.71546  -1951937.01645  24321853.9304                   24321855.4024
        37.0004         30.7504
 -26098867.59847 -20312153.78546  20720151.6334                   20720148.2424
        46.7504         38.7504
  -2712024.76246  -2094234.17243  24538739.2814                   24538742.7464
        38.2504         18.5004
   -681466.17246   -511455.47744  24991878.2274                   24991885.9654
        37.2504         28.5004
  -5833933.73447  -4728412.45747  22245274.2814                   22245272.9414
        47.7504         45.2504
 -25174418.13748 -19592497.26247  20685757.2274                   20685753.5004
        48.5004         47.5004
 -19817601.97347 -15407493.38345  21520874.7584                   21520871.8634
        45.2504         34.7504
 25  7  2  0  9 30.0000000  0 10G10G02G03G25G28G04G26G32G31G01
   4359251.20347   3335536.83246  22758524.1954                   22758523.7854
        43.5004         40.5004
 -23958189.38748 -18632188.14846  21220703.6254                   21220697.8404
        48.7504         39.0004
  -9852426.86746  -7658437.01245  23018487.1804                   23018486.9924
        41.0004         35.7504
  -2558704.41846  -1973774.41845  24316521.8134                   24316522.1644
        38.0004         30.7504
 -26102102.50047 -20314674.46146  20719536.2194                   20719532.4804
        47.0004         39.7504
  -2799919.01646  -2162722.98442  24522012.5394                   24522016.8914
        38.0004         17.7504
   -774585.51246   -584015.71144  24974158.1564                   24974165.7894
        37.0004         28.2504
  -5776602.79747  -4683739.02347  22256183.9454                   22256182.4224
        47.0004         45.0004
 -25245524.03148 -19647904.39147  20672226.0704                   20672221.9144
        48.0004         47.2504
 -19880071.05147 -15456170.55145  21508987.1724                   21508984.2424
        45.5004         34.7504
 25  7  2  0 10  0.0000000  0 10G10G02G03G25G28G04G26G32G31G01
   4414715.29347   3378755.56346  22769078.6644                   22769078.1524
        44.0004         41.0004
 -23956188.33648 -18630628.89846  21221084.3204                   21221078.9184
        48.5004         39.2504
  -9944909.13346  -7730501.02045  23000888.2504                   23000888.3364
        40.5004         35.2504
  -2586255.41446  -1995242.68744  24311278.2504                   24311279.8324
        37.5004         29.5004
 -26104749.24647 -20316736.85246  20719032.8524                   20719028.7114
        46.5004         39.0004
  -2887685.22346  -2231111.99243  24505311.1174                   24505316.1054
        36.5004         18.5004
   -867853.23845   -656691.57844  24956409.5084                   24956416.7544
        35.7504         28.2504
  -5719192.11347  -4639003.44947  22267108.9304                   22267107.4654
        46.7504         44.7504
 -25316105.42248 -19702902.83247  20658794.9844                   20658791.0004
        48.2504         47.2504
 -19942060.33247 -15504473.85245  21497191.3524                   21497188.5514
        45.2504         35.0004
 25  7  2  0 10 30.0000000  0 10G10G02G03G25G28G04G26G32G31G01
   4470438.53147   3422176.21146  22779682.4384                   22779682.3244
        43.7504         40.5004
 -23953663.49248 -18628661.49646  21221564.7504                   21221559.1294
        49.0004         39.2504
 -10037361.51646  -7802541.76645  22983295.1094                   22983295.0984
        41.7504         35.2504
  -2613321.95746  -2016333.45345  24306127.2194                   24306128.3984
        37.5004         30.0004
 -26106799.26647 -20318334.25846  20718642.0394                   20718638.8134
        47.0004         38.7504
  -2975314.08246  -2299393.97343  24488636.5164                   24488640.4184
        37.0004         18.5004
   -961257.87545   -729474.13344  24938635.6024                   24938642.5474
        34.5004         28.5004
  -5661693.68747  -4594199.51247  22278050.4224                   22278048.9964
        47.0004         45.0004
 -25386150.90647 -19757483.67647  20645465.8914                   20645461.3984
        47.5004         47.2504
 -20003558.65247 -15552394.59845  21485488.4454                   21485485.4774
        45.5004         35.0004
 25  7  2  0 11  0.0000000  0 10G10G02G03G25G28G04G26G32G31G01
   4526434.84047   3465809.64546  22790338.2584                   22790338.0744
        43.2504         40.5004
 -23950601.21948 -18626275.32046  21222147.5554                   21222142.2464
        48.5004         39.0004
 -10129769.10246  -7874547.59445  22965710.7814                   22965710.6954
        41.2504         34.7504
  -2639888.38746  -2037034.52744  24301071.9774                   24301073.4654
        37.0004         29.5004
 -26108239.12147 -20319456.21146  20718368.4534                   20718364.4654
        46.7504         38.7504
  -3062791.42646  -2367557.91843  24471989.7584                   24471992.9414
        36.7504         19.0004
  -1054783.00445   -802350.59044  24920836.8444                   24920845.1024
        33.5004         27.0004
  -5604094.68447  -4549317.19947  22289011.6334                   22289010.0904
        46.0004         44.7504
 -25455644.70748 -19811634.62947  20632241.3134                   20632236.9924
        48.0004         47.0004
 -20064550.21147 -15599920.45745  21473882.3444                   21473879.0904
        45.5004         35.0004
 25  7  2  0 11 30.0000000  0 10G10G02G03G25G28G04G26G32G31G01
   4582705.55947   3509656.89846  22801046.1804                   22801046.3164
        43.0004         40.5004
 -23947000.43748 -18623469.53146  21222832.9064                   21222827.2034
        49.0004         39.5004
 -10222129.46546  -7946516.62145  22948135.1484                   22948134.9144
        40.5004         35.2504
  -2665951.92246  -2057343.75045  24296112.0704                   24296113.8874
        37.2504         30.7504
 -26109068.06247 -20320102.11746  20718210.7344                   20718206.8324
        45.7504         38.7504
  -3150115.79745  -2435602.64142  24455371.3524                   24455375.6174
        35.0004         17.7504
  -1148424.88345   -875317.96144  24903017.6094                   24903025.3164
        31.7504         24.5004
  -5546394.92247  -4504356.36747  22299991.2274                   22299990.1174
        46.0004         44.7504
 -25524583.48847 -19865353.10947  20619122.7034                   20619118.3634
        47.7504         47.2504
 -20125031.64147 -15647048.81245  21462372.8984                   21462369.8524
        45.0004         35.0004
 25  7  2  0 12  0.0000000  0 10G10G02G03G25G28G04G26G32G31G01
   4639238.11747   3553708.19146  22811804.5234                   22811803.8984
        42.5004         40.2504
 -23942874.10247 -18620254.20746  21223618.1484                   21223612.0314
        47.7504         38.7504
 -10314453.94146  -8018457.68745  22930565.7344                   22930566.1644
        41.0004         35.2504
  -2691523.30146  -2077269.46145  24291245.9064                   24291247.5274
        37.5004         32.0004
 -26109299.20747 -20320282.22346  20718166.5704                   20718162.8244
        45.7504         39.0004
  -3237299.40645  -2503537.64542  24438781.1024                   24438785.1884
        34.0004         17.2504
  -1242193.49245   -948384.07844  24885174.4454                   24885181.0904
        31.2504         25.2504
  -5488608.11747  -4459327.71547  22310987.9454                   22310986.4614
        46.0004         44.7504
 -25592977.57848 -19918647.15647  20606107.6334                   20606103.3554
        48.2504         47.2504
 -20185013.56247 -15693787.94545  21450958.8524                   21450955.3364
        46.2504         35.0004
 25  7  2  0 12 30.0000000  0 10G10G02G03G25G28G04G26G32G31G01
   4696032.60947   3597963.57446  22822611.4694                   22822611.6604
        43.5004         40.5004
 -23938222.53548 -18616629.62146  21224503.0704                   21224497.1844
        48.5004         38.7504
 -10406741.50446  -8090369.97746  22913003.7034                   22913004.3404
        41.5004         36.0004
  -2716601.02346  -2096810.49645  24286474.5554                   24286475.3594
        36.5004         30.2504
 -26108933.05947 -20319996.89846  20718236.5474                   20718232.1884
        47.0004         39.0004
  -3324342.02345  -2571362.85542  24422217.3984                   24422221.4344
        34.7504         17.7504
  -1336086.27345  -1021546.97344  24867306.8984                   24867313.6994
        32.5004         25.2504
  -5430735.14547  -4414231.91847  22322000.6724                   22321999.0044
        47.0004         44.7504
 -25660824.92648 -19971515.16047  20593196.8364                   20593192.4734
        48.0004         47.5004
 -20244493.96547 -15740136.28145  21439640.0944                   21439636.6374
        45.7504         35.2504
 25  7  2  0 13  0.0000000  0 10G10G02G03G25G28G04G26G32G31G01
   4753091.23447   3642424.79346  22833469.4774                   22833469.2304
        43.7504         40.5004
 -23933043.90648 -18612594.34446  21225488.3204                   21225482.6724
        49.0004         39.0004
 -10498988.78546  -8162250.88346  22895449.9304                   22895450.1524
        41.7504         37.0004
  -2741181.08645  -2115963.75444  24281796.7734                   24281797.5704
        34.7504         29.0004
 -26107968.03947 -20319244.91846  20718419.9614                   20718415.8014
        47.5004         39.0004
  -3411241.17245  -2639076.20743  24405681.5554                   24405684.2704
        35.5004         18.5004
  -1430098.50045  -1094802.90644  24849417.4304                   24849423.9924
        32.0004         26.0004
  -5372774.95347  -4369068.16047  22333030.0554                   22333028.5984
        47.2504         44.5004
 -25728121.18748 -20023953.75847  20580390.6334                   20580386.6844
        48.2504         47.5004
 -20303468.66447 -15786090.57045  21428417.3984                   21428414.6684
        46.0004         35.5004
 25  7  2  0 13 30.0000000  0 10G10G02G03G25G28G04G26G32G31G01
   4810410.13747   3687088.82446  22844376.7814                   22844376.9884
        43.5004         40.5004
 -23927342.71948 -18608151.87146  21226573.5474                   21226567.9224
        48.7504         39.0004
 -10591198.43447  -8234102.45746  22877903.0394                   22877903.2584
        42.7504         37.0004
  -2765266.03545  -2134731.20744  24277213.6954                   24277215.1454
        34.2504         27.7504
 -26106408.63747 -20318029.78546  20718716.7194                   20718712.8324
        47.5004         39.2504
  -3498000.56245  -2706680.71943  24389171.2664                   24389174.9144
        34.5004         19.7504
  -1524231.45745  -1168152.90644  24831503.3364                   24831510.2544
        31.2504         27.2504
  -5314732.42247  -4323840.23847  22344075.1024                   22344073.9964
        46.5004         44.7504
 -25794868.41448 -20075964.53547  20567688.9224                   20567685.0554
        48.2504         47.5004
 -20361939.55147 -15831652.27745  21417290.6174                   21417287.8794
        47.0004         35.5004
 25  7  2  0 14  0.0000000  0 10G10G02G03G25G28G04G26G32G31G01
   4867987.93447   3731954.59846  22855333.7424                   22855333.5314
        44.2504         40.0004
 -23921120.41448 -18603303.33246  21227757.5004                   21227751.8524
        48.7504         39.0004
 -10683370.67647  -8305924.87946  22860363.3914                   22860362.9884
        42.0004         37.5004
  -2788855.47345  -2153112.53544  24272724.1024                   24272725.3444
        34.0004         27.5004
 -26104256.83247 -20316353.03946  20719126.1954                   20719122.1024
        47.0004         39.2504
  -3584621.19545  -2774177.08243  24372686.9774                   24372691.5084
        35.5004         19.2504
  -1618484.07845  -1241596.15644  24813568.7504                   24813574.8594
        32.0004         25.0004
  -5256609.93047  -4278550.00847  22355135.7274                   22355134.3794
        46.7504         45.0004
 -25861065.85547 -20127546.90647  20555092.4534                   20555088.0084
        47.7504         47.5004
 -20419906.10947 -15876820.99246  21406260.2584                   21406257.1054
        46.5004         36.0004
 25  7  2  0 14 30.0000000  0 10G10G02G03G25G28G04G26G32G31G01
   4925822.83247   3777020.69546  22866338.8914                   22866339.5554
        44.2504         40.0004
 -23914379.34848 -18598050.56246  21229040.6334                   21229034.8674
        48.5004         38.7504
 -10775506.15247  -8377718.66046  22842829.9534                   22842830.2424
        42.5004         38.5004
  -2811949.65245  -2171107.96144  24268329.3524                   24268330.6374
        33.7504         28.0004
 -26101515.08248 -20314216.60246  20719648.1334                   20719644.5704
        48.2504         39.0004
  -3671104.75846  -2841566.66443  24356230.1024                   24356233.4614
        36.7504         19.0004
  -1712855.41845  -1315131.92644  24795609.3914                   24795616.0474
        33.0004         26.7504
  -5198410.35947  -4233199.72347  22366210.7424                   22366209.2234
        47.2504         44.5004
 -25926713.29747 -20178700.70347  20542599.8524                   20542595.2974
        47.5004         47.7504
 -20477368.20347 -15921596.63345  21395325.7894                   21395322.1644
        46.5004         35.5004
 25  7  2  0 15  0.0000000  0 10G10G02G03G25G28G04G26G32G31G01
   4983914.25847   3822286.68446  22877394.3754                   22877393.7304
        44.0004         40.2504
 -23907120.57048 -18592394.39146  21230421.7114                   21230415.8954
        48.5004         38.7504
 -10867604.22347  -8449483.28446  22825304.4224                   22825304.8244
        42.2504         38.7504
  -2834547.70355  -2188716.79754  24264029.2814                   24264030.1684
        34.5004         27.5004
 -26098184.69148 -20311621.48446  20720282.2194                   20720278.1684
        48.5004         39.5004
  -3757451.51246  -2908849.63343  24339798.7114                   24339801.5664
        37.5004         18.5004
  -1807343.67245  -1388758.82044  24777627.5164                   24777634.8554
        34.0004         26.5004
  -5140135.16847  -4187790.50047  22377300.1254                   22377298.7974
        47.0004         44.5004
 -25991809.07047 -20229424.62948  20530212.6334                   20530208.5664
        47.0004         48.0004
 -20534324.45347 -15965978.10545  21384487.0634                   21384483.5944
        47.0004         35.5004
 25  7  2  0 15 30.0000000  0 10G10G02G03G25G28G04G26G32G31G01
   5042263.09047   3867753.25846  22888497.3284                   22888497.4384
        44.2504         40.0004
 -23899343.54748 -18586334.37946  21231901.6564                   21231895.8714
        48.7504         39.0004
 -10959662.62947  -8521217.00046  22807786.3594                   22807786.5394
        42.0004         37.5004
  -2856647.17655  -2205937.12154  24259823.6644                   24259825.5904
        33.5004         27.2504
 -26094265.35948 -20308567.44946  20721027.8834                   20721023.5044
        48.0004         39.5004
  -3843660.28946  -2976025.12943  24323393.9454                   24323396.4654
        38.2504         19.7504
  -1901945.06645  -1462473.89144  24759625.6024                   24759632.5044
        34.0004         26.2504
  -5081784.53947  -4142322.50847  22388403.8674                   22388402.6454
        46.5004         44.5004
 -26056350.67647 -20279716.73848  20517930.4384                   20517926.0784
        46.7504         48.0004
 -20590772.09047 -16009963.26645  21373745.0634                   21373741.8754
        47.2504         35.5004
 25  7  2  0 16  0.0000000  0 10G10G02G03G25G28G04G26G32G31G01
   5100868.87147   3913420.05546  22899649.2814                   22899649.7664
        44.5004         39.7504
 -23891049.25048 -18579871.30946  21233479.9454                   21233474.4694
        48.5004         39.0004
 -11051680.72747  -8592919.30546  22790275.2584                   22790275.8674
        42.5004         37.7504
  -2878246.98055  -2222768.08654  24255713.0394                   24255714.3954
        34.7504         27.2504
 -26089758.28547 -20305055.43446  20721885.4144                   20721881.4774
        47.5004         39.0004
  -3929731.27346  -3043093.21543  24307014.8134                   24307017.8444
        38.7504         20.2504
  -1996657.52345  -1536275.48444  24741602.2034                   24741609.3554
        34.7504         26.7504
  -5023359.81647  -4096796.77047  22399521.7034                   22399520.3364
        46.5004         44.0004
 -26120336.91847 -20329576.09448  20505754.3594                   20505750.2704
        47.0004         48.0004
 -20646709.59847 -16053550.91846  21363100.7734                   21363097.5784
        46.5004         36.0004
 25  7  2  0 16 30.0000000  0 10G10G02G03G25G28G04G26G32G31G01
   5159733.35947   3959288.43846  22910851.3054                   22910851.6334
        44.2504         39.5004
 -23882236.59448 -18573004.31246  21235156.9844                   21235151.6134
        49.0004         39.0004
 -11143655.57847  -8664587.90246  22772773.6644                   22772773.2274
        43.0004         38.0004
  -2899343.97345  -2239207.26244  24251699.0084                   24251699.9574
        33.7504         27.7504
 -26084662.44948 -20301084.64146  20722854.7424                   20722851.0744
        48.0004         39.0004
  -4015662.68046  -3110052.57043  24290662.4064                   24290665.0394
        38.0004         20.2504
  -2091476.75045  -1610160.28944  24723559.2584                   24723565.3954
        34.2504         25.5004
  -4964860.25847  -4051212.71947  22410653.7114                   22410652.6334
        46.2504         44.0004
 -26183763.72347 -20378999.53148  20493684.6414                   20493680.3594
        47.0004         48.0004
 -20702133.42647 -16096738.30945  21352554.1724                   21352550.8014
        47.0004         34.7504
 25  7  2  0 17  0.0000000  0 10G10G02G03G25G28G04G26G32G31G01
   5218851.77347   4005354.67646  22922100.9534                   22922100.9924
        43.7504         39.2504
 -23872910.62548 -18565737.34046  21236931.6094                   21236926.0664
        48.5004         39.2504
 -11235590.53147  -8736225.43446  22755278.9534                   22755278.1054
        43.0004         36.7504
  -2919941.34445  -2255257.11344  24247778.3984                   24247779.9694
        33.5004         27.5004
 -26078983.39147 -20296659.37946  20723935.5944                   20723931.6054
        47.7504         39.0004
  -4101458.82446  -3176906.52343  24274335.4224                   24274338.2234
        38.0004         21.5004
  -2186404.79745  -1684129.87944  24705494.6254                   24705500.5474
        34.7504         27.7504
  -4906291.60247  -4005574.82447  22421798.8284                   22421798.0514
        46.2504         43.5004
 -26246634.00447 -20427989.30948  20481720.9534                   20481715.8324
        47.5004         48.2504
 -20757046.49647 -16139527.69145  21342104.3364                   21342101.0824
        47.0004         35.2504
 25  7  2  0 17 30.0000000  0 10G10G02G03G25G28G04G26G32G31G01
   5278224.75047   4051619.27346  22933399.4454                   22933399.7274
        44.0004         39.5004
 -23863071.47348 -18558070.46946  21238803.9454                   21238798.3324
        48.2504         39.0004
 -11327483.80147  -8807830.47346  22737791.0864                   22737791.8754
        42.5004         37.5004
  -2940037.05945  -2270916.06244  24243955.4774                   24243956.1954
        34.0004         26.0004
 -26072721.17247 -20291779.71946  20725126.9454                   20725123.4844
        47.0004         39.2504
  -4187118.84446  -3243654.41443  24258035.4304                   24258038.2034
        39.5004         21.7504
  -2281438.30945  -1758181.61744  24687409.3284                   24687416.0274
        34.7504         26.0004
  -4847654.07847  -3959883.27747  22432957.6174                   22432955.9574
        46.2504         43.5004
 -26308945.11348 -20476543.37148  20469863.3444                   20469859.0554
        48.0004         48.0004
 -20811446.21947 -16181917.06645  21331752.5704                   21331749.0984
        47.5004         34.7504
 25  7  2  0 18  0.0000000  0 10G10G02G03G25G28G04G26G32G31G01
   5337850.51647   4098080.84846  22944746.3284                   22944746.2194
        45.0004         40.2504
 -23852721.27748 -18550005.39846  21240773.4694                   21240768.0744
        48.7504         39.0004
 -11419335.70347  -8879403.28146  22720312.7584                   22720312.9534
        42.5004         37.0004
  -2959631.42245  -2286184.34844  24240227.0784                   24240227.2664
        33.5004         25.7504
 -26065878.35547 -20286447.63746  20726429.2974                   20726425.3874
        47.7504         38.5004
  -4272644.27346  -3310297.43043  24241760.1254                   24241762.3244
        38.2504         20.5004
  -2376576.31645  -1832314.80544  24669304.8834                   24669311.4884
        35.2504         25.2504
  -4788950.32447  -3914140.10947  22444128.4064                   22444127.0274
        46.7504         43.5004
 -26370697.01248 -20524661.68448  20458112.3054                   20458107.6254
        48.5004         48.2504
 -20865332.46147 -16223906.34045  21321498.2274                   21321494.9574
        46.7504         35.5004
 25  7  2  0 18 30.0000000  0 10G10G02G03G25G28G04G26G32G31G01
   5397730.56647   4144740.57046  22956141.2734                   22956141.2544
        43.5004         40.5004
 -23841859.12548 -18541541.39846  21242840.5634                   21242834.9734
        49.0004         38.5004
 -11511143.48446  -8950941.69546  22702842.2034                   22702842.3054
        41.2504         37.5004
  -2978721.36345  -2301059.58644  24236594.2194                   24236595.2114
        33.2504         26.7504
 -26058454.25847 -20280662.61346  20727842.2734                   20727838.0434
        47.7504         39.0004
  -4358033.35946  -3376834.19943  24225510.9534                   24225513.8204
        38.7504         21.5004
  -2471814.70745  -1906526.24244  24651181.1334                   24651187.7664
        35.2504         24.5004
  -4730179.78947  -3868344.90647  22455311.9304                   22455310.7424
        46.0004         43.5004
 -26431886.34448 -20572341.63348  20446468.3284                   20446463.9264
        48.5004         48.2504
 -20918701.93447 -16265492.92645  21311342.6094                   21311339.1524
        46.7504         35.2504
 25  7  2  0 19  0.0000000  0 10G10G02G03G25G28G04G26G32G31G01
   5457865.09047   4191598.57046  22967584.4694                   22967584.2234
        44.5004         40.0004
 -23830485.05948 -18532678.49646  21245004.9844                   21244999.0234
        48.5004         39.2504
 -11602905.58246  -9022444.51246  22685380.3754                   22685380.3954
        40.7504         38.0004
  -2997305.43745  -2315540.64144  24233057.3134                   24233058.1054
        33.5004         26.5004
 -26050449.44147 -20274425.08246  20729365.1954                   20729361.5514
        47.2504         39.0004
  -4443285.66446  -3443264.37543  24209287.6804                   24209290.8554
        39.0004         21.5004
  -2567150.52045  -1980813.56644  24633038.8594                   24633046.0474
        35.0004         24.5004
  -4671343.11347  -3822498.17247  22466508.6254                   22466507.0434
        46.7504         43.7504
 -26492511.13748 -20619581.69148  20434931.5784                   20434927.3444
        48.2504         48.2504
 -20971552.57447 -16306675.22746  21301285.3754                   21301282.2464
        46.7504         36.0004
 25  7  2  0 19 30.0000000  0 10G10G02G03G25G28G04G26G32G31G01
   5518252.18447   4238653.38746  22979075.5944                   22979075.3524
        43.0004         39.2504
 -23818601.89148 -18523418.90246  21247266.2974                   21247260.1724
        48.2504         39.2504
 -11694622.57846  -9093912.17646  22667926.9224                   22667927.3984
        41.2504         37.7504
  -3015384.05945  -2329627.84444  24229616.6484                   24229617.8954
        32.0004         27.5004
 -26041866.66847 -20267737.19546  20730998.4144                   20730994.6094
        47.5004         39.0004
  -4528402.78946  -3509589.21543  24193089.7814                   24193092.8984
        38.2504         21.5004
  -2662582.84045  -2055176.10244  24614880.4384                   24614885.5824
        35.5004         24.7504
  -4612443.05147  -3776602.03547  22477716.6024                   22477715.1484
        45.2504         43.5004
 -26552571.30548 -20666381.76248  20423502.2114                   20423498.5354
        48.0004         48.2504
 -21023884.45347 -16347453.30145  21291326.9224                   21291323.5044
        46.5004         35.7504
 25  7  2  0 20  0.0000000  0 10G10G02G03G25G28G04G26G32G31G01
   5578895.40647   4285907.78146  22990615.3594                   22990615.6414
        44.0004         39.0004
 -23806206.51648 -18513760.18746  21249624.7344                   21249619.1994
        48.5004         38.5004
 -11786289.52346  -9165340.84846  22650483.7034                   22650483.4614
        40.7504         37.5004
  -3032952.30945  -2343317.34844  24226275.4534                   24226275.2114
        33.5004         26.7504
 -26032703.14847 -20260596.78546  20732742.2274                   20732738.1684
        47.7504         38.5004
  -4613380.90646  -3575805.77343  24176919.8674                   24176921.8364
        39.5004         21.2504
  -2758105.39546  -2129608.93444  24596701.8674                   24596707.7154
        36.5004         27.5004
  -4553476.84847  -3730654.36747  22488937.8134                   22488936.3634
        46.7504         43.7504
 -26612061.52348 -20712737.72748  20412181.9224                   20412177.6764
        48.0004         48.2504
 -21075692.07847 -16387822.85545  21281468.0004                   21281464.7974
        47.5004         35.5004
 25  7  2  0 20 30.0000000  0 10G10G02G03G25G28G04G26G32G31G01
   5639799.98047   4333365.83246  23002205.3134                   23002204.9884
        44.0004         38.7504
 -23793294.28948 -18503698.72746  21252082.0634                   21252076.7974
        48.5004         39.0004
 -11877899.69546  -9236725.28546  22633049.9304                   22633050.5864
        40.2504         37.7504
  -3050003.52055  -2356603.94954  24223029.8204                   24223029.9964
        33.0004         27.5004
 -26022954.50847 -20253000.43046  20734597.7114                   20734593.6914
        47.5004         39.0004
  -4698214.59446  -3641909.75043  24160776.0784                   24160778.2934
        40.2504         21.7504
  -2853710.03146  -2204105.72744  24578508.1954                   24578514.8524
        36.7504         28.5004
  -4494440.12947  -3684651.74247  22500172.0784                   22500170.6764
        46.5004         43.5004
 -26670974.69147 -20758644.04748  20400971.0164                   20400966.6804
        47.5004         48.0004
 -21126968.47747 -16427778.46945  21271710.3984                   21271707.1804
        46.2504         35.5004
 25  7  2  0 21  0.0000000  0 10G10G02G03G25G28G04G26G32G31G01
   5700960.78547   4381023.53146  23013843.5164                   23013844.1724
        42.5004         39.0004
 -23779870.85248 -18493238.91846  21254636.8054                   21254631.1174
        48.5004         39.0004
 -11969456.88347  -9308068.44946  22615627.6254                   22615627.9104
        42.0004         38.7504
  -3066541.38345  -2369490.55944  24219882.5864                   24219882.9694
        34.0004         27.0004
 -26012626.71948 -20244952.79346  20736562.5704                   20736559.0664
        48.0004         38.5004
  -4782908.59046  -3707904.90643  24144659.9844                   24144661.8954
        39.2504         20.7504
  -2949399.22746  -2278668.43744  24560299.2424                   24560305.4384
        38.5004         28.2504
  -4435338.82047  -3638598.79747  22511418.4304                   22511416.9734
        46.5004         43.5004
 -26729314.17247 -20804103.34048  20389869.2584                   20389864.7544
        47.0004         48.0004
 -21177716.93047 -16467322.70345  21262053.1024                   21262050.1764
        47.0004         35.5004
 25  7  2  0 21 30.0000000  0 10G10G02G03G25G28G04G26G32G31G01
   5762373.45747   4428877.48446  23025530.0084                   23025530.5434
        43.2504         38.0004
 -23765941.32448 -18482384.75846  21257287.2034                   21257281.7304
        48.5004         39.0004
 -12060963.97347  -9379372.58646  22598214.7894                   22598214.4734
        42.5004         39.5004
  -3082568.91445  -2381979.50844  24216832.0314                   24216833.3554
        32.5004         26.7504
 -26001725.06647 -20236457.97746  20738637.3204                   20738633.7234
        47.2504         38.5004
  -4867466.95346  -3773794.39143  24128568.4454                   24128570.7384
        39.5004         20.5004
  -3045174.39146  -2353298.13344  24542073.9384                   24542080.0394
        38.0004         28.7504
  -4376178.01247  -3592499.49247  22522676.5234                   22522675.3014
        46.2504         43.7504
 -26787082.50047 -20849117.58248  20378876.3134                   20378872.0044
        47.5004         48.2504
 -21227940.01647 -16506457.55145  21252496.1254                   21252493.2114
        46.5004         35.5004
 25  7  2  0 22  0.0000000  0 10G10G02G03G25G28G04G26G32G31G01
   5824037.50847   4476927.32446  23037264.7274                   23037264.9224
        43.5004         37.5004
 -23751506.97348 -18471137.23046  21260033.9454                   21260028.1684
        48.2504         38.7504
 -12152419.94547  -9450636.89146  22580811.2034                   22580811.2344
        43.0004         39.5004
  -3098085.34845  -2394070.21144  24213879.5084                   24213880.0634
        33.0004         25.5004
 -25990250.87147 -20227517.03546  20740820.5944                   20740816.9844
        47.5004         38.2504
  -4951889.91046  -3839578.34443  24112502.9384                   24112504.6764
        39.7504         19.7504
  -3141033.25046  -2427993.03544  24523832.1954                   24523837.9924
        38.7504         29.0004
  -4316958.94547  -3546354.78147  22533946.0554                   22533944.4384
        47.5004         43.7504
 -26844278.34848 -20893685.72348  20367992.3444                   20367987.8794
        48.5004         48.2504
 -21277636.38347 -16545181.96546  21243039.5164                   21243036.1644
        47.0004         36.0004
 25  7  2  0 22 30.0000000  0 10G10G02G03G25G28G04G26G32G31G01
   7461378.12947   5752777.10246  23348840.5864                   23348840.5984
        43.0004         38.2504
 -22161141.49247 -17231891.41846  21562670.5634                   21562664.8674
        46.5004         39.0004
 -10668393.09047  -8294252.23446  22863211.4694                   22863211.4694
        43.7504         38.7504
  -1537661.58245  -1178155.55144  24510818.4304                   24510819.1174
        34.5004         26.2504
 -24402778.21547 -18990525.35246  21042907.1254                   21042903.2114
        45.5004         39.0004
  -3460747.21146  -2677648.78543  24396258.0784                   24396259.8954
        38.7504         19.7504
  -1661542.37546  -1275142.69544  24805369.9844                   24805375.1884
        38.5004         29.2504
  -2682257.16847  -2272561.21547  22845019.0474                   22845017.5274
        47.0004         43.0004
 -25325470.65648 -19710199.16848  20657011.9534                   20657007.5784
        48.2504         48.5004
 -19751375.38347 -15355887.63345  21533477.0784                   21533473.8284
        46.2504         35.5004
 25  7  2  0 23  0.0000000  0 10G10G02G03G25G28G04G26G32G31G01
   7523556.43047   5801227.66446  23360672.8204                   23360672.5664
        42.7504         37.7504
 -22145687.28948 -17219849.20346  21565611.1804                   21565605.9224
        48.5004         39.2504
 -10759730.91847  -8365424.47746  22845830.4454                   22845830.8244
        43.2504         39.5004
  -1552140.19945  -1189437.55544  24508062.2114                   24508064.0944
        33.5004         26.5004
 -24390150.16847 -18980685.29746  21045309.9064                   21045305.5554
        47.2504         39.0004
  -3544887.03546  -2743212.11743  24380246.2034                   24380248.4414
        38.0004         19.0004
  -1757548.35546  -1349952.23044  24787100.5084                   24787105.4734
        38.2504         27.7504
  -2622912.37547  -2226318.53947  22856311.7274                   22856310.5744
        47.0004         43.0004
 -25381504.71948 -19753862.03548  20646348.8364                   20646344.3284
        48.0004         48.2504
 -19800001.47747 -15393778.07045  21524223.5474                   21524220.4804
        46.7504         35.7504
 25  7  2  0 23 30.0000000  0 10G10G02G03G25G28G04G26G32G31G01
   7585991.62547   5849878.39846  23372554.1884                   23372553.5744
        43.7504         38.0004
 -22129724.55547 -17207410.72746  21568648.9384                   21568643.5164
        46.2504         39.0004
 -10851007.69147  -8436549.15246  22828461.6564                   22828460.9924
        43.5004         39.2504
  -1566098.33645  -1200314.00044  24505407.3364                   24505407.9964
        34.5004         26.5004
 -24376946.82447 -18970396.97346  21047821.9144                   21047817.9804
        45.5004         38.7504
  -3628885.10546  -2808664.97743  24364262.2664                   24364264.2304
        37.5004         19.2504
  -1853623.80546  -1424815.90244  24768817.6024                   24768822.7894
        38.5004         27.7504
  -2563506.05547  -2180027.92247  22867616.4064                   22867615.1804
        47.5004         43.0004
 -25436955.69548 -19797070.54348  20635796.7504                   20635792.4574
        48.7504         48.2504
 -19848090.03947 -15431249.64145  21515072.6174                   21515069.1684
        46.7504         35.5004
 25  7  2  0 24  0.0000000  0 10G10G02G03G25G28G04G26G32G31G01
   7648681.76647   5898727.78946  23384483.1644                   23384482.9494
        42.5004         39.2504
 -22113255.66848 -17194577.84846  21571782.9304                   21571777.5314
        48.2504         38.2504
 -10942223.75847  -8507626.52346  22811103.1254                   22811102.7814
        43.5004         39.5004
  -1579536.48445  -1210785.26644  24502850.0234                   24502850.5314
        34.7504         26.7504
 -24363171.05547 -18959662.60546  21050444.0634                   21050439.9024
        46.7504         38.7504
  -3712743.06246  -2874008.65242  24348304.3754                   24348306.3054
        37.7504         17.7504
  -1949767.77046  -1499732.97744  24750521.1644                   24750526.8014
        38.5004         26.0004
  -2504040.78947  -2133691.37547  22878932.9924                   22878931.5514
        46.2504         42.7504
 -25491823.66048 -19839824.75848  20625355.5554                   20625351.4654
        48.5004         48.5004
 -19895641.23847 -15468302.49645  21506024.1804                   21506020.9734
        46.7504         35.5004
 25  7  2  0 24 30.0000000  0 10G10G02G03G25G28G04G26G32G31G01
   7711623.27747   5947773.05946  23396460.5944                   23396460.5354
        43.5004         38.7504
 -22096285.28948 -17181354.19546  21575012.1094                   21575006.8674
        48.0004         38.7504
 -11033381.19547  -8578658.21546  22793756.5474                   22793755.9694
        43.2504         39.2504
  -1592456.89845  -1220853.10944  24500390.2034                   24500392.1214
        33.5004         24.7504
 -24348827.43747 -18948485.75446  21053172.9384                   21053169.5744
        47.7504         38.7504
  -3796464.20746  -2939245.73442  24332372.4774                   24332375.0314
        37.5004         17.2504
  -2045980.94146  -1574704.01244  24732212.2504                   24732217.8634
        38.0004         26.0004
  -2444520.86347  -2087312.23447  22890259.0704                   22890257.4144
        46.5004         43.0004
 -25546110.57848 -19882126.21148  20615025.3204                   20615020.9384
