     2.11           OBSERVATION DATA    G (GPS)             RINEX VERSION / TYPE
teqc  2019Feb25     K Rivera            20250821 09:28:45UTCPGM / RUN BY / DATE
Linux 2.6.32-573.12.1.x86_64|x86_64|gcc -static|Linux 64|=+ COMMENT
teqc  2019Feb25                         20250821 09:25:46UTCCOMMENT
BIT 2 OF LLI FLAGS DATA COLLECTED UNDER A/S CONDITION       COMMENT
6025                                                        MARKER NAME
                                                            MARKER NUMBER
KMR & KMB           University of California, Riverside     OBSERVER / AGENCY
0220413516          TRIMBLE R7          2.32                REC # / TYPE / VERS
0220413516          TRM41249.00                             ANT # / TYPE
 -2433061.0252 -4666213.3685  3593449.0112                  APPROX POSITION XYZ
        1.1849        0.0000        0.0000                  ANTENNA: DELTA H/E/N
     1     1                                                WAVELENGTH FACT L1/2
     7    L1    L2    C1    P1    P2    S1    S2            # / TYPES OF OBSERV
    18                                                      LEAP SECONDS
 SNR is mapped to RINEX snr flag value [0-9]                COMMENT
  L1 & L2: min(max(int(snr_dBHz/6), 0), 9)                  COMMENT
  2025     6    30    19     2   30.0000000     GPS         TIME OF FIRST OBS
                                                            END OF HEADER
 25  6 30 19  2 30.0000000  0  5G13G23G15G18G10
    -42517.49656    -21481.21953  23425833.4614                   23425833.9304
        40.2504         22.5004
   -151214.68057    -95893.02756  20513364.6024                   20513363.3754
        47.0004         40.7504
   -103500.98857    -65708.44157  21174794.5864                   21174793.6644
        45.0004         44.0004
   -172177.99657   -122921.84056  21038755.5164                   21038754.5984
        45.7504         38.5004
   -321309.22357   -203332.33657  22965218.0394                   22965220.7704
        43.5004         42.5004
 25  6 30 19  3  0.0000000  0  6G13G23G15G29G18G10
    -72072.08646    -44510.84843  23420210.1484                   23420210.4184
        39.7504         22.7504
   -247552.53147   -170961.50446  20495032.3594                   20495030.8984
        47.0004         40.5004
   -168941.57847   -116701.11747  21162341.8204                   21162340.9414
        46.5004         44.0004
     -7196.28157     -4822.09057  21893946.2504                   21893945.9104
        45.2504         43.5004
   -265882.42247   -195938.30146  21020924.5004                   21020923.1214
        47.0004         38.2504
   -475192.67247   -323241.49646  22935934.3984                   22935937.2274
        42.5004         41.2504
 25  6 30 19  3 30.0000000  0  7G13G23G15G16G29G18G10
   -101566.82846    -67493.79743  23414597.1174                   23414597.5394
        40.2504         22.7504
   -343977.77747   -246098.07446  20476683.1024                   20476681.6764
        47.5004         40.7504
   -234216.44547   -167564.68047  21149920.6564                   21149919.1024
        46.5004         44.0004
   -354106.25856   -240723.51653  23543841.4694                   23543840.8164
        40.7504         21.5004
    -11487.43747     -8165.94147  21893130.4774                   21893129.5234
        46.2504         43.5004
   -359862.16848   -269169.29746  21003040.9304                   21003039.1134
        48.0004         38.0004
   -629270.93047   -443302.45346  22906614.5704                   22906617.1804
        43.7504         41.7504
 25  6 30 19  4  0.0000000  0  7G13G23G15G16G29G18G10
   -131003.95346    -90431.91843  23408996.2734                   23408996.1414
        40.5004         22.5004
   -440491.86347   -321303.88346  20458317.2584                   20458315.6844
        47.0004         41.0004
   -299326.48847   -218299.80947  21137530.7034                   21137528.7894
        47.0004         44.2504
   -436620.31246   -305020.18043  23528139.0704                   23528138.9384
        39.0004         20.5004
    -15869.54747    -11580.66047  21892296.6094                   21892295.8594
        46.2504         43.5004
   -454117.08647   -342614.70746  20985104.7584                   20985103.4304
        46.2504         38.7504
   -783544.10247   -563515.28546  22877257.1254                   22877259.8554
        44.7504         41.0004
 25  6 30 19  4 30.0000000  0  7G13G23G15G16G29G18G10
   -160392.03946   -113331.72343  23403402.6094                   23403403.7814
        38.0004         22.5004
   -537102.62147   -396585.01246  20439932.6484                   20439931.3834
        46.7504         40.5004
   -364279.48447   -268912.58247  21125170.4614                   21125169.0554
        47.5004         44.0004
   -519069.27746   -369266.20743  23512450.3054                   23512449.3244
        40.5004         20.0004
    -20351.11347    -15072.89147  21891443.5474                   21891442.9184
        46.2504         42.7504
   -548653.40647   -416279.40246  20967115.0784                   20967113.7304
        47.0004         38.5004
   -938018.77047   -683885.12546  22847861.8834                   22847863.5904
        43.7504         40.7504
 25  6 30 19  5  0.0000000  0  8G13G23G15G16G29G18G10G05
   -189671.74246   -136147.17643  23397831.5944                   23397833.0784
        39.5004         22.7504
   -633749.87147   -471894.57846  20421541.5314                   20421540.0204
        46.5004         40.7504
   -429015.14847   -319355.99247  21112851.6094                   21112850.1054
        47.0004         44.0004
   -601392.55146   -433414.23043  23496784.5084                   23496783.5274
        40.5004         20.5004
    -24872.83247    -18596.38747  21890583.2194                   21890582.3014
        45.7504         43.0004
   -643409.28147   -490115.17646  20949083.4844                   20949082.2934
        45.7504         38.5004
  -1092633.35247   -804364.00446  22818439.5004                   22818441.5824
        44.7504         40.2504
     23453.72356     15680.98852  25088760.0784                   25088763.8954
        40.0004         17.7504
 25  6 30 19  5 30.0000000  0  8G13G23G15G16G29G18G10G05
   -218816.61346   -158857.55543  23392286.2274                   23392286.6844
        39.5004         23.5004
   -730405.87547   -547210.95746  20403148.4924                   20403146.8594
        47.0004         40.5004
   -493505.37147   -369608.14847  21100579.8594                   21100578.4804
        45.7504         43.5004
   -683562.54746   -497442.82443  23481147.7734                   23481147.2704
        41.0004         20.7504
    -29407.74647    -22130.18447  21889720.5634                   21889719.6294
        46.2504         42.7504
   -738355.35947   -564099.15246  20931015.7814                   20931014.5004
        47.0004         38.2504
  -1247358.92247   -924929.34846  22788996.3524                   22788998.2734
        45.0004         39.5004
     36006.68446     22659.73853  25091149.8674                   25091147.1214
        41.0004         21.0004
 25  6 30 19  6  0.0000000  0  8G13G23G15G16G29G18G10G05
   -247803.69546   -181444.98043  23386770.1484                   23386770.7504
        41.5004         23.0004
   -827046.75447   -622515.55146  20384758.3364                   20384756.7034
        46.5004         41.5004
   -557726.42247   -419650.55147  21088358.9774                   21088357.7154
        47.0004         43.5004
   -765555.59046   -561333.57843  23465545.4304                   23465544.8014
        39.5004         21.7504
    -33932.47347    -25656.04747  21888859.3594                   21888858.4654
        45.5004         42.5004
   -833466.08647   -638211.43046  20912916.8524                   20912915.6414
        47.0004         37.7504
  -1402170.19547  -1045561.45346  22759536.8204                   22759538.9144
        45.0004         40.0004
     48137.59046     32112.32844  25093458.6724                   25093458.6414
        40.7504         25.0004
 25  6 30 19  6 30.0000000  0  8G13G23G15G16G29G18G10G05
   -276615.69146   -203895.93743  23381286.6564                   23381287.0744
        40.5004         22.0004
   -923654.53547   -697794.36346  20366374.1094                   20366372.6994
        47.2504         40.5004
   -621659.88347   -469468.85247  21076192.6094                   21076191.5124
        45.2504         43.7504
   -847353.27746   -625072.09043  23449980.3134                   23449979.7664
        40.7504         21.0004
    -38430.04747    -29160.74646  21888003.6804                   21888002.4694
        44.7504         40.7504
   -928721.80947   -712436.69546  20894790.1564                   20894788.6804
        46.5004         38.0004
  -1557047.99247  -1166245.40246  22730064.3674                   22730066.2194
        45.2504         40.0004
     59863.51646     41249.28544  25095689.9454                   25095690.5824
        40.0004         25.5004
 25  6 30 19  7  0.0000000  0  8G13G23G15G16G29G18G10G05
   -305239.36346   -226200.12943  23375839.7194                   23375840.7734
        39.5004         20.0004
  -1020214.80547   -773036.14846  20347999.6484                   20347998.5554
        46.0004         40.7504
   -685291.37147   -519051.85547  21064084.1484                   21064082.8874
        45.7504         44.0004
   -928941.62146   -688647.46543  23434454.4064                   23434454.2544
        39.7504         21.2504
    -42886.82047    -32633.66846  21887155.2034                   21887154.4694
        43.7504         41.0004
  -1024106.44947   -786762.42246  20876639.4304                   20876637.7344
        46.5004         38.2504
  -1711976.54347  -1286968.89146  22700582.6024                   22700584.2384
        47.2504         41.2504
     71198.91046     50081.97345  25097847.0864                   25097848.1764
        40.5004         30.5004
 25  6 30 19  7 30.0000000  0  8G13G23G15G16G29G18G10G05
   -333656.61746   -248343.48043  23370432.1954                   23370432.9104
        41.0004         22.0004
  -1116708.82047   -848226.30546  20329637.5864                   20329636.1214
        47.0004         39.7504
   -748601.97747   -568384.82447  21052036.5944                   21052035.2704
        46.0004         44.5004
  -1010301.52746   -752044.84843  23418971.6024                   23418972.1764
        40.2504         21.5004
    -47285.24647    -36061.10246  21886318.4844                   21886317.7344
        44.5004         41.5004
  -1119599.50447   -861172.61746  20858467.1644                   20858465.8284
        45.7504         37.7504
  -1866935.82847  -1407716.34047  22671094.8284                   22671096.5704
        46.5004         42.0004
     82161.89846     58624.48044  25099933.5784                   25099934.2234
        39.0004         29.0004
 25  6 30 19  8  0.0000000  0  8G13G23G15G16G29G18G10G05
   -361829.94946   -270296.80543  23365072.0164                   23365072.6524
        41.5004         22.0004
  -1213097.94547   -923334.73046  20311295.3594                   20311293.4694
        47.5004         40.2504
   -811553.31647   -617437.84047  21040057.1174                   21040055.8404
        45.7504         44.2504
  -1091394.44146   -815234.25443  23403540.3444                   23403539.9264
        40.0004         20.7504
    -51587.18747    -39413.35547  21885500.1334                   21885499.4184
        44.7504         43.0004
  -1215160.66847   -935635.88346  20840282.5554                   20840281.5634
        47.2504         38.0004
  -2021885.82447  -1528456.55547  22641609.0004                   22641610.8754
        45.5004         42.5004
     92791.47346     66907.16044  25101956.4614                   25101957.7464
        37.2504         29.2504
 25  6 30 19  8 30.0000000  0  8G13G23G15G16G29G18G10G05
   -389728.70746   -292036.15643  23359762.8444                   23359762.7734
        41.2504         22.0004
  -1309350.52047   -998336.75046  20292979.0704                   20292977.4104
        46.2504         40.2504
   -874113.98847   -666186.44947  21028152.5004                   21028150.8874
        46.2504         44.0004
  -1172189.16846   -878191.19943  23388165.9924                   23388164.8404
        41.0004         19.7504
    -55761.41447    -42666.09047  21884705.8284                   21884705.3014
        45.0004         43.2504
  -1310756.57047  -1010126.21946  20822091.6954                   20822089.9844
        47.2504         37.7504
  -2176793.66047  -1649163.92247  22612130.8134                   22612132.2544
        45.7504         43.0004
    103118.48045     74954.05144  25103920.2424                   25103922.8204
        33.2504         26.5004
 25  6 30 19  9  0.0000000  0  9G13G23G15G27G16G29G18G10G05
   -417379.69946   -313582.43043  23354500.6024                   23354499.7584
        41.5004         20.5004
  -1405492.05547  -1073252.24246  20274683.8834                   20274682.6454
        47.5004         39.5004
   -936308.45747   -714649.69947  21016316.8834                   21016315.6334
        45.0004         43.5004
   -767012.55156   -548330.02055  23915630.3054                   23915631.9844
        39.2504         31.7504
  -1252710.98046   -940935.49643  23372843.9064                   23372842.5594
        41.0004         21.5004
    -59834.59847    -45840.10247  21883930.6884                   21883930.2704
        45.7504         43.2504
  -1406411.01647  -1084662.17246  20803889.0164                   20803887.3554
        47.2504         38.0004
  -2331683.60547  -1769857.37547  22582656.1884                   22582657.9574
        45.0004         43.0004
                                  25105824.4694                   25105826.4304
        30.5004         22.5004
 25  6 30 19  9 30.0000000  0 10G13G23G15G27G26G16G29G18G10G05
   -444797.13746   -334946.75443  23349283.9384                   23349283.3284
        40.7504         20.5004
  -1501536.03547  -1148091.71146  20256407.1334                   20256405.7894
        46.2504         39.5004
   -998150.81647   -762838.57447  21004549.0704                   21004547.6684
        45.0004         43.2504
   -956695.37146   -696134.71545  23879534.4384                   23879536.4964
        39.0004         31.7504
    -38193.04355    -21694.07854  23946825.3594                   23946829.6484
        35.2504         25.0004
  -1332973.73846  -1003477.98043  23357569.6174                   23357569.3164
        40.2504         19.5004
    -63821.03147    -48946.49247  21883172.1564                   21883171.8164
        44.5004         43.0004
  -1502135.70347  -1159252.85946  20785673.2034                   20785671.6954
        47.2504         38.2504
  -2486567.74247  -1890546.29747  22553183.0394                   22553184.8204
        43.7504         43.0004
                                  25107662.0084                   25107663.9614
        34.0004         21.7504
 25  6 30 19 10  0.0000000  0  9G13G23G15G27G26G16G29G18G10
   -471972.52746   -356122.42643  23344111.9224                   23344112.2424
        40.7504         22.7504
  -1597473.30547  -1222848.03946  20238151.0394                   20238149.4844
        47.7504         39.5004
  -1059631.87947   -810745.92247  20992849.2974                   20992848.1374
        45.5004         44.0004
  -1146451.30546   -843996.41445  23843425.1644                   23843427.4414
        39.0004         31.2504
    -71076.46945    -47317.66444  23940568.3524                   23940571.9884
        35.5004         24.2504
  -1412967.84446  -1065811.08643  23342347.6094                   23342347.2664
        39.5004         20.5004
    -67712.46947    -51978.87547  21882431.4304                   21882431.8164
        44.0004         42.2504
  -1597919.71147  -1233889.76646  20767446.1094                   20767444.7854
        46.5004         38.0004
  -2641435.67247  -2011222.59447  22523712.2504                   22523714.4734
        44.0004         42.7504
 25  6 30 19 10 30.0000000  0  9G13G23G15G27G26G16G29G18G10
   -498898.26246   -377103.59443  23338988.1884                   23338988.5084
        40.7504         21.5004
  -1693294.96547  -1297514.28146  20219916.7664                   20219915.1804
        47.5004         40.0004
  -1120742.89847   -858364.93447  20981220.6094                   20981219.2664
        46.5004         44.0004
  -1336267.87546   -991905.38345  23807304.4694                   23807307.4304
        38.7504         33.0004
   -103956.23046    -72938.33644  23934311.5554                   23934314.3284
        36.5004         24.7504
  -1492684.75046  -1127928.25843  23327178.0704                   23327177.4924
        40.5004         20.0004
    -71500.76247    -54930.87947  21881711.0234                   21881710.8324
        45.0004         42.5004
  -1693752.33647  -1308564.55146  20749209.8984                   20749208.7504
        47.2504         37.5004
  -2796277.18447  -2131878.28947  22494246.9614                   22494248.6294
        44.0004         42.5004
 25  6 30 19 11  0.0000000  0  9G13G23G15G27G26G16G29G18G10
   -525567.21546   -397884.62143  23333912.6644                   23333913.7154
        39.5004         21.5004
  -1788992.42647  -1372083.75046  20201705.8524                   20201704.4774
        47.2504         39.5004
  -1181475.18047   -905688.81647  20969663.5394                   20969662.1374
        47.7504         44.5004
  -1526133.00846  -1139852.19145  23771174.0704                   23771177.1954
        38.0004         31.7504
   -136825.42246    -98550.81644  23928056.0474                   23928061.0904
        36.5004         26.0004
  -1572115.96946  -1189822.76243  23312062.6094                   23312061.5664
        40.5004         20.7504
    -75178.37947    -57796.66846  21881011.2034                   21881011.1174
        45.0004         41.5004
  -1789623.25847  -1383269.18446  20730966.3984                   20730964.9224
        46.5004         37.7504
  -2951082.41047  -2252505.72347  22464788.6334                   22464790.2114
        44.2504         43.2504
 25  6 30 19 11 30.0000000  0  9G13G23G15G27G26G16G29G18G10
   1023448.64146    809140.65643  23628681.1644                   23628681.6254
        38.2504         20.5004
   -309134.87947   -218948.01246  20483313.8594                   20483311.9734
        47.7504         40.0004
    333600.75447    274889.80547  21257973.3054                   21257971.9494
        47.0004         44.0004
   -140608.96146    -60223.06645  24034830.3204                   24034833.1294
        37.5004         30.7504
   1405742.97346   1103450.42644  24221597.7504                   24221601.7974
        37.5004         27.2504
    -75831.69946    -23886.98843  23596796.3054                   23596795.4304
        41.2504         22.5004
   1496681.89847   1167029.41046  22180126.2974                   22180125.5554
        44.5004         41.0004
   -310099.79347   -230393.78146  21012510.0084                   21012508.9104
        46.7504         37.7504
  -1530417.23847  -1145493.88747  22735131.7814                   22735133.6844
        44.0004         43.0004
 25  6 30 19 12  0.0000000  0  9G13G23G15G27G26G16G29G18G10
    997313.87546    788775.82043  23623708.2584                   23623707.9694
        38.0004         18.2504
   -404561.02047   -293306.06246  20465154.5474                   20465152.9384
        46.5004         40.0004
    273648.55547    228173.78147  21246564.5394                   21246563.0234
        47.0004         43.7504
   -330537.10946   -208218.96945  23998687.8284                   23998690.0864
        38.2504         31.2504
   1372912.73446   1077868.28144  24215350.3524                   24215355.3594
        38.0004         27.7504
   -154669.26246    -85318.89843  23581794.0704                   23581793.8714
        41.2504         22.2504
   1493246.77747   1164352.59046  22179472.9224                   22179471.6054
        44.5004         40.5004
   -406018.91047   -305135.96146  20994257.1024                   20994255.8914
        46.5004         38.2504
  -1685123.11347  -1266043.89847  22705692.6484                   22705694.5984
        44.5004         43.5004
 25  6 30 19 12 30.0000000  0  9G13G23G15G27G26G16G29G18G10
    971454.79346    768625.84042  23618787.0314                   23618786.5234
        38.2504         17.7504
   -499841.12548   -367550.30546  20447023.2664                   20447021.7584
        49.2504         39.7504
    214096.67247    181769.68447  21235232.1174                   21235230.6524
        46.5004         43.5004
   -520480.95746   -356227.04745  23962543.1174                   23962545.6564
        38.5004         31.0004
   1340109.73846   1052307.37144  24209107.8674                   24209112.3094
        37.2504         25.2504
   -233199.90646   -146511.71943  23566850.0554                   23566849.5824
        40.5004         21.0004
   1489942.05947   1161777.38746  22178843.7344                   22178842.8914
        44.2504         41.2504
   -501948.98047   -379886.69146  20976002.2584                   20976001.3094
        46.7504         37.2504
  -1839767.00447  -1386545.60947  22676264.6644                   22676266.6684
        45.0004         44.0004
 25  6 30 19 13  0.0000000  0  9G13G23G15G27G26G16G29G18G10
    945876.74646    748694.74643  23613919.9924                   23613919.7344
        38.2504         19.2504
   -594969.01248   -441675.95746  20428921.2274                   20428919.6454
        48.0004         39.5004
    154951.10547    135682.19547  21223977.4384                   21223975.5664
        47.2504         43.7504
   -710430.69546   -504239.79345  23926395.9614                   23926400.0784
        36.2504         30.2504
   1307338.46546   1026771.21544  24202871.0474                   24202875.7894
        36.2504         24.5004
   -311417.47346   -207460.54343  23551965.2034                   23551965.0124
        39.5004         19.5004
   1486772.88747   1159307.80947  22178240.7504                   22178240.7154
        44.5004         42.0004
   -597882.05147   -454639.74646  20957746.9064                   20957745.8364
        46.5004         37.0004
  -1994341.42247  -1506993.18447  22646850.2194                   22646851.6994
        45.2504         44.5004
 25  6 30 19 13 30.0000000  0  9G13G23G15G27G26G16G29G18G10
    920582.23846    728984.69943  23609106.6884                   23609106.5434
        39.5004         18.5004
   -689941.00048   -515680.12946  20410848.7734                   20410846.8754
        49.7504         40.0004
     96215.44147     89914.10947  21212800.0004                   21212798.4494
        47.7504         43.5004
   -900378.85946   -652251.29344  23890250.5784                   23890253.6844
        38.2504         29.7504
   1274600.85545   1001261.33244  24196641.3054                   24196645.9264
        35.2504         24.0004
   -389318.69946   -268162.82843  23537141.2034                   23537141.1094
        39.2504         20.2504
   1483741.68047   1156945.73847  22177664.2114                   22177664.1954
        45.5004         43.2504
   -693812.59847   -529390.84046  20939492.0164                   20939490.5394
        45.5004         37.7504
  -2148841.47347  -1627382.79347  22617449.5784                   22617451.3204
        46.2504         44.7504
 25  6 30 19 14  0.0000000  0  9G13G23G15G27G26G16G29G18G10
    895583.15646    709504.78943  23604349.3134                   23604349.4224
        37.5004         19.5004
   -784744.15248   -589552.73446  20392808.2034                   20392806.3634
        48.0004         40.0004
     37902.37947     44475.33247  21201703.7114                   21201701.9774
        47.2504         43.5004
  -1090308.88746   -800248.69545  23854108.6724                   23854110.7034
        39.5004         30.5004
   1241908.12545    975786.41044  24190421.0864                   24190426.2194
        34.2504         24.7504
   -466890.57846   -328608.52743  23522379.5704                   23522379.2734
        39.0004         19.2504
   1480861.34047   1154701.22347  22177116.2664                   22177115.5004
        44.7504         42.0004
   -789725.78547   -604128.40246  20921240.4064                   20921238.9384
        46.7504         37.7504
  -2303252.90647  -1747703.35947  22588066.8444                   22588067.6914
        45.7504         44.0004
 25  6 30 19 14 30.0000000  0  9G13G23G15G27G26G16G29G18G10
    870887.55946    690261.42643  23599650.3054                   23599650.6604
        39.0004         18.2504
   -879369.14548   -663286.50846  20374801.6724                   20374799.7344
        48.0004         40.0004
    -19978.98447      -627.05947  21190689.0554                   21190687.7974
        47.7504         43.5004
  -1280207.72346   -948221.76244  23817971.3204                   23817974.2234
        39.0004         29.7504
   1209267.96945    950352.42244  24184208.9454                   24184214.9144
        33.5004         25.7504
   -544124.29346   -388790.70743  23507683.0314                   23507682.8984
        40.0004         21.0004
   1478140.09847   1152580.66446  22176598.5394                   22176597.4884
        44.5004         41.5004
   -885610.44547   -678843.73446  20902994.1024                   20902992.7974
        47.0004         37.7504
  -2457565.10247  -1867946.60547  22558701.5004                   22558703.0124
        46.5004         44.0004
 25  6 30 19 15  0.0000000  0  9G13G23G15G27G26G16G29G18G10
    846503.68446    671260.94142  23595010.2194                   23595009.8094
        38.0004         16.2504
   -973806.53547   -736874.10546  20356831.1334                   20356829.1804
        46.7504         40.0004
    -77419.26247    -45385.74247  21179758.2814                   21179757.2774
        47.5004         43.2504
  -1470062.21946  -1096160.31644  23781842.8754                   23781845.2034
        37.7504         29.0004
   1176688.18045    924965.44144  24178009.5554                   24178014.7734
        35.0004         26.0004
   -621010.54746   -448702.12143  23493052.5634                   23493051.9924
        41.0004         22.5004
   1475586.56647   1150590.79746  22176112.2814                   22176111.8094
        45.0004         40.5004
   -981455.19547   -753527.97746  20884755.6174                   20884753.9534
        45.5004         37.0004
  -2611767.43747  -1988104.23047  22529357.6724                   22529359.2854
        47.0004         43.5004
 25  6 30 19 15 30.0000000  0  9G13G23G15G27G26G16G29G18G10
    822430.81646    652502.84842  23590429.0394                   23590428.9024
        39.2504         17.7504
  -1068056.33647   -810315.52346  20338895.6564                   20338894.4264
        47.0004         40.5004
   -134418.62147    -89800.85547  21168911.8054                   21168910.9574
        47.2504         43.7504
  -1659868.70346  -1244061.44145  23745724.4924                   23745726.2114
        40.2504         31.7504
   1144167.01246    899624.12944  24171821.3674                   24171826.6524
        36.0004         28.2504
   -697549.57446   -508342.95343  23478487.5944                   23478486.8674
        41.0004         21.5004
   1473199.74647   1148730.81646  22175658.0394                   22175657.9774
        44.0004         40.5004
  -1077258.27047   -828179.73046  20866524.9064                   20866523.5594
        46.2504         38.0004
  -2765858.52347  -2108175.16047  22500035.0634                   22500037.1174
        46.0004         43.2504
 25  6 30 19 16  0.0000000  0  9G13G23G15G27G26G16G29G18G10
    798669.58246    633987.48443  23585907.7114                   23585907.4694
        39.2504         18.2504
  -1162116.54347   -883609.20346  20320996.8524                   20320994.8284
        46.7504         40.5004
   -190975.66047   -133871.30147  21158149.3204                   21158148.2734
        47.0004         44.0004
  -1849621.43046  -1391920.64545  23709615.5474                   23709617.2584
        40.2504         32.0004
   1111704.80146    874328.76644  24165645.2194                   24165648.2304
        36.5004         28.2504
   -773739.55146   -567711.82443  23463988.7974                   23463988.3134
        39.2504         20.7504
   1470980.61747   1147001.53146  22175236.2664                   22175236.0554
        44.0004         41.0004
  -1173015.64847   -902795.88346  20848303.0784                   20848301.3554
        47.2504         38.2504
  -2919835.12947  -2228156.88747  22470734.6414                   22470736.3134
        46.5004         42.5004
 25  6 30 19 16 30.0000000  0  9G13G23G15G27G26G16G29G18G10
    775220.47746    615715.38742  23581445.9924                   23581444.7704
        39.7504         17.2504
  -1255985.68048   -956753.99646  20303134.5004                   20303132.3244
        48.5004         40.5004
   -247088.95347   -177595.96147  21147471.6884                   21147470.4844
        47.2504         44.0004
  -2039315.17646  -1539733.93045  23673517.6644                   23673519.3914
        40.2504         32.2504
   1079301.23046    849079.12544  24159478.6024                   24159482.3954
        37.0004         28.7504
   -849579.59046   -626808.02043  23449557.4614                   23449557.0824
        40.0004         22.0004
   1468930.18047   1145403.69146  22174846.1644                   22174845.7154
        44.7504         41.0004
  -1268724.00447   -977373.84046  20830090.5164                   20830089.0944
        45.7504         37.5004
  -3073694.55947  -2348047.31247  22441455.8524                   22441457.4454
        47.0004         42.0004
 25  6 30 19 17  0.0000000  0 10G13G23G15G27G26G16G29G32G18G10
    752079.97346    597683.82042  23577041.7344                   23577041.7704
        38.0004         17.7504
  -1349666.06247  -1029751.70346  20285307.0234                   20285305.4224
        46.0004         40.5004
   -302760.77347   -220976.62947  21136877.6024                   21136876.3714
        47.7504         43.2504
  -2228948.44146  -1687500.10945  23637432.7734                   23637434.3014
        41.0004         33.0004
   1046952.40246    823872.11744  24153322.1484                   24153327.1684
        36.5004         29.5004
   -925071.97346   -685633.32043  23435191.1564                   23435191.6724
        40.0004         22.0004
   1467045.02347   1143934.64846  22174487.4304                   22174487.0124
        43.2504         40.7504
   1208586.10255    991878.68453  25172052.2584                   25172061.6604
        33.0004         22.0004
  -1364383.68047  -1051913.85946  20811886.7664                   20811885.6844
        45.7504         38.0004
  -3227437.80947  -2467847.18746  22412199.4224                   22412201.1484
        46.5004         41.5004
 25  6 30 19 17 30.0000000  0 10G13G23G15G27G26G16G29G32G18G10
    729249.12146    579893.49642  23572697.1334                   23572697.2774
        37.7504         17.2504
  -1443155.21947  -1102600.40246  20267517.1254                   20267515.4224
        47.0004         40.5004
   -357989.54347   -264012.06247  21126367.7504                   21126366.7464
        46.5004         43.5004
  -2418515.12146  -1835214.37945  23601359.3524                   23601361.0944
        41.7504         35.5004
   1014659.10546    798708.37145  24147178.0084                   24147182.7704
        37.2504         30.2504
  -1000214.57846   -744186.04743  23420893.0004                   23420892.0554
        40.0004         20.2504
   1465326.79747   1142595.66046  22174160.2974                   22174160.6644
        43.2504         40.5004
   1007528.42656    835210.59054  25133793.0084                   25133801.7274
        37.7504         26.0004
  -1459990.32047  -1126412.55946  20793693.4224                   20793691.8404
        47.5004         37.5004
  -3381061.19947  -2587553.67646  22382965.8674                   22382967.5434
        47.2504         41.0004
 25  6 30 19 18  0.0000000  0 10G13G23G15G27G26G16G29G32G18G10
    706723.18446    562340.77043  23568411.4224                   23568410.5864
        39.7504         18.5004
  -1536457.16047  -1175303.22746  20249762.0314                   20249760.6484
        47.7504         40.5004
   -412779.28947   -306705.40247  21115942.0164                   21115940.3554
        47.2504         43.5004
  -2608015.41046  -1982876.87945  23565298.5474                   23565300.7464
        41.2504         35.5004
    982415.62546    773583.45745  24141041.8984                   24141047.0084
        37.5004         31.5004
  -1075011.84046   -802469.72343  23406658.5704                   23406658.2894
        39.2504         20.0004
   1463770.30947   1141382.71546  22173864.8674                   22173863.6954
        43.5004         40.0004
    806248.48046    678369.26244  25095491.5784                   25095499.3444
        39.0004         25.0004
  -1555545.95747  -1200871.50846  20775509.8134                   20775508.3874
        46.7504         38.0004
  -3534567.41847  -2707168.87146  22353754.2114                   22353755.8674
        46.2504         41.0004
 25  6 30 19 18 30.0000000  0 10G13G23G15G27G26G16G29G32G18G10
    684502.16846    545025.58243  23564182.9774                   23564182.0234
        38.7504         18.5004
  -1629570.63747  -1247859.18746  20232043.2664                   20232041.7584
        47.0004         40.5004
   -467129.27047   -349056.07047  21105599.3914                   21105597.8134
        47.2504         43.5004
  -2797444.19546  -2130483.62945  23529251.0784                   23529253.2854
        40.7504         34.5004
    950221.57046    748497.03145  24134915.7504                   24134920.7584
        37.5004         32.0004
  -1149463.14146   -860483.77043  23392491.7504                   23392490.7974
        38.5004         20.0004
   1462376.51247   1140296.54346  22173599.6254                   22173599.0864
        44.2504         41.0004
    604751.00046    521358.41844  25057147.6884                   25057156.0514
        39.0004         24.0004
  -1651047.40647  -1275288.24246  20757336.3674                   20757335.1564
        45.5004         38.0004
  -3687954.00847  -2826690.84846  22324565.8204                   22324567.2734
        46.0004         40.5004
 25  6 30 19 19  0.0000000  0 10G13G23G15G27G26G16G29G32G18G10
    662587.78546    527949.36742  23560012.4064                   23560011.5824
        38.7504         16.7504
  -1722492.65247  -1320265.96546  20214360.8284                   20214359.0394
        46.5004         40.5004
   -521036.60947   -391061.82447  21095341.2194                   21095339.8914
        47.2504         43.5004
  -2986794.75846  -2278029.45345  23493217.4454                   23493220.6334
        39.0004         33.5004
    918078.15246    723450.11345  24128798.5784                   24128803.2274
        37.7504         32.5004
  -1223565.60946   -918226.02043  23378389.9844                   23378389.4304
        39.7504         19.2504
   1461147.39147   1139338.67246  22173365.2194                   22173365.3954
        43.7504         40.7504
    403042.59446    364183.15644  25018763.4694                   25018773.8754
        40.5004         27.0004
  -1746489.70347  -1349658.87946  20739174.4534                   20739173.5824
        45.2504         38.0004
  -3841216.71147  -2946116.28146  22295401.1094                   22295402.6804
        44.5004         41.0004
 25  6 30 19 19 30.0000000  0 10G13G23G15G27G26G16G29G32G18G10
    640979.12946    511111.37542  23555899.8134                   23555900.2194
        36.5004         17.7504
  -1815222.65247  -1392523.12546  20196714.8754                   20196713.2154
        46.5004         40.0004
   -574501.07447   -432722.47747  21085167.1414                   21085165.9064
        47.0004         43.0004
  -3176062.77046  -2425510.94545  23457201.9694                   23457205.2894
        39.0004         34.0004
    885984.42246    698441.90645  24122691.9384                   24122696.4304
        39.2504         34.7504
  -1297319.09446   -975696.29743  23364354.7584                   23364354.9804
        39.0004         19.5004
   1460082.52347   1138508.78946  22173162.8984                   22173162.6844
        44.0004         40.2504
    201127.21546    206846.78144  24980339.5864                   24980348.8324
        39.0004         26.5004
  -1841870.35947  -1423981.49246  20721024.0084                   20721022.6334
        45.2504         38.5004
  -3994353.69947  -3065443.78546  22266259.5474                   22266261.5514
        44.2504         41.2504
 25  6 30 19 20  0.0000000  0 10G13G23G15G27G26G16G29G32G18G10
   2195099.65246   1722114.29343  23851639.8364                   23851639.7664
        39.0004         20.5004
   -332334.10947   -237025.57846  20478899.1724                   20478897.6174
        46.5004         40.5004
    947902.03547    753565.64147  21374871.0004                   21374870.0164
        47.2504         43.2504
  -1789814.68746  -1345317.61345  23720995.6724                   23720999.5314
        38.5004         33.5004
   2429363.11746   1901074.52746  24416387.5474                   24416391.8444
        40.2504         36.5004
    204701.94946    194709.66443  23650180.5394                   23650179.5864
        39.7504         21.0004
   3034604.51247   2365408.94546  22472784.4694                   22472783.9414
        43.0004         39.2504
   1574438.77346   1276959.95344  25241672.0634                   25241679.0234
        39.7504         25.5004
   -361760.68447   -270649.29346  21002679.8984                   21002678.0594
        46.0004         38.5004
  -2571935.22747  -1957065.73046  22536937.4614                   22536938.7704
        43.0004         41.2504
 25  6 30 19 20 30.0000000  0 10G13G23G15G27G26G16G29G32G18G10
   2174109.69946   1705758.37143  23847646.7584                   23847646.7384
        40.0004         21.5004
   -424669.75447   -308975.44546  20461328.0864                   20461326.6454
        47.0004         40.0004
    895332.28147    712602.17247  21364867.1024                   21364866.2424
        47.7504         43.7504
  -1978895.84446  -1492653.55945  23685014.1804                   23685017.6724
        36.5004         33.5004
   2397373.99646   1876147.80546  24410300.1334                   24410304.8094
        40.7504         37.5004
    131655.66846    137790.40643  23636280.6884                   23636279.9964
        39.5004         21.2504
   3033875.82847   2364841.02746  22472645.8364                   22472645.2464
        44.5004         39.5004
   1372130.74646   1119317.55944  25203173.6484                   25203180.9574
        38.2504         24.7504
   -457001.67647   -344863.07846  20984555.9384                   20984554.3244
        47.2504         38.5004
  -2724806.82047  -2076186.44546  22507846.1644                   22507848.4574
        43.2504         41.7504
 25  6 30 19 21  0.0000000  0 10G13G23G15G27G26G16G29G32G18G10
   2153431.67246   1689645.57043  23843710.7664                   23843711.3284
        39.2504         20.7504
   -516804.05547   -380768.41446  20443795.6334                   20443794.0474
        47.0004         39.7504
    843213.70748    671990.27047  21354949.5784                   21354948.5744
        48.0004         43.5004
  -2167873.61746  -1639908.92245  23649053.3594                   23649056.3014
        39.0004         33.5004
   2365438.82446   1851263.11746  24404223.6334                   24404228.2704
        41.0004         36.5004
     58966.33246     81149.28943  23622448.2424                   23622447.7464
        40.0004         22.2504
   3033317.89547   2364406.15246  22472540.0234                   22472539.3834
        45.0004         40.5004
   1169635.88346    961529.56344  25164640.2114                   25164649.4024
        37.0004         27.5004
   -552165.68747   -419016.86746  20966447.0314                   20966445.1604
        46.5004         39.0004
  -2877539.62547  -2195199.00047  22478782.4304                   22478784.3324
        43.0004         42.0004
 25  6 30 19 21 30.0000000  0 10G13G23G15G27G26G16G29G32G18G10
   2133062.60946   1673773.51643  23839833.8594                   23839835.7074
        37.0004         19.7504
   -608738.64547   -452405.77346  20426301.1414                   20426299.6484
        47.0004         39.7504
    791543.82047    631727.99647  21345117.1564                   21345115.6024
        47.5004         43.0004
  -2356745.80946  -1787082.01645  23613112.6644                   23613114.3324
        40.0004         33.5004
   2333554.29746   1826417.89146  24398155.9384                   24398160.7974
        40.2504         36.0004
    -13367.70346     24785.04743  23608683.6024                   23608683.0084
        40.5004         22.0004
   3032928.41847   2364102.55146  22472465.9454                   22472465.1054
        45.0004         40.7504
    966956.15646    803597.56345  25126072.5004                   25126080.4844
        41.0004         31.5004
   -647252.34847   -493110.37546  20948352.3364                   20948351.2424
        46.2504         39.0004
  -3030134.09447  -2314103.76247  22449744.0084                   22449746.4924
        42.5004         43.0004
 25  6 30 19 22  0.0000000  0 10G13G23G15G27G26G16G29G32G18G10
   2113003.84446   1658143.19943  23836017.9844                   23836018.9344
        38.5004         20.7504
   -700470.96147   -523885.51646  20408845.2194                   20408843.6094
        47.7504         40.0004
    740324.75447    591817.01647  21335370.4774                   21335369.0784
        47.5004         42.7504
  -2545506.16046  -1934167.92645  23577192.4064                   23577194.9534
        37.7504         33.0004
   2301721.34046   1801612.87145  24392097.9924                   24392102.8204
        38.7504         35.5004
    -85344.71946    -31301.00443  23594986.6564                   23594986.4024
        39.5004         21.5004
   3032709.05147   2363931.51246  22472424.4844                   22472424.0394
        43.2504         40.2504
    764097.65646    645526.24644  25087468.9384                   25087476.7074
        39.0004         29.7504
   -742257.09447   -567140.06246  20930273.6644                   20930272.2734
        47.2504         38.5004
  -3182586.50447  -2432897.83247  22420733.8834                   22420735.6564
        43.0004         43.5004
 25  6 30 19 22 30.0000000  0 11G13G23G15G27G26G16G29G32G18G24G10
   2093253.87146   1642753.52043  23832259.9694                   23832259.5704
        40.2504         20.7504
   -792001.08648   -595207.70346  20391427.3364                   20391425.6844
        48.0004         40.2504
    689556.35548    552257.19147  21325709.2344                   21325707.7584
        48.0004         42.5004
  -2734150.76246  -2081163.65645  23541294.7974                   23541297.6054
        39.0004         33.2504
   2269938.35946   1776846.78945  24386050.2584                   24386054.5664
        38.2504         34.5004
   -156965.18446    -87109.23843  23581358.2664                   23581357.2344
        38.5004         21.2504
   3032658.87547   2363892.30546  22472414.4144                   22472415.0164
        43.0004         40.2504
    561064.06346    487318.50044  25048831.3754                   25048838.2704
        37.5004         25.0004
   -837177.91447   -641104.35246  20912210.8284                   20912209.4574
        47.2504         38.0004
   2837378.07456   2250649.31655  25214769.2894                   25214776.0864
        38.2504         30.5004
  -3334895.55147  -2551580.19147  22391750.2344                   22391752.0864
        43.7504         43.5004
 25  6 30 19 23  0.0000000  0 11G13G23G15G27G26G16G29G32G18G24G10
   2073808.16446   1627600.94143  23828559.6414                   23828559.4654
        41.0004         21.7504
   -883332.32447   -666374.92246  20374047.5164                   20374045.9104
        46.7504         40.0004
    639234.43848    513045.28547  21316133.2584                   21316132.0234
        48.0004         42.5004
  -2922679.15246  -2228068.87145  23505419.2424                   23505421.0084
        39.7504         34.7504
   2238200.24646   1752115.68845  24380011.0474                   24380015.4964
        39.2504         35.7504
   -228232.87546   -142642.61343  23567796.2734                   23567796.0634
        39.5004         20.5004
   3032773.59847   2363981.58646  22472436.6174                   22472436.0354
        44.5004         40.0004
    357855.54746    328974.42244  25010162.1884                   25010169.3014
        38.0004         27.0004
   -932016.14147   -715004.28146  20894163.4844                   20894162.2584
        46.0004         38.0004
   2667516.44946   2118289.69545  25182446.3914                   25182452.1454
        39.0004         31.0004
  -3487063.47347  -2670152.57047  22362793.4774                   22362795.1484
        44.7504         44.2504
 25  6 30 19 23 30.0000000  0 11G13G23G15G27G26G16G29G32G18G24G10
   2054665.45746   1612684.48043  23824916.2584                   23824916.6174
        40.2504         20.2504
   -974465.14847   -737387.52046  20356705.6804                   20356703.7344
        47.2504         40.0004
    589358.00447    474180.48447  21306642.1804                   21306640.8094
        47.7504         42.5004
  -3111087.98046  -2374880.88345  23469566.5474                   23469567.6604
        39.7504         33.7504
   2206504.96946   1727417.94146  24373979.0554                   24373984.2934
        40.2504         36.2504
   -299148.64146   -197901.71943  23554301.8914                   23554301.2194
        41.5004         20.7504
   3033051.82847   2364198.25046  22472489.6644                   22472489.5004
        45.2504         40.0004
    154475.39146    170496.63744  24971460.5554                   24971467.7464
        38.5004         26.7504
  -1026770.25047   -788838.66446  20876132.3834                   20876131.1294
        45.5004         37.0004
   2497549.96546   1985848.38345  25150101.7584                   25150108.5864
        38.2504         30.0004
  -3639089.43447  -2788614.33647  22333864.2814                   22333865.7504
        45.0004         44.7504
 25  6 30 19 24  0.0000000  0 11G13G23G15G27G26G16G29G32G18G24G10
   2035826.57446   1598004.74643  23821331.7584                   23821331.2154
        41.0004         20.7504
  -1065397.14547   -808243.64546  20339402.0314                   20339400.5274
        46.5004         39.5004
    539929.19548    435664.48047  21297236.8444                   21297235.2074
        48.5004         43.5004
  -3299370.87146  -2521594.77345  23433736.4774                   23433738.3204
        40.2504         34.0004
   2174853.27046   1702754.14546  24367957.0234                   24367961.5474
        40.2504         36.0004
   -369710.90246   -252885.31643  23540874.1254                   23540873.5274
        40.0004         20.5004
   3033495.05947   2364543.49246  22472574.1884                   22472574.1604
        44.5004         39.7504
    -49070.50046     11889.71145  24932727.6884                   24932735.5944
        41.2504         32.5004
  -1121435.67247   -862603.93446  20858118.2114                   20858117.0984
        45.5004         37.2504
   2327485.27746   1853330.54345  25117740.8914                   25117745.7464
        38.2504         30.0004
  -3790969.80147  -2906962.64847  22304962.2424                   22304963.8134
        46.5004         45.5004
 25  6 30 19 24 30.0000000  0 11G13G23G15G27G26G16G29G32G18G24G10
   2017288.85946   1583559.74643  23817804.1484                   23817804.4454
        41.0004         21.2504
  -1156129.66048   -878944.32046  20322136.3594                   20322134.5944
        48.2504         40.0004
    490946.09048    397495.78947  21287914.9694                   21287913.6484
        48.2504         43.5004
  -3487525.29346  -2668208.56245  23397932.0554                   23397935.1604
        38.5004         34.0004
   2143242.20346   1678122.02045  24361941.9384                   24361946.1564
        37.7504         34.5004
   -439921.18746   -307594.68743  23527513.3914                   23527513.1764
        39.5004         21.0004
   3034100.94147   2365015.48846  22472689.4534                   22472689.8444
        43.7504         39.0004
   -252779.78946   -146844.49645  24893962.9064                   24893970.7114
        41.0004         32.2504
  -1216011.71147   -936299.57446  20840121.1804                   20840119.4264
        46.5004         37.2504
   2157325.34445   1720738.50844  25085359.2974                   25085365.0474
        34.2504         26.5004
  -3942704.70747  -3025197.61347  22276088.2194                   22276089.5434
        47.0004         46.0004
 25  6 30 19 25  0.0000000  0 11G13G23G15G27G26G16G29G32G18G24G10
   1999056.38346   1569352.54743  23814334.9774                   23814334.4734
        40.5004         21.0004
  -1246657.62148   -949485.60546  20304909.2344                   20304907.4414
        48.0004         39.5004
    442413.03548    359677.80547  21278680.1484                   21278678.6884
        48.0004         42.7504
  -3675542.35246  -2814715.31645  23362152.8134                   23362156.2304
        38.2504         32.0004
   2111675.23445   1653524.25845  24355935.0554                   24355940.2584
        35.5004         32.2504
   -509774.96946   -362026.28543  23514220.3674                   23514220.0634
        38.7504         20.0004
   3034873.75447   2365617.55946  22472836.5864                   22472837.0164
        42.5004         38.5004
   -456643.74646   -305699.24245  24855168.2034                   24855176.8834
        40.2504         31.0004
  -1310491.23847  -1009920.00446  20822142.0004                   20822140.9494
        46.5004         37.5004
   1987079.57045   1588079.63344  25052961.3674                   25052968.3634
        31.2504         24.0004
  -4094287.92247  -3143314.37147  22247243.2194                   22247244.5904
        47.7504         46.5004
 25  6 30 19 25 30.0000000  0 11G13G23G15G27G26G16G29G32G18G24G10
   1981128.72347   1555382.88743  23810923.5944                   23810923.4184
        42.0004         20.7504
  -1336979.93047  -1019866.63746  20287721.4304                   20287719.7544
        47.2504         39.0004
    394330.46147    322210.84847  21269529.8524                   21269528.8244
        46.5004         42.5004
  -3863417.03146  -2961111.15645  23326402.0474                   23326403.3134
        38.2504         32.2504
   2080151.85545   1628960.48044  24349934.5314                   24349941.3404
        34.5004         29.2504
   -579271.92246   -416179.80543  23500995.7894                   23500995.6644
        38.7504         19.5004
   3035813.85247   2366350.00446  22473015.2274                   22473015.9064
        43.2504         39.7504
   -660657.44946   -464670.70744  24816344.6174                   24816353.3484
        38.2504         25.2504
  -1404871.11347  -1083462.78146  20804182.3054                   20804180.5744
        45.5004         37.5004
   1816753.43845   1455358.04744  25020550.8204                   25020557.4064
        33.2504         27.5004
  -4245717.10548  -3261311.10247  22218426.5634                   22218427.9534
        48.2504         46.5004
 25  6 30 19 26  0.0000000  0 11G13G23G15G27G26G16G29G32G18G24G10
   1963501.73446   1541647.48843  23807568.7194                   23807569.2774
        40.7504         20.5004
  -1427099.49248  -1090089.69946  20270572.3444                   20270570.3754
        48.2504         39.2504
    346695.32047    285092.55947  21260465.2114                   21260463.8244
        47.5004         42.5004
  -4051148.40246  -3107395.29345  23290677.7344                   23290679.3484
        38.7504         32.2504
   2048667.45745   1604427.05944  24343943.5164                   24343949.4144
        35.0004         29.7504
   -648415.10546   -470057.69943  23487838.0864                   23487838.4844
        38.0004         20.2504
   3036916.98047   2367209.44546  22473224.9844                   22473225.4344
        42.5004         38.0004
   -864820.27346   -623758.26644  24777494.2114                   24777500.8594
        37.7504         27.0004
  -1499152.20347  -1156928.57446  20786241.1024                   20786239.5864
        45.2504         37.5004
   1646348.28145   1322574.91844  24988124.9064                   24988130.1844
        34.5004         27.5004
  -4396994.00048  -3379189.16847  22189639.5554                   22189641.3444
        49.0004         46.5004
 25  6 30 19 26 30.0000000  0 11G13G23G15G27G26G16G29G32G18G24G10
   1946175.90646   1528146.81643  23804270.8204                   23804272.9574
        37.5004         19.2504
  -1517014.53548  -1160153.37946  20253461.8364                   20253460.0274
        48.0004         39.5004
    299508.68847    248323.72347  21251485.6644                   21251484.3054
        47.5004         42.7504
  -4238730.80546  -3253563.30946  23254982.8134                   23254985.4224
        41.5004         36.5004
   2017222.29345   1579924.21144  24337960.2424                   24337965.0314
        35.5004         29.2504
   -717203.93746   -523659.45343  23474748.5394                   23474748.3404
        39.5004         21.7504
   3038184.44947   2368196.96546  22473466.6334                   22473466.5004
        43.5004         39.5004
  -1069126.59846   -782957.68745  24738615.7034                   24738623.6134
        39.7504         30.5004
  -1593330.51647  -1230314.29346  20768319.9614                   20768317.9534
        46.5004         37.5004
   1475870.31345   1189735.07044  24955683.1954                   24955688.6564
        33.0004         25.5004
  -4548115.55148  -3496946.18447  22160882.0784                   22160883.6374
        48.5004         46.5004
 25  6 30 19 27  0.0000000  0 11G13G23G15G27G26G16G29G32G18G24G10
   1929154.73446   1514883.50842  23801033.0164                   23801034.3284
        36.5004         16.2504
  -1606720.34447  -1230054.02746  20236391.6094                   20236389.9534
        46.5004         39.7504
    252774.38347    211907.33247  21242592.7894                   21242591.1134
        47.5004         42.5004
  -4426155.57446  -3399608.53546  23219316.6174                   23219319.4774
        41.0004         36.0004
   1985819.44146   1555454.30144  24331985.1644                   24331990.2704
        37.7504         29.7504
   -785634.35946   -576981.93043  23461726.7194                   23461726.3954
        39.2504         22.7504
   3039619.87147   2369315.32446  22473740.4534                   22473740.1054
        44.2504         40.0004
  -1273568.18446   -942262.55544  24699711.4384                   24699720.2154
        38.0004         26.5004
  -1687399.37947  -1303614.73046  20750419.4774                   20750417.5394
        47.5004         37.2504
   1305328.69144   1056845.59043  24923227.1484                   24923235.1374
        28.5004         22.7504
  -4699075.89847  -3614577.59047  22132155.7814                   22132156.7974
        47.5004         46.0004
 25  6 30 19 27 30.0000000  0 11G13G23G15G27G26G16G29G32G18G24G10
   1912433.98846   1501854.29342  23797850.4694                   23797853.2344
        37.0004         15.5004
  -1696219.68748  -1299793.79346  20219360.5394                   20219359.1024
        48.5004         40.5004
    206489.13347    175840.86747  21233784.9534                   21233783.6914
        47.5004         42.2504
  -4613421.56646  -3545530.09845  23183680.3524                   23183683.3954
        38.5004         34.7504
   1954454.43846   1531013.94944  24326016.8594                   24326021.2344
        37.0004         28.7504
   -853709.36746   -630027.45743  23448773.0784                   23448772.3554
        39.0004         22.7504
   3041219.57447   2370561.71946  22474045.0314                   22474044.5744
        43.0004         39.2504
  -1478144.02346  -1101672.06244  24660782.0864                   24660791.1294
        38.2504         29.5004
  -1781359.39847  -1376830.34846  20732539.0394                   20732537.6254
        47.7504         37.5004
   1134724.77045    923907.57444  24890764.9304                   24890770.7584
        30.0004         24.0004
  -4849876.67648  -3732084.65247  22103459.0704                   22103460.4104
        48.0004         45.5004
 25  6 30 19 28  0.0000000  0 11G13G23G15G27G26G16G29G32G18G24G10
   1896013.15645   1489058.68842  23794725.7504                   23794728.9494
        34.7504         15.5004
  -1785512.11748  -1369372.32046  20202368.9614                   20202366.8794
        48.5004         40.5004
    160652.89547    140124.27747  21225062.6954                   21225061.2624
        47.5004         42.2504
  -4800524.46946  -3691324.53545  23148077.7194                   23148078.0084
        40.7504         35.0004
   1923126.20346   1506602.19944  24320055.0234                   24320059.8714
        37.2504         29.0004
   -921428.95746   -682796.03943  23435885.6564                   23435885.2854
        39.2504         21.7504
   3042982.96546   2371935.65246  22474380.1334                   22474380.0354
        41.7504         37.2504
  -1682849.95346  -1261182.87144  24621826.7734                   24621835.2734
        38.0004         28.0004
  -1875208.03147  -1449959.16046  20714680.3914                   20714678.5744
        46.0004         37.7504
                                  24858288.6254                   24858295.2274
        27.2504         22.7504
  -5000516.14847  -3849466.02747  22074793.3754                   22074794.8364
        47.0004         44.7504
 25  6 30 19 28 30.0000000  0 10G13G23G15G27G26G16G29G32G18G10
   3455310.73846   2704095.75842  24091451.0394                   24091453.5824
        36.5004         16.2504
   -299175.08648   -211187.64846  20485209.0234                   20485207.5004
        48.0004         40.5004
   1690685.80947   1332357.68847  21516218.2274                   21516217.0904
        47.0004         42.0004
  -3412034.65647  -2609384.34046  23412298.1804                   23412298.8054
        43.2504         36.2504
   3467253.80146   2709818.35944  24613892.9224                   24613898.3444
        37.5004         29.2504
    586628.00446    492313.19543  23722859.1724                   23722859.4964
        37.7504         22.0004
   4620328.55146   3601035.98046  22774538.9064                   22774539.9414
        41.7504         37.0004
   -312256.04346   -193187.23044  24882641.2194                   24882648.0474
        38.0004         24.5004
   -393520.44947   -295397.43046  20996636.1564                   20996634.4964
        46.5004         38.0004
  -3575568.69147  -2739117.32847  22345951.4384                   22345952.7034
        47.0004         44.0004
 25  6 30 19 29  0.0000000  0 10G13G23G15G27G26G16G29G32G18G10
