     2.11           OBSERVATION DATA    G (GPS)             RINEX VERSION / TYPE
teqc  2019Feb25                         20250821 09:31:16UTCPGM / RUN BY / DATE
Linux 2.6.32-573.12.1.x86_64|x86_64|gcc -static|Linux 64|=+ COMMENT
BIT 2 OF LLI FLAGS DATA COLLECTED UNDER A/S CONDITION       COMMENT
35163190                                                    MARKER NAME
3190                                                        MARKER NUMBER
-Unknown-           -Unknown-                               OBSERVER / AGENCY
0220413516          TRIMBLE R7          2.32                REC # / TYPE / VERS
-Unknown-           TRM39105.00     NONE                    ANT # / TYPE
 -2433061.9768 -4666214.6503  3593449.6130                  APPROX POSITION XYZ
        0.0000        0.0000        0.0000                  ANTENNA: DELTA H/E/N
     1     1                                                WAVELENGTH FACT L1/2
     7    L1    L2    C1    P1    P2    S1    S2            # / TYPES OF OBSERV
    18                                                      LEAP SECONDS
 SNR is mapped to RINEX snr flag value [0-9]                COMMENT
  L1 & L2: min(max(int(snr_dBHz/6), 0), 9)                  COMMENT
  2025     7     1     0     0   30.0000000     GPS         TIME OF FIRST OBS
                                                            END OF HEADER
 25  7  1  0  0 30.0000000  0 10G08G25G02G04G28G31G01G32G03G10
 -41010549.18456 -34508121.59054  24953043.6094                   24953049.1454
        39.0004         27.5004
  -1343047.74256  -3144126.08254  24539757.7114                   24539760.8094
        36.2504         28.5004
 -50013373.67257 -41232169.03156  21299556.6724                   21299551.7854
        46.5004         37.2504
   -852328.85256   -622980.50453  25019335.3834                   25019338.5354
        37.0004         19.2504
 -53689243.92658 -41666421.73856  20822377.0944                   20822374.6604
        48.0004         37.0004
 -41359778.65658 -32185875.36357  21100779.8364                   21100777.2734
        48.7504         44.5004
 -30155158.57057 -25842148.52055  21909288.3364                   21909285.7734
        44.5004         32.0004
 -71990627.35957 -56046433.45357  22035207.2814                   22035206.5784
        47.5004         44.7504
 -13851755.46156 -10755982.23855  23539055.6094                   23539057.1214
        40.0004         33.5004
 -59228649.55157 -46105152.03156  22548049.1954                   22548049.2274
        44.5004         40.0004
 25  7  1  0  1  0.0000000  0 10G08G25G02G04G28G31G01G32G03G10
 -41028406.79346 -34522036.78944  24949645.2034                   24949651.5554
        39.0004         27.7504
  -1466797.87946  -3240554.71944  24516207.9064                   24516211.3914
        37.0004         28.0004
 -50109878.20748 -41307367.37146  21281192.5784                   21281187.4494
        48.0004         36.7504
  -1027801.41446   -759712.15643  24985943.4774                   24985947.8834
        37.0004         18.5004
 -53791718.64848 -41746272.16446  20802877.0704                   20802874.4064
        48.0004         37.0004
 -41527703.88348 -32316726.15247  21068825.0784                   21068822.1564
        49.2504         44.7504
 -30313879.40647 -25965827.06245  21879084.4774                   21879081.9454
        44.5004         32.2504
 -72020374.92247 -56069613.40647  22029546.1564                   22029545.8364
        47.7504         45.5004
 -14028979.84446 -10894079.09045  23505330.6254                   23505332.1174
        40.2504         33.0004
 -59264656.84047 -46133209.69546  22541197.0314                   22541197.3244
        44.5004         40.0004
 25  7  1  0  1 30.0000000  0 10G08G25G02G04G28G31G01G32G03G10
 -41046298.91846 -34535978.86344  24946241.3204                   24946247.0124
        38.0004         28.7504
  -1590116.45346  -3336647.09444  24492742.3524                   24492743.7074
        37.2504         28.0004
 -50205860.94547 -41382159.12146  21262927.6254                   21262922.6524
        47.5004         36.7504
  -1203146.96946   -896344.89542  24952576.1564                   24952580.6454
        37.2504         17.7504
 -53893594.64847 -41825656.05146  20783490.7194                   20783487.9304
        47.5004         37.5004
 -41695155.86348 -32447208.17647  21036959.5944                   21036956.5274
        50.0004         44.5004
 -30472169.62547 -26089170.07045  21848962.6094                   21848960.6054
        44.0004         32.5004
 -72050006.82447 -56092703.22747  22023907.3134                   22023907.1604
        47.7504         45.5004
 -14206202.93746 -11032174.96145  23471606.4534                   23471607.6644
        41.0004         33.7504
 -59300410.56647 -46161069.78946  22534393.7814                   22534393.5984
        45.5004         40.2504
 25  7  1  0  2  0.0000000  0 10G08G25G02G04G28G31G01G32G03G10
 -41064232.12945 -34549952.98844  24942828.2194                   24942834.6844
        34.7504         27.0004
  -1713005.10546  -3432404.49244  24469356.3284                   24469358.8014
        37.0004         27.0004
 -50301325.25448 -41456546.89846  21244761.2584                   21244756.6724
        48.5004         37.5004
  -1378368.85946  -1032881.23842  24919233.1414                   24919236.0984
        38.5004         16.7504
 -53994875.53947 -41904576.22346  20764217.4064                   20764215.1604
        47.2504         37.5004
 -41862135.77748 -32577322.34447  21005184.5944                   21005181.5354
        49.0004         44.7504
 -30630030.69547 -26212178.69145  21818922.6254                   21818920.7584
        44.2504         32.0004
 -72079528.15248 -56115706.87547  22018289.8054                   22018289.6454
        48.2504         45.5004
 -14383427.55546 -11170272.00845  23437881.5944                   23437883.1954
        40.7504         34.7504
 -59335914.28547 -46188735.06246  22527637.7584                   22527637.7664
        45.0004         40.7504
 25  7  1  0  2 30.0000000  0 10G08G25G02G04G28G31G01G32G03G10
 -41082199.35945 -34563953.68744  24939409.6414                   24939416.1804
        33.2504         27.0004
  -1835452.05946  -3527817.68044  24446055.7114                   24446058.2114
        37.0004         28.0004
 -50396261.39848 -41530523.12146  21226695.7034                   21226690.5824
        48.2504         37.2504
  -1553457.01246  -1169313.36342  24885914.4064                   24885917.7464
        37.5004         17.7504
 -54095551.46947 -41983024.99246  20745059.6024                   20745056.9574
        46.2504         37.0004
 -42028631.29748 -32707059.07847  20973501.3204                   20973498.2734
        49.5004         44.7504
 -30787450.61347 -26334843.55945  21788966.7664                   21788964.5824
        44.2504         32.7504
 -72108930.49648 -56138617.82047  22012695.0004                   22012694.1524
        48.7504         45.0004
 -14560643.22746 -11308362.07445  23404158.5784                   23404160.1254
        41.0004         34.7504
 -59371158.07447 -46216197.78146  22520931.1414                   22520931.2934
        45.5004         40.5004
 25  7  1  0  3  0.0000000  0 10G08G25G02G04G28G31G01G32G03G10
 -41100198.07845 -34577978.86744  24935984.5004                   24935989.7704
        33.5004         26.0004
  -1957449.68446  -3622880.73444  24422840.2114                   24422842.9774
        36.5004         28.5004
 -50490663.48447 -41604083.19946  21208731.2734                   21208726.8554
        46.5004         37.0004
  -1728405.59446  -1305636.75042  24852622.1334                   24852627.6454
        36.5004         16.7504
 -54195616.93047 -42060998.07846  20726018.3594                   20726015.3834
        46.5004         36.5004
 -42194634.30548 -32836412.03147  20941911.9224                   20941908.9224
        49.0004         44.7504
 -30944421.65647 -26457158.63345  21759095.7734                   21759094.0164
        44.7504         33.2504
 -72138209.72748 -56161432.84047  22007123.1564                   22007122.5004
        48.0004         45.2504
 -14737843.60546 -11446440.22745  23370438.4064                   23370440.2424
        40.5004         35.5004
 -59406136.25447 -46243453.55146  22514274.4224                   22514275.2344
        44.7504         40.5004
 25  7  1  0  3 30.0000000  0 10G08G25G02G04G28G31G01G32G03G10
 -41118242.93745 -34592039.94544  24932550.5394                   24932556.3634
        34.0004         25.2504
  -2079007.84446  -3717601.36745  24399708.9064                   24399711.4384
        38.5004         30.5004
 -50584543.23847 -41677236.25446  21190866.5474                   21190861.5394
        47.5004         37.2504
  -1903226.12945  -1441860.40242  24819354.6484                   24819359.5984
        34.2504         15.5004
 -54295083.78547 -42138504.71146  20707089.8914                   20707087.3244
        47.0004         37.0004
 -42360154.21948 -32965388.55147  20910414.7814                   20910412.0314
        49.2504         45.2504
 -31100953.49247 -26579131.46545  21729308.4924                   21729306.8014
        44.2504         32.2504
 -72167379.07847 -56184162.22747  22001572.4224                   22001572.5784
        47.0004         45.0004
 -14915039.88746 -11584515.18445  23336719.1254                   23336720.3244
        40.5004         34.2504
 -59440860.57847 -46270511.50046  22507666.8524                   22507667.2274
        45.0004         40.5004
 25  7  1  0  4  0.0000000  0 10G08G25G02G04G28G31G01G32G03G10
 -39560899.14845 -33378525.52044  25228906.2194                   25228908.7544
        33.7504         25.0004
   -624683.65246  -2584361.70344  24676457.6334                   24676459.7424
        38.0004         29.7504
 -49102460.80947 -40522366.83646  21472897.7974                   21472892.8404
        47.5004         37.5004
   -502475.71545   -350366.46142  25085907.6484                   25085914.2194
        33.0004         15.5004
 -52818511.95347 -40987929.25046  20988072.3914                   20988069.5704
        47.0004         36.7504
 -40949746.89548 -31866369.82047  21178806.4924                   21178803.4384
        49.0004         44.7504
 -29681601.85947 -25473143.14845  21999402.3444                   21999400.5314
        43.7504         32.2504
 -70621002.05548 -54979193.15247  22295838.3914                   22295837.8634
        48.0004         45.0004
 -13516788.44946 -10494968.53945  23602797.3754                   23602798.4384
        39.5004         35.2504
 -57899892.93747 -45069757.54346  22800903.3364                   22800903.2114
        44.5004         40.0004
 25  7  1  0  4 30.0000000  0 10G08G25G02G04G28G31G01G32G03G10
 -39579013.01245 -33392640.44543  25225458.6094                   25225462.4964
        31.2504         21.5004
   -745325.52346  -2678368.35944  24653499.5864                   24653502.7384
        37.0004         28.7504
 -49195264.68747 -40594681.56246  21455237.6954                   21455232.8364
        47.5004         37.2504
   -677007.87545   -486365.39542  25052696.4844                   25052701.6454
        34.7504         15.5004
 -52916750.27747 -41064478.58646  20969378.3204                   20969375.9344
        47.0004         36.7504
 -41114262.52348 -31994563.78547  21147499.7344                   21147496.9414
        48.7504         44.7504
 -29837217.17647 -25594401.81645  21969789.5864                   21969788.0594
        44.2504         32.7504
 -70649924.24647 -55001729.94947  22290334.6254                   22290334.0394
        47.2504         45.0004
 -13693942.52046 -10633010.62145  23569085.6484                   23569087.5904
        39.2504         34.5004
 -57934077.72747 -45096395.07446  22794398.2424                   22794398.1334
        43.5004         39.7504
 25  7  1  0  5  0.0000000  0 10G08G25G02G04G28G31G01G32G03G10
 -39597163.90654 -33406784.25053  25222001.7814                   25222007.6214
        29.7504         20.5004
   -865504.62546  -2772014.39144  24630630.8754                   24630633.3324
        37.2504         27.7504
 -49287528.59447 -40666575.52046  21437680.2034                   21437675.8134
        47.5004         38.0004
   -851393.81246   -622250.26642  25019512.3364                   25019517.2504
        37.5004         16.7504
 -53014372.84447 -41140548.11346  20950801.2584                   20950798.5704
        46.5004         36.7504
 -41278270.96548 -32122362.53147  21116290.2194                   21116287.0164
        49.2504         45.2504
 -29992369.39547 -25715299.63345  21940265.7034                   21940263.5984
        44.5004         33.7504
 -70678723.21947 -55024170.72747  22284854.3594                   22284854.6954
        47.0004         45.2504
 -13871072.77346 -10771034.09845  23535378.7734                   23535381.4534
        39.5004         34.2504
 -57967990.93447 -45122820.98846  22787944.9304                   22787945.0164
        43.5004         40.0004
 25  7  1  0  5 30.0000000  0 10G08G25G02G04G28G31G01G32G03G10
 -39615355.40245 -33420959.67243  25218542.3834                   25218546.8634
        33.2504         23.0004
   -985219.59446  -2865298.73844  24607849.3204                   24607852.3134
        38.0004         28.7504
 -49379253.32847 -40738049.35546  21420225.7974                   21420220.8284
        47.2504         37.2504
  -1025633.80146   -758021.52342  24986354.6484                   24986359.3364
        37.5004         17.7504
 -53111380.30947 -41216138.33646  20932341.2034                   20932338.7274
        47.0004         36.5004
 -41441770.30948 -32249764.56647  21085177.1414                   21085173.9654
        49.5004         45.2504
 -30147056.91047 -25835835.33245  21910829.5864                   21910827.7584
        44.7504         33.0004
 -70707400.91047 -55046516.99647  22279397.4614                   22279397.4144
        47.0004         44.7504
 -14048178.81246 -10909038.70745  23501676.2894                   23501678.2774
        39.5004         33.0004
 -58001633.06647 -45149035.68746  22781542.9144                   22781543.6804
        44.0004         40.2504
 25  7  1  0  6  0.0000000  0 10G08G25G02G04G28G31G01G32G03G10
 -39633587.96545 -33435167.12544  25215071.5554                   25215079.2384
        35.2504         29.0004
  -1104466.36746  -2958218.30544  24585158.0634                   24585159.8204
        39.7504         28.2504
 -49470436.75047 -40809101.38346  21402873.8594                   21402869.3794
        47.2504         37.0004
  -1199725.60246   -893677.30543  24953226.6884                   24953231.6414
        36.5004         18.5004
 -53207770.69147 -41291247.71946  20913998.8834                   20913996.3834
        46.2504         36.5004
 -41604756.02348 -32376766.37547  21054162.2504                   21054159.0944
        49.7504         45.2504
 -30301275.46947 -25956005.61745  21881482.3594                   21881480.8594
        44.7504         33.2504
 -70735956.52747 -55068768.15647  22273963.3444                   22273962.7114
        47.2504         44.7504
 -14225257.77746 -11047022.25445  23467979.0944                   23467980.2034
        38.5004         31.7504
 -58035001.87947 -45175037.39846  22775193.3674                   22775193.6954
        44.0004         40.5004
 25  7  1  0  6 30.0000000  0 10G08G25G02G04G28G31G01G32G03G10
 -39651864.63745 -33449408.90244  25211594.3364                   25211601.1804
        35.0004         28.5004
  -1223243.29346  -3050771.73044  24562555.3444                   24562557.9574
        38.5004         28.5004
 -49561078.90647 -40879731.64846  21385625.4534                   21385620.8554
        46.7504         37.2504
  -1373668.86745  -1029217.39542  24920126.2194                   24920130.4384
        35.7504         17.2504
 -53303544.35247 -41365876.53546  20895773.7034                   20895771.0594
        46.7504         37.0004
 -41767225.96948 -32503366.30947  21023245.0164                   21023242.4384
        48.5004         45.5004
 -30455023.01647 -26075808.87545  21852225.0784                   21852223.0354
        45.0004         33.5004
 -70764391.55547 -55090925.35547  22268552.7114                   22268551.6374
        47.0004         44.0004
 -14402308.94146 -11184984.13345  23434287.7194                   23434288.8284
        39.2504         31.7504
 -58068097.46547 -45200826.21146  22768895.3754                   22768896.1684
        43.7504         40.0004
 25  7  1  0  7  0.0000000  0 10G08G25G02G04G28G31G01G32G03G10
 -39670189.89146 -33463688.56644  25208107.8284                   25208114.6054
        36.7504         29.0004
  -1341550.15246  -3142958.84844  24540041.9774                   24540044.7194
        38.0004         27.5004
 -49651181.68047 -40949941.61746  21368479.5164                   21368474.9144
        46.2504         37.0004
  -1547465.18746  -1164642.87942  24887052.9614                   24887059.0704
        36.5004         14.7504
 -53398703.26647 -41440026.33646  20877665.4384                   20877663.0354
        46.0004         36.7504
 -41929179.62548 -32629563.93447  20992426.2274                   20992423.4694
        48.2504         45.5004
 -30608299.23847 -26195244.85945  21823057.5314                   21823055.8954
        45.0004         33.5004
 -70792709.12547 -55112991.01647  22263163.8134                   22263163.5274
        47.2504         44.5004
 -14579333.24646 -11322925.10245  23400600.4614                   23400601.6254
        37.5004         31.0004
 -58100921.52047 -45226403.43746  22762649.1644                   22762649.7274
        43.5004         39.5004
 25  7  1  0  7 30.0000000  0 10G08G25G02G04G28G31G01G32G03G10
 -39688565.59046 -33478007.53144  25204611.3284                   25204617.2234
        37.2504         28.5004
  -1459384.22346  -3234777.57044  24517618.5864                   24517622.0744
        37.7504         28.5004
 -49740744.31647 -41019730.70346  21351435.9454                   21351431.5784
        46.2504         37.0004
  -1721113.453 6                  24854009.906
        37.250
 -53493246.59447 -41513696.45746  20859674.2974                   20859672.0944
        45.7504         36.5004
 -42090613.70348 -32755356.68447  20961705.8984                   20961703.5354
        48.7504         45.7504
 -30761101.08247 -26314311.20345  21793980.4774                   21793978.4574
        44.5004         32.5004
 -70820909.51247 -55134965.35947  22257797.5864                   22257796.8794
        47.0004         44.5004
 -14756328.94946 -11460843.76645  23366918.4924                   23366919.9224
        38.0004         30.5004
 -58133472.94947 -45251768.21146  22756454.9144                   22756455.4844
        43.0004         39.5004
 25  7  1  0  8  0.0000000  0 10G08G25G02G04G28G31G01G32G03G10
 -39706995.16446 -33492368.47744  25201103.9614                   25201110.7194
        37.7504         26.7504
  -1576744.24646  -3326226.91044  24495286.1724                   24495288.9454
        38.5004         29.0004
 -49829767.64547 -41089099.55146  21334495.4454                   21334491.0904
        45.7504         36.0004
  -1894614.15646  -1266520.26253  24820993.3594                   24820994.7424
        39.0004         18.2504
 -53587175.48047 -41586887.78946  20841800.5234                   20841798.1684
        45.2504         37.5004
 -42251526.66848 -32880743.38747  20931085.5554                   20931082.7814
        48.7504         46.0004
 -30913427.16847 -26433006.83645  21764994.2114                   21764991.7934
        45.0004         32.5004
 -70848994.82048 -55156850.05147  22252452.9144                   22252452.0124
        48.2504         44.5004
 -14933295.84846 -11598740.01245  23333244.1024                   23333244.5594
        39.2504         32.0004
 -58165752.56247 -45276921.20746  22750312.4534                   22750313.0084
        44.2504         39.5004
 25  7  1  0  8 30.0000000  0 10G08G25G02G04G28G31G01G32G03G10
 -39725482.37146 -33506774.31244  25197586.1954                   25197593.0864
        36.7504         26.5004
  -1693629.53546  -3417306.35244  24473043.7974                   24473046.1524
        37.7504         26.7504
 -49918252.27047 -41158048.62546  21317657.7424                   21317653.0704
        46.2504         36.5004
  -2067967.95345  -1401601.02042  24788003.6174                   24788008.4024
        34.5004         15.5004
 -53680491.07847 -41659601.23846  20824042.9384                   20824040.8874
        45.7504         37.0004
 -42411917.29748 -33005723.06647  20900564.3834                   20900561.1564
        48.7504         46.0004
 -31065276.38347 -26551330.88745  21736097.6024                   21736096.0394
        44.2504         31.7504
 -70876967.27747 -55178646.79747  22247130.0004                   22247129.8204
        47.2504         44.2504
 -15110234.13746 -11736613.92645  23299573.5474                   23299575.5864
        37.2504         30.7504
 -58197761.19147 -45301863.04346  22744220.9144                   22744221.6644
        43.2504         39.0004
 25  7  1  0  9  0.0000000  0 10G08G25G02G04G28G31G01G32G03G10
 -39744030.96946 -33521227.91844  25194056.0704                   25194063.9804
        36.7504         27.5004
  -1810039.23846  -3508015.17644  24450891.6254                   24450893.7704
        38.5004         27.7504
 -50006199.63347 -41226579.05546  21300921.7344                   21300917.5274
        45.7504         36.2504
  -2241175.72745  -1536567.91442  24755044.1954                   24755048.8164
        34.0004         15.5004
 -53773194.70747 -41731837.82046  20806402.1884                   20806399.8204
        46.7504         37.0004
 -42571784.23848 -33130294.67247  20870142.7894                   20870139.5634
        49.5004         46.2504
 -31216647.61347 -26669282.47745  21707292.6954                   21707290.7934
        45.5004         32.5004
 -70904829.17647 -55200357.39547  22241827.9064                   22241828.2504
        46.5004         44.0004
 -15287143.86746 -11874465.60945  23265909.2194                   23265909.4454
        39.5004         32.7504
 -58229499.82847 -45326594.48046  22738181.3834                   22738181.9924
        43.0004         38.7504
 25  7  1  0  9 30.0000000  0 11G08G25G02G04G28G31G01G32G03G26G10
 -39762640.51246 -33535729.05944  25190515.8054                   25190522.8404
        39.2504         29.0004
  -1925968.31246  -3598349.47344  24428831.2274                   24428833.6954
        39.2504         29.2504
 -50093606.96147 -41294688.68746  21284289.4844                   21284284.8204
        46.5004         36.2504
  -2414233.90645  -1671418.28942  24722111.4144                   24722117.4734
        32.2504         14.7504
 -53865283.51247 -41803595.32846  20788878.6024                   20788876.1724
        47.7504         37.2504
 -42731122.15248 -33254454.04747  20839821.5554                   20839818.0984
        50.0004         46.2504
 -31367535.71547 -26786857.59045  21678579.9454                   21678577.8164
        45.5004         33.0004
 -70932578.62147 -55221980.36347  22236547.1564                   22236547.3164
        46.7504         44.5004
 -15464020.90246 -12012291.80945  23232250.0004                   23232251.4574
        40.2504         33.0004
   1332411.15656   1096798.54354  25168334.8364                   25168339.7034
        37.5004         25.2504
 -58260965.26647 -45351113.03546  22732193.8834                   22732194.0704
        43.2504         38.5004
 25  7  1  0 10  0.0000000  0 11G08G25G02G04G28G31G01G32G03G26G10
 -39781321.11346 -33550285.58244  25186960.8674                   25186967.1454
        39.0004         27.0004
  -2041422.53946  -3688313.78544  24406861.1644                   24406863.3164
        39.0004         27.5004
 -50180481.66847 -41362383.28146  21267757.2344                   21267752.3634
        46.2504         37.0004
  -2587149.94946  -1806158.05542  24689207.2424                   24689212.6644
        37.0004         16.7504
 -53956765.36347 -41874879.88346  20771469.8754                   20771467.4694
        47.5004         37.2504
 -42889936.59848 -33378205.53147  20809600.0314                   20809597.1484
        49.0004         46.0004
 -31517946.05547 -26904060.42645  21649957.3914                   21649955.7344
        44.5004         33.2504
 -70960224.37547 -55243522.53547  22231286.9064                   22231286.3484
        46.2504         44.0004
 -15640872.02046 -12150097.80545  23198597.3834                   23198598.0664
        40.7504         34.5004
   1156189.50846    959483.19544  25134799.9224                   25134806.4104
        36.5004         25.7504
 -58292164.91447 -45375424.49646  22726256.3674                   22726256.9454
        44.0004         38.2504
 25  7  1  0 10 30.0000000  0 11G08G25G02G04G28G31G01G32G03G26G10
 -39800077.14146 -33564900.88744  25183392.0944                   25183398.0004
        38.0004         26.0004
  -2156401.64146  -3777907.87944  24384980.7424                   24384983.1334
        40.0004         28.0004
 -50266825.43047 -41429664.15646  21251326.3914                   21251321.5634
        46.0004         37.0004
  -2759925.10545  -1940787.91442  24656330.0164                   24656332.6254
        35.7504         17.2504
 -54047642.12147 -41945692.93746  20754176.1414                   20754173.6334
        46.5004         36.7504
 -43048226.62148 -33501548.36747  20779478.0704                   20779474.8954
        49.2504         46.0004
 -31667878.10547 -27020890.58645  21621426.2974                   21621424.6844
        45.0004         33.7504
 -70987769.23847 -55264986.09847  22226044.7194                   22226044.8834
        46.0004         43.7504
 -15817697.67246 -12287883.96945  23164948.3054                   23164949.9104
        41.0004         35.5004
    979817.00446    822050.27044  25101238.4224                   25101243.7274
        37.7504         26.0004
 -58323100.27047 -45399530.02746  22720370.4224                   22720370.3754
        44.5004         38.5004
 25  7  1  0 11  0.0000000  0 11G08G25G02G04G28G31G01G32G03G26G10
 -39818911.59046 -33579577.36744  25179807.7974                   25179813.9494
        37.5004         24.2504
  -2270904.28546  -3867130.71944  24363191.6414                   24363194.0634
        38.5004         27.0004
 -50352638.75047 -41496531.69146  21234996.8054                   21234992.1024
        45.7504         36.7504
  -2932559.59445  -2075308.13342  24623477.0084                   24623481.4304
        34.0004         14.7504
 -54137914.54347 -42016035.08646  20736998.1804                   20736995.5124
        45.7504         37.0004
 -43205990.43448 -33624481.18747  20749457.1094                   20749453.7894
        48.7504         46.0004
 -31817330.22347 -27137346.77345  21592986.7034                   21592984.9064
        44.2504         33.5004
 -71015214.78947 -55286372.26247  22220822.9144                   22220822.5554
        46.0004         44.0004
 -15994497.37946 -12425649.89846  23131304.8674                   23131306.3524
        40.7504         36.0004
    803295.70346    684501.37544  25067647.1024                   25067652.8554
        36.7504         27.0004
 -58353771.69547 -45423429.88746  22714533.1414                   22714534.0354
        43.7504         39.0004
 25  7  1  0 11 30.0000000  0 11G08G25G02G04G28G31G01G32G03G26G10
 -39837821.43446 -33594312.52744  25176210.2584                   25176216.7074
        38.0004         27.2504
  -2384922.95346  -3955976.34444  24341494.3984                   24341497.7464
        38.2504         29.2504
 -50437916.25047 -41562981.71146  21218768.8444                   21218764.3134
        46.0004         36.0004
  -3105047.27745  -2209713.96943  24590653.2974                   24590658.0634
        34.7504         18.2504
 -54227577.30147 -42085902.17246  20719936.2974                   20719933.2584
        46.2504         37.2504
 -43363220.31648 -33746997.93447  20719537.1804                   20719534.1644
        50.0004         46.7504
 -31966294.59047 -27253422.87945  21564639.5394                   21564637.4574
        45.2504         33.0004
 -71042556.50047 -55307677.51647  22215619.5704                   22215619.0664
        46.0004         43.2504
 -16171264.40646 -12563390.38345  23097667.0634                   23097667.9414
        41.0004         35.7504
    626633.61746    546842.78144  25034028.2974                   25034034.7734
        36.5004         25.2504
 -58384173.43747 -45447119.60546  22708748.4454                   22708748.8984
        42.0004         38.7504
 25  7  1  0 12  0.0000000  0 11G08G25G02G04G28G31G01G32G03G26G10
 -39856797.56246 -33609099.31244  25172600.0314                   25172606.3324
        38.5004         28.7504
  -2498444.02746  -4044434.30144  24319892.0554                   24319894.9534
        39.7504         28.5004
 -50522646.35947 -41629005.18746  21202645.1804                   21202640.7934
        46.5004         36.2504
  -3277376.32845  -2343996.14842  24557860.4534                   24557865.0434
        34.5004         17.7504
 -54316618.95747 -42155285.27346  20702991.8754                   20702988.8284
        46.0004         37.5004
 -43519902.00848 -33869087.52747  20689721.6094                   20689718.4454
        49.7504         46.7504
 -32114757.33247 -27369108.11345  21536388.2504                   21536386.1604
        45.2504         32.2504
 -71069783.72747 -55328893.55547  22210438.4534                   22210438.5004
        46.5004         43.5004
 -16347985.88746 -12701095.36745  23064038.3444                   23064038.9884
        41.2504         34.2504
    449845.00445    409085.57443  25000387.0634                   25000391.5004
        34.5004         23.0004
 -58414293.60247 -45470589.90246  22703016.6644                   22703017.6604
        42.7504         38.5004
 25  7  1  0 12 30.0000000  0 11G08G25G02G04G28G31G01G32G03G26G10
 -39875844.09446 -33623940.98844  25168974.3914                   25168982.1914
        36.7504         26.2504
  -2611467.50846  -4132504.52044  24298384.0164                   24298386.3984
        38.2504         26.5004
 -50606830.78947 -41694603.46146  21186625.5864                   21186621.3714
        45.5004         36.7504
  -3449547.75845  -2478155.57843  24525097.2424                   24525101.1094
        35.7504         20.0004
 -54405041.57847 -42224186.01646  20686165.6804                   20686162.8014
        46.2504         38.0004
 -43676035.25048 -33990749.75847  20660010.3914                   20660007.8714
        49.2504         46.7504
 -32262717.98847 -27484402.11345  21508232.0784                   21508230.0634
        44.7504         32.2504
 -71096899.28947 -55350022.59047  22205278.4774                   22205277.9884
        46.5004         43.0004
 -16524662.53146 -12838765.43045  23030417.4224                   23030418.2384
        41.2504         34.0004
    272930.59845    271230.37943  24966720.4064                   24966725.1524
        34.2504         22.7504
 -58444133.75847 -45493842.01646  22697338.4694                   22697339.3364
        42.5004         38.5004
 25  7  1  0 13  0.0000000  0 11G08G25G02G04G28G31G01G32G03G26G10
 -38319546.43446 -32411241.77044  25465129.6024                   25465134.6604
        37.2504         24.2504
  -1148571.14146  -2992585.24644  24576764.4144                   24576766.5824
        39.2504         27.7504
 -49115050.28547 -40532177.10546  21470502.4224                   21470497.8364
        47.0004         36.7504
  -2046139.26246  -1384590.43743  24792158.5084                   24792160.8054
        36.7504         20.0004
 -52917426.07847 -41065005.11346  20969249.5394                   20969246.6844
        46.0004         37.2504
 -42256195.84448 -32884381.36747  20930196.8674                   20930193.8754
        48.7504         47.0004
 -30834753.06647 -26371702.14845  21779964.7194                   21779962.9264
        45.2504         32.5004
 -69548486.78547 -54143467.41847  22499931.4774                   22499930.4694
        46.7504         42.5004
 -15125870.74247 -11748797.76245  23296598.2974                   23296598.9884
        42.0004         34.5004
   1671315.35945   1360881.05144  25232824.1024                   25232830.0274
        35.7504         27.2504
 -56898276.25447 -44289277.77346  22991504.9844                   22991506.1764
        42.5004         38.7504
 25  7  1  0 13 30.0000000  0 11G08G25G02G04G28G31G01G32G03G26G10
 -38338752.71946 -32426207.92244  25461474.0944                   25461480.3954
        36.7504         25.2504
  -1260604.96946  -3079884.32444  24555445.4304                   24555447.6094
        39.5004         27.5004
 -49198154.85547 -40596933.93046  21454687.7664                   21454683.1644
        47.5004         37.2504
  -2218006.14546  -1518512.59443  24759451.7274                   24759454.8594
        36.7504         18.2504
 -53004622.84447 -41132950.64546  20952656.6254                   20952653.4494
        47.2504         37.5004
 -42411236.10248 -33005191.93747  20900693.5394                   20900690.6954
        49.0004         46.7504
 -30981714.43047 -26486217.49245  21751998.8594                   21751996.8444
        46.0004         33.5004
 -69575393.30947 -54164433.56647  22494811.3834                   22494810.8444
        47.5004         42.5004
 -15302465.41446 -11886403.94545  23262993.5234                   23262993.4884
        41.5004         34.0004
   1494145.85945   1222827.07844  25199110.2424                   25199116.6174
        34.0004         26.5004
 -56927567.13347 -44312101.87946  22985931.4454                   22985931.9064
        42.7504         38.7504
 25  7  1  0 14  0.0000000  0 10G25G02G04G28G31G01G32G03G26G10
  -1372145.90646  -3166799.34444  24534220.2974                   24534221.5784
        39.0004         27.0004
 -49280724.41447 -40661273.85546  21438975.3444                   21438970.6684
        46.5004         36.2504
  -2389724.66046  -1652319.07442  24726774.7584                   24726778.1564
        36.2504         17.7504
 -53091211.78947 -41200422.55146  20936179.7664                   20936176.9344
        47.5004         37.7504
 -42565731.54748 -33125577.97747  20871293.7584                   20871290.8984
        48.5004         46.5004
 -31128177.48047 -26600344.53945  21724127.6484                   21724125.6134
        45.5004         32.5004
 -69602201.41847 -54185323.04347  22489709.7814                   22489709.6334
        46.0004         42.5004
 -15479021.91846 -12023980.39545  23229396.2894                   23229395.9144
        41.7504         34.0004
   1316847.89545   1084673.01244  25165371.3914                   25165376.1334
        33.7504         26.2504
 -56956587.69146 -44334715.36346  22980409.2814                   22980409.3954
        41.7504         38.7504
 25  7  1  0 14 30.0000000  0 10G25G02G04G28G31G01G32G03G26G10
  -1483189.14846  -3253326.54744  24513088.0314                   24513090.7074
        38.7504         27.0004
 -49362756.34847 -40725194.85946  21423365.1484                   21423360.5164
        47.5004         37.2504
  -2561291.66446  -1786007.43443  24694126.0474                   24694129.7854
        37.5004         18.5004
 -53177190.34447 -41267418.81646  20919817.9384                   20919815.0514
        47.5004         37.0004
 -42719676.54348 -33245535.08247  20841999.1954                   20841995.8984
        48.7504         46.2504
 -31274137.14847 -26714079.32445  21696352.9064                   21696350.9654
        46.2504         33.0004
 -69628909.16447 -54206134.29347  22484627.8674                   22484627.7814
        46.5004         42.7504
 -15655536.16446 -12161523.89845  23195806.1804                   23195806.6484
        41.7504         34.2504
   1139427.09445    946423.29344  25131607.5864                   25131614.2154
        31.2504         24.0004
 -56985334.87147 -44357115.81246  22974938.2114                   22974939.2734
        42.0004         38.2504
 25  7  1  0 15  0.0000000  0 10G25G02G04G28G31G01G32G03G26G10
  -1593735.95746  -3339466.87544  24492052.7814                   24492054.6764
        39.0004         27.5004
 -49444253.68448 -40788699.28146  21407856.9534                   21407852.1684
        48.0004         37.5004
  -2732709.75446  -1919579.84843  24661506.5314                   24661510.9414
        36.2504         21.5004
 -53262562.02047 -41333942.19946  20903572.0474                   20903569.6604
        46.5004         38.2504
 -42873072.09448 -33365064.05147  20812808.8204                   20812805.7774
        48.5004         46.7504
 -31419594.42247 -26827422.61745  21668673.1644                   21668671.2304
        45.7504         32.7504
 -69655520.65247 -54226870.52747  22479564.0554                   22479563.3404
        46.0004         43.0004
 -15832010.07446 -12299035.96545  23162223.7894                   23162224.3914
        41.5004         34.0004
    961883.01245    808077.42244  25097823.5234                   25097828.9804
        34.5004         27.0004
 -57013811.62547 -44379305.53146  22969519.5314                   22969520.3444
        42.2504         38.2504
 25  7  1  0 15 30.0000000  0 10G25G02G04G28G31G01G32G03G26G10
  -1703777.94946  -3425213.79744  24471112.2424                   24471114.9614
        39.5004         28.7504
 -49525209.86748 -40851782.03546  21392451.6174                   21392447.0594
        48.5004         37.2504
  -2903971.93746  -2053030.81643  24628916.1804                   24628920.3634
        37.0004         22.0004
 -53347320.52747 -41399987.78946  20887443.5784                   20887440.6994
        46.5004         37.2504
 -43025909.34448 -33484157.97347  20783724.8984                   20783721.5164
        48.5004         46.2504
 -31564540.37947 -26940367.49645  21641090.6094                   21641088.2464
        45.7504         33.5004
 -69682030.08247 -54247527.26247  22474519.4304                   22474518.5864
        46.5004         42.7504
 -16008435.67247 -12436510.39145  23128651.8204                   23128651.8594
        42.0004         35.2504
    784225.02345    669642.77744  25064016.0314                   25064020.8244
        31.5004         25.2504
 -57042011.00047 -44401279.10946  22964153.4224                   22964154.8404
        42.7504         38.0004
 25  7  1  0 16  0.0000000  0 10G25G02G04G28G31G01G32G03G26G10
  -1813316.73046  -3510568.69144  24450268.2814                   24450269.2304
        40.2504         26.5004
 -49605628.54747 -40914445.95746  21377148.3674                   21377143.4414
        46.5004         37.7504
  -3075081.30946  -2186362.63343  24596355.8834                   24596358.7384
        36.7504         21.5004
 -53431469.70747 -41465558.57846  20871430.1024                   20871427.4064
        45.5004         38.0004
 -43178189.36748 -33602817.70747  20754746.9844                   20754743.3364
        48.5004         46.0004
 -31708976.43747 -27052915.06645  21613605.7034                   21613603.6254
        46.2504         34.0004
 -69708441.87547 -54268107.91447  22469492.7274                   22469493.0634
        45.5004         42.7504
 -16184815.13346 -12573948.87945  23095087.8134                   23095087.6254
        41.5004         34.7504
    606452.17645    531118.64843  25030186.9844                   25030192.2664
        30.5004         22.7504
 -57069936.27747 -44423039.12946  22958839.6334                   22958840.4344
        42.7504         38.5004
 25  7  1  0 16 30.0000000  0  9G25G02G04G28G31G01G32G03G10
  -1922352.33646  -3595531.55544  24429518.2194                   24429519.2624
        38.2504         25.2504
 -49685511.84448 -40976692.69146  21361947.0704                   21361942.3554
        49.0004         37.7504
  -3246039.15245  -2319576.32443  24563823.4534                   24563825.9384
        34.7504         21.0004
 -53515011.77047 -41530656.28146  20855532.8754                   20855530.1884
        46.5004         38.0004
 -43329911.84048 -33721042.97747  20725875.0004                   20725871.8954
        48.7504         46.2504
 -31852902.20347 -27165064.99645  21586217.3754                   21586215.5904
        46.5004         34.7504
 -69734758.70747 -54288614.57447  22464485.0554                   22464485.1374
        46.5004         42.7504
 -16361149.03147 -12711351.85546  23061532.5164                   23061532.8794
        42.2504         36.0004
 -57097589.17247 -44444586.88746  22953577.8914                   22953577.9734
        43.5004         38.0004
 25  7  1  0 17  0.0000000  0  9G25G02G04G28G31G01G32G03G10
  -2030888.82046  -3680105.37544  24408864.6414                   24408867.3554
        37.5004         24.5004
 -49764865.61748 -41038526.81246  21346846.4384                   21346841.8794
        49.7504         37.7504
  -3416850.76646  -2452676.17243  24531318.9454                   24531321.8324
        36.0004         21.0004
 -53597952.89147 -41595285.73446  20839749.5004                   20839746.8444
        47.0004         38.0004
 -43481080.35548 -33838836.59847  20697108.7274                   20697105.4104
        48.5004         46.0004
 -31996321.25447 -27276820.10245  21558925.7114                   21558923.7424
        46.0004         34.5004
 -69760987.15647 -54309052.35247  22459493.7974                   22459493.6294
        46.7504         42.5004
 -16537441.69146 -12848722.67646  23027984.4304                   23027985.8014
        41.7504         36.7504
 -57124975.07047 -44465926.60546  22948366.0084                   22948366.5514
        43.2504         38.2504
 25  7  1  0 17 30.0000000  0 10G25G02G04G28G31G01G32G03G26G10
  -2138928.37546  -3764292.05944  24388305.7664                   24388308.2304
        39.0004         25.5004
 -49843693.84848 -41099951.42246  21331845.7974                   21331840.8054
        48.7504         37.7504
  -3587519.83246  -2585664.96143  24498842.2664                   24498844.1134
        38.2504         22.5004
 -53680297.61747 -41659450.45346  20824079.9694                   20824077.1644
        47.7504         37.7504
 -43631696.84448 -33956200.06647  20668447.5634                   20668444.4384
        48.2504         46.5004
 -32139235.58647 -27388181.90245  21531730.0784                   21531727.7734
        45.2504         33.5004
 -69787132.22347 -54329425.15647  22454519.3054                   22454518.7584
        47.0004         42.7504
 -16713695.94146 -12986063.57846  22994444.5474                   22994445.1254
        41.2504         36.0004
   2983416.70755    403528.61354  24928567.7734                   24928573.3284
        33.5004         27.5004
 -57152097.98847 -44487061.39546  22943204.1564                   22943205.3714
        43.2504         38.2504
 25  7  1  0 18  0.0000000  0 10G25G02G04G28G31G01G32G03G26G10
  -2246469.83246  -3848090.55544  24367841.1254                   24367844.4574
        38.5004         28.0004
 -49921997.46948 -41160967.23846  21316945.2974                   21316940.9384
        49.2504         37.7504
  -3758046.62946  -2718542.79343  24466391.3364                   24466394.0944
        38.5004         22.5004
 -53762046.89548 -41723151.19146  20808523.5394                   20808520.9494
        48.2504         37.2504
 -43781759.60548 -34073132.07047  20639890.9774                   20639888.3094
        48.0004         46.7504
 -32281643.54747 -27499149.12145  21504630.3834                   21504628.5204
        46.2504         32.7504
 -69813195.27047 -54349734.05947  22449559.3444                   22449559.5044
        47.7504         42.7504
 -16889910.98446 -13123373.93445  22960910.8984                   22960912.7704
        41.0004         35.5004
   2805178.75045    264642.04344  24894650.6174                   24894655.8524
        33.7504         29.0004
 -57178958.17647 -44507991.47346  22938093.2344                   22938093.9924
        43.5004         37.7504
 25  7  1  0 18 30.0000000  0 10G25G02G04G28G31G01G32G03G26G10
  -2353515.30146  -3931502.52744  24347470.3594                   24347473.6414
        39.0004         27.5004
 -49999781.00048 -41221577.79746  21302143.4384                   21302138.7814
        49.5004         38.0004
  -3928434.45746  -2851312.35944  24433967.9224                   24433970.2974
        39.0004         24.0004
 -53843205.10548 -41786391.35246  20793079.9924                   20793076.9144
        48.2504         37.7504
 -43931270.31647 -34189633.90247  20611440.5234                   20611437.7344
        47.7504         46.7504
 -32423546.91447 -27609723.15645  21477627.3364                   21477625.3054
        45.5004         33.0004
 -69839180.94547 -54369982.66847  22444614.4694                   22444614.4264
        46.7504         42.2504
 -17066089.26647 -13260655.65246  22927386.2584                   22927387.7194
        42.0004         36.7504
   2626823.67245    125664.20744  24860710.2274                   24860714.8484
        35.0004         25.7504
 -57205559.37547 -44528719.72746  22933032.0474                   22933032.6684
        43.2504         37.5004
 25  7  1  0 19  0.0000000  0 10G25G02G04G28G31G01G32G03G26G10
  -2460058.69146  -4014523.34444  24327196.9844                   24327198.2504
        40.7504         26.7504
 -50077040.01248 -41281779.64146  21287441.3754                   21287436.7344
        49.0004         38.2504
  -4098678.50046  -2983969.88344  24401571.0554                   24401573.9144
        38.5004         24.5004
 -53923768.28547 -41849167.85546  20777749.0084                   20777746.3524
        47.7504         37.5004
 -44080222.53547 -34305700.53547  20583095.7814                   20583092.8164
        47.7504         47.0004
 -32564939.18447 -27719898.91845  21450721.0864                   21450719.1564
        47.0004         33.5004
 -69865085.70747 -54390168.22747  22439685.1414                   22439684.6764
        46.0004         42.0004
 -17242225.01246 -13397904.21945  22893867.8754                   22893869.8164
        41.0004         35.0004
   2448358.55945    -13399.39543  24826748.4224                   24826753.6884
        31.7504         23.0004
 -57231896.94547 -44549242.55146  22928020.0084                   22928020.9264
        43.7504         38.0004
 25  7  1  0 19 30.0000000  0 10G25G02G04G28G31G01G32G03G26G10
  -2566100.91046  -4097153.69143  24307017.6564                   24307018.4694
        38.7504         23.0004
 -50153777.33248 -41341574.97346  21272838.6094                   21272834.4804
        49.0004         38.0004
  -4268781.01646  -3116517.18043  24369201.8754                   24369204.1804
        37.7504         22.5004
 -54003739.64848 -41911483.21146  20762530.8914                   20762528.3364
        48.0004         37.2504
 -44228616.28147 -34421332.00447  20554857.2194                   20554854.2584
        47.5004         46.7504
 -32705820.84047 -27829676.82845  21423912.3834                   21423910.3954
        46.7504         33.7504
 -69890912.97747 -54410293.41046  22434770.2034                   22434769.8244
        45.7504         41.7504
 -17418319.43446 -13535120.58645  22860358.0554                   22860359.6764
        40.2504         35.7504
   2269783.69945   -152548.48444  24792767.6334                   24792771.8014
        34.5004         26.5004
 -57257973.29747 -44569561.82446  22923057.7814                   22923058.4884
        43.7504         38.0004
 25  7  1  0 20  0.0000000  0 10G25G02G04G28G31G01G32G03G26G10
  -2671638.61346  -4179390.83244  24286934.1884                   24286936.6524
        38.0004         26.0004
 -50229991.62948 -41400962.75846  21258336.1804                   21258331.6994
        49.5004         38.2504
  -4438739.91846  -3248952.57843  24336858.4694                   24336861.6334
        38.0004         20.7504
 -54083118.12148 -41973336.55546  20747425.5474                   20747423.1644
        48.0004         37.7504
 -44376448.57848 -34536525.97747  20526725.9774                   20526722.4844
        48.5004         46.7504
 -32846188.25847 -27939054.02745  21397201.2274                   21397199.1724
        46.7504         33.7504
 -69916661.88347 -54430357.53946  22429870.3364                   22429870.0234
        47.0004         41.5004
 -17594369.54346 -13672302.43046  22826857.7424                   22826859.1214
        41.0004         36.0004
   2091103.34445   -291779.77044  24758765.0394                   24758770.2854
        34.0004         25.0004
 -57283786.68747 -44589676.21546  22918145.5314                   22918146.5514
        44.2504         38.0004
 25  7  1  0 20 30.0000000  0 10G25G02G04G28G31G01G32G03G26G10
  -2776675.44546  -4261237.65244  24266945.7274                   24266948.9884
        36.0004         25.0004
 -50305688.25047 -41459947.15246  21243931.2894                   21243927.0004
        47.2504         38.2504
  -4608560.02346  -3381279.77343  24304543.0394                   24304545.9104
        40.7504         22.7504
 -54161909.39547 -42034732.35946  20732432.2814                   20732429.6564
        46.0004         37.5004
 -44523722.17648 -34651284.60247  20498700.5474                   20498697.2424
        48.5004         46.7504
 -32986044.47347 -28048032.87945  21370587.2034                   21370585.2814
        46.0004         33.7504
 -69942338.44547 -54450365.28547  22424984.4924                   22424984.3674
        46.7504         42.0004
 -17770379.05547 -13809452.66046  22793364.2114                   22793365.2544
        42.5004         36.5004
   1912315.24645   -431094.98043  24724742.8834                   24724748.2234
        35.2504         23.7504
 -57309342.10547 -44609589.58246  22913282.8674                   22913283.5274
        44.2504         38.0004
 25  7  1  0 21  0.0000000  0 10G25G02G04G28G31G01G32G03G26G10
  -2881207.55546  -4342691.22744  24247054.9844                   24247056.2734
        38.2504         26.5004
 -50380865.63348 -41518526.95746  21229625.3914                   21229621.3634
        49.2504         37.7504
  -4778238.79346  -3513496.79744  24272254.9534                   24272257.6484
        41.5004         24.0004
 -54240111.91448 -42095669.39546  20717551.0394                   20717548.2734
        48.2504         37.5004
 -44670432.57448 -34765604.37147  20470782.6094                   20470778.9104
        48.5004         46.5004
 -33125385.28547 -28156610.13345  21344071.9144                   21344069.4104
        46.2504         33.2504
 -69967941.27747 -54470315.57446  22420112.2734                   22420112.3014
        46.2504         41.7504
 -17946344.45347 -13946568.51246  22759878.8054                   22759880.3954
        42.0004         37.5004
   1733424.42245   -570490.32443  24690700.2894                   24690705.8754
        35.0004         22.7504
 -57334637.27047 -44629300.13746  22908469.1174                   22908469.5634
        44.5004         37.7504
 25  7  1  0 21 30.0000000  0 10G25G02G04G28G31G01G32G03G26G10
  -1409811.56246  -3196148.88344  24527051.5314                   24527054.0634
        36.7504         27.0004
 -48880103.21947 -40349101.71546  21515211.2424                   21515206.6884
        47.0004         38.0004
  -3372351.90246  -2418000.33643  24539786.1414                   24539788.8204
        39.5004         22.0004
 -52742305.44947 -40928547.47746  21002573.7734                   21002571.4454
        46.5004         38.0004
 -43241154.86748 -33651881.46547  20742764.6094                   20742761.7074
        48.0004         46.5004
 -31688785.81647 -27037181.95345  21617447.4534                   21617445.7194
        45.2504         33.7504
 -68418051.95347 -53262609.65646  22715046.5704                   22715046.0004
        46.2504         41.7504
 -16546840.12547 -12856045.60246  23026195.6954                   23026197.0514
        42.2504         36.0004
   3129857.87546    517639.73043  24956432.8834                   24956439.1764
        36.0004         23.7504
 -55784252.82847 -43421208.41446  23203497.7894                   23203498.0434
        44.2504         37.2504
 25  7  1  0 22  0.0000000  0 10G25G02G04G28G31G01G32G03G26G10
  -1513334.49246  -3276816.04744  24507351.5314                   24507354.2584
        37.2504         27.7504
 -48954248.13748 -40406876.99646  21501101.9384                   21501097.0944
        49.5004         37.5004
  -3541751.88346  -2550000.18443  24507550.5164                   24507552.0824
        39.7504         21.2504
 -52819337.46148 -40988572.42646  20987915.4064                   20987912.4224
        48.2504         38.2504
 -43386738.37548 -33765323.14547  20715061.4224                   20715058.2734
        48.5004         46.5004
 -31827094.88747 -27144955.23845  21591128.3364                   21591126.0474
        46.5004         33.5004
 -68443514.62547 -53282450.73047  22710200.9534                   22710200.8634
        47.0004         42.0004
 -16722718.00846 -12993093.27746  22992726.6644                   22992727.4884
        41.5004         36.0004
   2950764.94146    378086.87144  24922353.4304                   24922359.0784
        36.7504         24.7504
 -55809032.01247 -43440516.91046  23198781.6254                   23198782.8134
        44.0004         36.0004
 25  7  1  0 22 30.0000000  0 10G25G02G04G28G31G01G32G03G26G10
  -1616351.53546  -3357089.06244  24487747.9844                   24487750.0594
        38.0004         27.0004
 -49027878.47347 -40464251.30146  21487090.5394                   21487085.7814
        47.0004         37.0004
  -3711012.96146  -2681891.82043  24475340.8524                   24475343.0634
        39.7504         20.2504
 -52895786.30547 -41048142.95346  20973367.7584                   20973365.4654
        46.7504         38.5004
 -43531756.27048 -33878324.07447  20687465.2974                   20687462.1524
        48.5004         46.7504
 -31964886.23847 -27252325.10945  21564907.3914                   21564905.0744
        45.7504         34.5004
 -68468909.49647 -53302238.96947  22705368.8134                   22705368.2114
        47.0004         42.0004
 -16898551.04746 -13130105.99646  22959267.3134                   22959268.3014
        41.2504         36.5004
   2771573.97746    238457.69543  24888253.6954                   24888259.4024
        37.0004         22.7504
 -55833554.12547 -43459625.10246  23194115.6724                   23194116.4104
        44.2504         36.7504
 25  7  1  0 23  0.0000000  0 10G25G02G04G28G31G01G32G03G26G10
  -1718862.52346  -3436967.74244  24468241.3364                   24468243.9534
        37.2504         27.0004
 -49100996.00848 -40521226.02346  21473176.6334                   21473171.8714
        49.2504         37.0004
  -3880136.13346  -2813676.00843  24443156.7114                   24443159.5944
        38.0004         18.5004
 -52971653.99247 -41107260.63346  20958930.5704                   20958927.9344
        47.5004         38.5004
 -43676208.44148 -33990884.18047  20659977.1484                   20659973.9264
        49.0004         46.5004
 -32102159.11347 -27359290.99245  21538785.0394                   21538783.4844
        46.5004         34.5004
 -68494238.62547 -53321975.98047  22700548.9694                   22700548.9104
        46.5004         42.2504
 -17074339.13346 -13267083.66846  22925815.9454                   22925817.1334
        41.7504         36.5004
   2592286.71946     98753.41043  24854136.4694                   24854141.0204
        36.5004         22.0004
 -55857820.35547 -43478533.89846  23189498.3284                   23189498.8364
        44.5004         37.0004
 25  7  1  0 23 30.0000000  0 10G25G02G04G28G31G01G32G03G26G10
  -1820862.74646  -3516448.44544  24448831.8204                   24448833.4804
        38.5004         27.0004
 -49173597.64148 -40577798.75046  21459361.1884                   21459356.7424
        49.0004         37.0004
  -4049117.84846  -2945349.91043  24411000.7114                   24411003.5594
        39.2504         19.7504
 -53046938.02048 -41165923.52346  20944604.1564                   20944601.6994
        49.0004         38.2504
 -43820089.50848 -34102999.26247  20632597.2114                   20632594.0124
        49.0004         46.2504
 -32238908.36747 -27465848.86345  21512762.5394                   21512760.7304
        46.0004         34.7504
 -68519499.51647 -53341659.84047  22695741.9064                   22695741.9774
        46.0004         42.7504
 -17250077.55146 -13404022.67246  22892373.2664                   22892374.7504
        40.7504         36.2504
   2412909.18046    -41021.08243  24820001.9774                   24820006.0274
        38.5004         22.7504
 -55881827.39547 -43497240.73446  23184930.1024                   23184930.3054
        44.2504         37.2504
 25  7  1  0 24  0.0000000  0 10G25G02G04G28G31G01G32G03G26G10
  -1922349.54346  -3595529.05944  24429518.4454                   24429521.3164
        36.0004         24.5004
 -49245683.34447 -40633969.44946  21445643.8754                   21445639.2544
        47.0004         37.5004
  -4217956.69946  -3076912.54742  24378872.1254                   24378874.4384
        39.2504         17.7504
 -53121638.04747 -41224131.34846  20930389.5864                   20930386.8404
        46.7504         38.7504
 -43963396.20748 -34214666.78947  20605326.7974                   20605323.8404
        48.0004         46.0004
 -32375131.00447 -27571996.36345  21486840.4844                   21486838.4614
        45.0004         34.2504
 -68544691.84847 -53361290.25846  22690947.8444                   22690948.0434
        44.7504         41.7504
 -17425763.81246 -13540921.00845  22858941.1724                   22858942.4574
        40.5004         35.7504
   2233445.34446   -180862.91844  24785851.5864                   24785856.9774
        38.0004         27.0004
 -55905574.07447 -43515744.68746  23180410.6724                   23180411.7584
        42.2504         37.5004
 25  7  1  0 24 30.0000000  0 10G25G02G04G28G31G01G32G03G26G10
  -2023324.54746  -3674210.83244  24410304.0864                   24410306.3714
        36.5004         26.0004
 -49317256.15248 -40689740.48446  21432023.7584                   21432019.0474
        48.2504         37.2504
  -4386655.07446  -3208365.70742  24346769.8134                   24346772.5434
        39.0004         16.7504
 -53195757.76248 -41281886.97746  20916284.9694                   20916282.4224
        48.5004         38.7504
 -44106129.80548 -34325887.74647  20578165.7424                   20578162.4494
        48.0004         46.0004
 -32510828.05147 -27677734.30945  21461018.0474                   21461016.0274
        46.5004         33.5004
 -68569819.26247 -53380870.09046  22686166.2814                   22686166.2734
        45.7504         41.5004
 -17601399.26246 -13677779.75446  22825519.6484                   22825520.3444
        41.0004         36.0004
   2053895.08646   -320772.12544  24751684.2584                   24751689.1054
        37.2504         25.7504
