     2.11           OBSERVATION DATA    G (GPS)             RINEX VERSION / TYPE
teqc  2019Feb25                         20250821 08:53:02UTCPGM / RUN BY / DATE
Linux 2.6.32-573.12.1.x86_64|x86_64|gcc -static|Linux 64|=+ COMMENT
BIT 2 OF LLI FLAGS DATA COLLECTED UNDER A/S CONDITION       COMMENT
04223580                                                    MARKER NAME
0422                                                        MARKER NUMBER
-Unknown-           -Unknown-                               OBSERVER / AGENCY
0220340422          TRIMBLE 5700        2.32                REC # / TYPE / VERS
-Unknown-           TRM41249.00     NONE                    ANT # / TYPE
 -2409679.2761 -4612260.8603  3677303.7664                  APPROX POSITION XYZ
        0.0000        0.0000        0.0000                  ANTENNA: DELTA H/E/N
     1     1                                                WAVELENGTH FACT L1/2
     7    L1    L2    C1    P1    P2    S1    S2            # / TYPES OF OBSERV
    18                                                      LEAP SECONDS
 SNR is mapped to RINEX snr flag value [0-9]                COMMENT
  L1 & L2: min(max(int(snr_dBHz/6), 0), 9)                  COMMENT
  2025     8     9     0     0   30.0000000     GPS         TIME OF FIRST OBS
                                                            END OF HEADER
 25  8  9  0  0 30.0000000  0 10G09G16G02G28G03G06G04G26G31G01
  -7052062.48456  -6548755.64855  23558275.5704                   23558278.7074
        40.0004         34.0004
 -18124103.34457 -13053475.51254  22053373.4454                   22053372.8054
        44.5004         28.0004
  -9175305.07056  -6744458.69953  24860055.7344                   24860061.7934
        38.5004         22.5004
 -10699846.39856  -7048231.34853  24498659.7344                   24498660.4494
        39.7504         18.2504
 -30891544.76658 -24051797.14558  19859108.2114                   19859108.6174
        50.0004         50.7504
  -3231114.63755  -2498312.83253  24876301.3754                   24876306.1294
        32.7504         22.7504
 -25196146.53557 -18461719.41455  21057259.2274                   21057258.7894
        47.0004         34.5004
 -22907500.57457 -17827733.47757  21403881.0234                   21403882.7504
        45.7504         43.0004
 -24226620.91857 -18435408.36757  21719634.2974                   21719632.2664
        44.7504         42.0004
 -17171950.94957 -12867662.47354  22877040.4844                   22877041.6884
        42.0004         25.5004
 25  8  9  0  1  0.0000000  0 10G09G16G02G28G03G06G04G26G31G01
  -7143949.66846  -6620355.89545  23540791.3054                   23540792.6724
        40.2504         33.7504
 -18224913.05147 -13132028.39544  22034189.7974                   22034190.0634
        45.5004         28.0004
  -9104602.53546  -6689366.03143  24873510.7814                   24873515.9344
        39.0004         22.0004
 -10615529.95746  -6982530.31243  24514705.1954                   24514705.3754
        39.5004         19.0004
 -30908006.82848 -24064624.71948  19855975.4224                   19855976.4104
        48.7504         50.7504
  -3294646.41846  -2547818.16444  24864214.2734                   24864215.4804
        36.7504         26.0004
 -25251841.27047 -18505117.87545  21046660.7664                   21046660.7664
        47.5004         35.0004
 -22924675.19147 -17841116.24647  21400612.5784                   21400614.5864
        46.5004         43.0004
 -24156446.66047 -18380727.14846  21732987.4924                   21732986.2664
        46.0004         41.5004
 -17099646.46146 -12811321.37544  22890799.2344                   22890800.9344
        41.2504         25.2504
 25  8  9  0  1 30.0000000  0 10G09G16G02G28G03G06G04G26G31G01
  -7235809.57446  -6691934.88745  23523309.5704                   23523312.7624
        40.2504         33.5004
 -18325368.21147 -13210305.00444  22015073.4844                   22015073.5554
        44.7504         27.7504
  -9034006.91046  -6634356.66443  24886945.0864                   24886950.1524
        39.7504         22.2504
 -10531199.83246  -6916818.55943  24530752.5164                   24530752.6024
        40.0004         19.0004
 -30923904.25048 -24077012.30948  19852950.4064                   19852951.2234
        48.7504         50.7504
  -3357690.97345  -2596943.78944  24852215.6024                   24852220.6564
        35.7504         28.0004
 -25307384.23047 -18548398.06245  21036091.5474                   21036091.0904
        47.0004         35.2504
 -22941226.20347 -17854013.08647  21397462.7584                   21397464.9844
        45.5004         43.0004
 -24086021.59847 -18325850.49246  21746389.0084                   21746387.1604
        46.0004         41.2504
 -17027143.04346 -12754825.27044  22904595.9534                   22904597.8874
        41.0004         25.5004
 25  8  9  0  2  0.0000000  0 10G09G16G02G28G03G06G04G26G31G01
  -7327640.71146  -6763491.43445  23505834.6024                   23505836.9734
        40.2504         33.0004
 -18425464.29747 -13288301.80544  21996025.6644                   21996025.8364
        44.5004         28.2504
  -8963519.60546  -6579431.69543  24900357.8594                   24900363.6334
        38.2504         21.7504
 -10446856.58646  -6851096.63743  24546802.1254                   24546803.1334
        38.5004         19.5004
 -30939235.09048 -24088958.39848  19850033.1564                   19850033.6644
        48.2504         50.5004
  -3420245.87946  -2645687.75844  24840312.0004                   24840316.1764
        36.2504         27.2504
 -25362773.94147 -18591558.83645  21025551.3834                   21025550.7194
        47.2504         34.5004
 -22957152.06247 -17866422.80547  21394432.5314                   21394434.6844
        44.5004         43.2504
 -24015347.26247 -18270779.57846  21759838.1094                   21759836.4414
        45.5004         41.0004
 -16954442.68446 -12698175.69144  22918430.6174                   22918432.3524
        41.2504         25.0004
 25  8  9  0  2 30.0000000  0 10G09G16G02G28G03G06G04G26G31G01
  -7419443.25046  -6835025.73045  23488365.2814                   23488368.3014
        40.5004         34.0004
 -18525198.28547 -13366016.45744  21977047.0784                   21977047.0164
        45.0004         29.5004
  -8893143.34846  -6524593.27743  24913750.7194                   24913756.0984
        40.0004         22.0004
 -10362502.30546  -6785366.06242  24562854.1334                   24562855.4924
        37.7504         16.7504
 -30953998.89148 -24100462.64848  19847223.3204                   19847224.1684
        49.5004         50.5004
  -3482309.94146  -2694049.30544  24828501.1414                   24828505.7544
        37.2504         28.0004
 -25418010.32447 -18634600.14845  21015040.2194                   21015039.8954
        47.5004         34.2504
 -22972452.78147 -17878345.39547  21391520.5554                   21391522.6844
        44.5004         42.7504
 -23944426.46147 -18215516.62946  21773333.7504                   21773332.2814
        46.0004         41.2504
 -16881548.90647 -12641375.41444  22932301.8984                   22932303.9964
        42.0004         25.7504
 25  8  9  0  3  0.0000000  0 10G09G16G02G28G03G06G04G26G31G01
  -7511217.51646  -6906538.00445  23470900.6884                   23470903.2584
        40.7504         34.0004
 -18624567.47347 -13443446.86344  21958137.6024                   21958137.3134
        44.5004         28.2504
  -8822881.26646  -6469843.82843  24927121.2424                   24927126.2934
        39.5004         22.0004
 -10278139.11746  -6719628.59042  24578908.1884                   24578909.6024
        38.5004         17.7504
 -30968195.49648 -24111524.94548  19844522.0164                   19844522.6954
        49.7504         50.5004
  -3543882.56646  -2742027.98844  24816786.6334                   24816787.4964
        39.0004         27.2504
 -25473093.57047 -18677522.12945  21004558.2274                   21004557.3524
        47.7504         34.5004
 -22987128.61347 -17889781.05947  21388727.8834                   21388729.7544
        46.0004         43.2504
 -23873262.14547 -18160063.92246  21786876.0164                   21786874.3674
        45.0004         41.2504
 -16808465.45346 -12584427.33244  22946209.0394                   22946211.0234
        41.2504         26.5004
 25  8  9  0  3 30.0000000  0 10G09G16G02G28G03G06G04G26G31G01
  -7602964.76246  -6978029.23045  23453441.4614                   23453444.6214
        40.2504         33.5004
 -18723569.80547 -13520591.40644  21939297.6414                   21939297.8364
        45.0004         28.7504
  -8752737.24246  -6415186.32443  24940469.0084                   24940475.0004
        39.0004         21.2504
 -10193770.23046  -6653886.62942  24594962.6724                   24594964.1524
        37.2504         17.7504
 -30981825.57448 -24122145.77348  19841928.4144                   19841929.2114
        49.2504         50.5004
  -3604963.93046  -2789623.85544  24805163.2894                   24805164.8834
        37.5004         27.2504
 -25528024.82447 -18720325.67645  20994104.9224                   20994104.4384
        47.5004         34.7504
 -23001180.79347 -17900730.76247  21386053.5234                   21386055.6174
        44.7504         43.2504
 -23801858.57447 -18104424.78946  21800463.2274                   21800461.7664
        46.2504         41.0004
 -16735196.87946 -12527335.00444  22960151.7344                   22960153.5354
        41.7504         28.0004
 25  8  9  0  4  0.0000000  0 10G09G16G02G28G03G06G04G26G31G01
  -7694681.62946  -7049496.77345  23435988.6724                   23435990.9574
        40.7504         34.5004
 -18822198.99247 -13597445.18444  21920529.6884                   21920529.1524
        44.5004         29.2504
  -8682710.55146  -6360620.28943  24953794.9694                   24953800.3834
        39.5004         21.5004
 -10109394.06646  -6588139.04743  24611019.8594                   24611020.2074
        38.5004         18.2504
 -30994885.35548 -24132322.21148  19839443.0554                   19839444.1334
        48.2504         50.5004
  -3665549.70745  -2836833.46544  24793631.4774                   24793635.7384
        35.5004         26.7504
 -25582800.55947 -18763008.05145  20983681.7344                   20983681.1604
        47.2504         34.7504
 -23014605.94147 -17911191.87147  21383499.1334                   21383500.7424
        45.0004         43.2504
 -23730215.15647 -18048598.76246  21814096.6024                   21814095.0124
        47.0004         41.0004
 -16661743.30147 -12470098.51644  22974130.0234                   22974131.4104
        42.5004         26.5004
 25  8  9  0  4 30.0000000  0 10G09G16G02G28G03G06G04G26G31G01
  -7786368.07446  -7120940.62945  23418540.9384                   23418543.7974
        41.0004         35.0004
 -18920451.87547 -13674005.73445  21901832.7274                   21901832.2424
        44.0004         30.0004
  -8612803.58646  -6306147.54343  24967098.5704                   24967103.2584
        38.0004         22.0004
 -10025012.61346  -6522387.32042  24627077.5394                   24627078.1414
        38.2504         17.2504
 -31007374.35248 -24142053.88748  19837066.5314                   19837067.2974
        48.5004         50.5004
  -3725638.71546  -2883656.01244  24782198.1564                   24782201.5664
        37.0004         29.7504
 -25637420.57047 -18805569.07045  20973287.8204                   20973287.0704
        47.5004         35.0004
 -23027404.06247 -17921164.38347  21381063.8914                   21381065.5394
        44.7504         43.2504
 -23658334.45347 -17992587.82846  21827775.1804                   21827773.4494
        45.2504         41.0004
 -16588108.03547 -12412720.44944  22988141.9534                   22988143.7424
        42.2504         26.7504
 25  8  9  0  5  0.0000000  0 10G09G16G02G28G03G06G04G26G31G01
  -7878026.73846  -7192362.83845  23401099.1954                   23401101.5824
        41.0004         34.5004
 -19018327.91847 -13750272.64545  21883207.2034                   21883206.9384
        45.2504         30.0004
  -8543021.75846  -6251772.30143  24980376.5314                   24980383.0594
        36.7504         22.0004
  -9940630.34446  -6456634.98442  24643134.5164                   24643135.7544
        36.7504         17.7504
 -31019294.78948 -24151342.52748  19834798.0164                   19834799.0394
        48.5004         50.5004
  -3785232.70346  -2930092.86344  24770858.2814                   24770860.7384
        38.5004         29.0004
 -25691887.40647 -18848010.74245  20962923.1884                   20962922.9414
        47.5004         34.5004
 -23039577.91447 -17930650.46147  21378746.8834                   21378748.6024
        44.7504         43.0004
 -23586222.30547 -17936396.55946  21841497.6484                   21841496.0204
        46.0004         41.0004
 -16514297.19547 -12355205.57444  23002187.8444                   23002189.5944
        42.7504         27.2504
 25  8  9  0  5 30.0000000  0 11G09G16G02G28G03G06G04G26G31G01G07
  -7969657.83646  -7263763.57845  23383661.8204                   23383664.2584
        41.0004         34.2504
 -19115824.10547 -13826243.57045  21864654.2664                   21864653.7384
        44.0004         30.2504
  -8473368.13746  -6197496.94543  24993632.1334                   24993637.5594
        39.0004         21.2504
  -9856249.21546  -6390883.50842  24659191.9384                   24659193.0124
        37.0004         16.7504
 -31030646.39148 -24160187.92248  19832638.0704                   19832638.8284
        48.5004         50.2504
  -3844330.83245  -2976143.32044  24759611.0864                   24759613.4494
        34.5004         24.2504
 -25746200.99647 -18890332.99245  20952587.3524                   20952587.2304
        47.0004         35.0004
 -23051127.67247 -17939650.23447  21376548.8054                   21376551.0204
        44.7504         42.7504
 -23513881.25047 -17880026.91846  21855263.5944                   21855262.0514
        46.5004         41.0004
 -16440314.27747 -12297556.60544  23016266.5164                   23016268.0434
        44.0004         26.5004
   -137925.58655    -81759.48854  25140413.0394                   25140421.6054
        35.2504         26.0004
 25  8  9  0  6  0.0000000  0 11G09G16G02G28G03G06G04G26G31G01G07
  -8061278.55146  -7335156.22745  23366227.5634                   23366230.0824
        41.5004         34.5004
 -19212955.03547 -13901929.87144  21846170.6254                   21846170.4414
        44.5004         29.2504
  -8403862.26246  -6143336.75043  25006859.0164                   25006864.4964
        39.0004         22.0004
  -9771888.36746  -6325147.86742  24675245.6884                   24675246.1454
        36.2504         17.2504
 -31041446.09047 -24168603.26648  19830582.8524                   19830583.8554
        47.7504         50.2504
  -3902949.48445  -3021820.16844  24748456.4064                   24748460.3364
        35.7504         26.7504
 -25800378.50447 -18932549.21545  20942277.6564                   20942277.3714
        47.2504         35.2504
 -23062070.75847 -17948177.27347  21374466.4064                   21374468.5664
        44.5004         43.0004
 -23441331.18447 -17823494.40646  21869069.8834                   21869068.1884
        46.0004         41.0004
 -16366179.93047 -12239789.64544  23030373.6644                   23030375.7034
        43.2504         25.5004
   -238407.81655   -160056.56253  25121292.4064                   25121300.1804
        33.5004         22.7504
 25  8  9  0  6 30.0000000  0 11G09G16G02G28G03G06G04G26G31G01G07
  -8152894.07846  -7406544.83245  23348793.5944                   23348795.0314
        40.7504         34.7504
 -19309722.60547 -13977333.05145  21827756.0004                   21827756.2974
        44.5004         30.0004
  -8334512.21546  -6089297.96943  25020056.6174                   25020061.6764
        38.2504         20.0004
  -9687554.89145  -6259433.55543  24691293.5394                   24691294.4694
        35.5004         18.2504
 -31051698.65648 -24176592.26648  19828632.2274                   19828632.9694
        48.2504         50.2504
  -3961092.84046  -3067126.62945  24737392.9144                   24737396.3914
        38.5004         30.5004
 -25854424.92247 -18974663.27345  20931993.2344                   20931992.8634
        47.5004         35.0004
 -23072412.50447 -17956235.72347  21372498.6724                   21372500.6684
        44.5004         43.5004
 -23368580.54347 -17766805.60546  21882913.6414                   21882912.2194
        45.5004         41.0004
 -16291902.84047 -12181911.44144  23044508.2194                   23044510.0704
        43.2504         26.2504
   -338768.80955   -238259.30953  25102191.9144                   25102200.7624
        32.2504         21.0004
 25  8  9  0  7  0.0000000  0 11G09G16G02G28G03G06G04G26G31G01G07
  -8244507.04346  -7477931.43045  23331359.6334                   23331362.2584
        41.2504         35.0004
 -19406126.50447 -14052452.85244  21809411.4304                   21809410.6844
        44.0004         29.5004
  -8265323.10246  -6035384.57043  25033222.6564                   25033228.1294
        38.0004         21.0004
  -9603253.27345  -6193744.07042  24707334.5004                   24707336.9654
        35.0004         17.7504
 -31061406.52348 -24184156.82848  19826784.7424                   19826785.0944
        48.0004         50.5004
  -4018762.69946  -3112064.14544  24726418.6644                   24726422.0084
        38.2504         29.5004
 -25908342.73047 -19016677.11745  20921732.7664                   20921732.0124
        47.5004         35.2504
 -23082155.75847 -17963827.82447  21370644.4694                   21370646.4414
        45.0004         43.7504
 -23295634.71547 -17709964.71146  21896794.7194                   21896792.9534
        45.7504         41.5004
 -16217489.00447 -12123926.68444  23058669.0474                   23058670.4734
        43.2504         24.7504
   -439010.59855   -316369.10554  25083118.9224                   25083124.9304
        32.5004         25.2504
 25  8  9  0  7 30.0000000  0 11G09G16G02G28G03G06G04G26G31G01G07
  -8336110.38746  -7549310.55945  23313928.1414                   23313930.3094
        41.0004         34.5004
 -19502156.64547 -14127281.41844  21791137.2504                   21791136.4804
        44.5004         29.7504
  -8196290.66446  -5981593.24643  25046359.2034                   25046364.6414
        39.2504         20.2504
  -9518978.21145  -6128075.23842  24723372.2194                   24723374.3014
        35.2504         16.7504
 -31070562.19547 -24191291.11748  19825042.2814                   19825042.7194
        47.7504         50.2504
  -4075951.16045  -3156626.52344  24715534.5474                   24715538.0864
        34.5004         26.0004
 -25962124.70747 -19058585.12946  20911498.2734                   20911497.8014
        47.2504         36.0004
 -23091293.65247 -17970948.21147  21368905.5634                   21368907.3834
        44.5004         43.0004
 -23222489.04747 -17652968.10546  21910713.9844                   21910712.6414
        46.0004         41.0004
 -16142934.75847 -12065832.53544  23072855.9534                   23072857.2934
        42.2504         25.0004
   -539125.88756   -394380.16053  25064067.3364                   25064073.3204
        36.5004         22.5004
 25  8  9  0  8  0.0000000  0 11G09G16G02G28G03G06G04G26G31G01G07
  -8427693.27746  -7620673.73845  23296500.6174                   23296502.9534
        40.5004         35.5004
 -19597798.85547 -14201807.69145  21772937.0234                   21772936.7074
        43.7504         30.0004
  -8127406.47746  -5927917.44543  25059468.0864                   25059473.1294
        39.0004         19.2504
  -9434720.85945  -6062420.26642  24739405.1484                   24739408.2854
        33.2504         16.7504
 -31079154.71948 -24197986.58248  19823407.1804                   19823408.1914
        48.2504         50.2504
  -4132646.57046  -3200804.72744  24704746.6644                   24704748.3634
        38.0004         26.5004
 -26015759.91447 -19100378.77745  20901292.1094                   20901290.8794
        47.2504         35.5004
 -23099815.71947 -17977588.74247  21367283.8134                   21367285.8094
        44.5004         43.2504
 -23149135.69947 -17595809.66446  21924672.9844                   21924671.1604
        46.5004         41.0004
 -16068232.82047 -12007623.28144  23087071.2894                   23087072.9494
        43.7504         25.0004
   -639103.12545   -472283.88743  25045039.7344                   25045046.9884
        34.5004         20.5004
 25  8  9  0  8 30.0000000  0 10G09G16G28G03G06G04G26G31G01G07
  -8519252.55947  -7692018.53145  23279077.4384                   23279079.3714
        42.0004         35.5004
 -19693047.28147 -14276027.13345  21754811.3524                   21754811.1954
        44.5004         30.7504
  -9350479.80945  -5996777.99642  24755436.0234                   24755438.0274
        31.0004         15.5004
 -31087180.64148 -24204240.53548  19821879.6954                   19821880.4534
        48.2504         50.5004
  -4188844.92246  -3244595.65644  24694053.7504                   24694055.7194
        39.5004         29.5004
 -26069245.00047 -19142055.44145  20891113.8914                   20891113.6844
        47.5004         35.2504
 -23107719.04747 -17983747.13747  21365779.4384                   21365781.6804
        44.5004         43.0004
 -23075574.38347 -17538489.18446  21938670.5474                   21938669.2704
        46.0004         41.5004
 -15993383.37547 -11949299.10544  23101315.0084                   23101316.7774
        42.7504         24.5004
   -738938.43445   -550076.82843  25026041.6884                   25026048.8834
        34.5004         23.2504
 25  8  9  0  9  0.0000000  0 10G09G16G28G03G06G04G26G31G01G07
  -8610784.59846  -7763342.07845  23261659.3984                   23261661.1334
        41.5004         35.5004
 -19787895.19147 -14349934.46545  21736762.5474                   21736761.9024
        44.2504         31.0004
  -9266253.24645  -5931146.96543  24771464.1954                   24771466.2854
        35.0004         18.2504
 -31094636.13748 -24210050.00848  19820461.0084                   19820461.6134
        48.5004         50.2504
  -4244541.74246  -3287995.76244  24683454.8914                   24683457.6484
        36.5004         29.0004
 -26122576.15647 -19183612.16045  20880965.4844                   20880964.8054
        46.7504         35.7504
 -23115000.27347 -17989420.77747  21364394.0864                   21364396.3404
        44.2504         43.0004
 -23001804.01647 -17481005.80146  21952709.0634                   21952707.2934
        46.2504         41.2504
 -15918386.23846 -11890859.84044  23115586.3674                   23115588.1054
        41.7504         26.7504
   -838627.24645   -627755.85543  25007069.7664                   25007078.2114
        34.2504         21.5004
 25  8  9  0  9 30.0000000  0 10G09G16G28G03G06G04G26G31G01G07
  -8702273.97746  -7834632.38746  23244249.9384                   23244251.6214
        41.5004         36.0004
 -19882324.54747 -14423515.66045  21718793.2734                   21718792.8324
        43.5004         30.0004
  -9182027.71945  -5865516.71942  24787492.0944                   24787493.5434
        35.5004         16.7504
 -31101505.68748 -24215402.89848  19819153.9694                   19819154.3094
        48.0004         50.5004
  -4299721.06645  -3330992.57444  24672952.3134                   24672957.5704
        33.0004         25.7504
 -26175737.90247 -19225036.85545  20870849.0004                   20870848.5004
        47.0004         35.2504
 -23121644.49647 -17994598.05147  21363129.7974                   21363131.7974
        44.7504         43.2504
 -22927812.15647 -17423349.82046  21966789.5164                   21966787.5944
        45.7504         41.2504
 -15843229.54346 -11832296.25044  23129887.9614                   23129890.3444
        40.7504         25.0004
   -938154.12145   -705308.47343  24988130.4694                   24988137.4734
        34.5004         21.5004
 25  8  9  0 10  0.0000000  0 10G09G16G28G03G06G04G26G31G01G07
  -8793703.84046  -7905876.31646  23226850.6024                   23226852.8914
        41.0004         36.2504
 -19976315.24247 -14496755.03945  21700907.2114                   21700906.8714
        43.7504         31.0004
  -9097788.05145  -5799875.50842  24803522.5784                   24803523.8594
        35.0004         16.2504
 -31107772.14548 -24220285.84048  19817961.3674                   19817962.2464
        49.0004         50.2504
  -4354365.19945  -3373572.37144  24662554.4304                   24662557.7464
        35.2504         27.7504
 -26228713.08647 -19266316.18745  20860768.0864                   20860767.8284
        47.0004         35.5004
 -23127635.13347 -17999266.04347  21361989.9694                   21361991.8484
        44.5004         43.5004
 -22853584.66847 -17365510.23846  21980914.0704                   21980912.5944
        46.5004         41.0004
 -15767899.70747 -11773597.73044  23144222.5084                   23144224.7274
        42.0004         25.5004
  -1037501.65645   -782721.53943  24969225.2664                   24969231.3954
        35.5004         22.0004
 25  8  9  0 10 30.0000000  0 10G09G16G28G03G06G04G26G31G01G07
  -8885080.91446  -7977079.13745  23209461.8674                   23209464.1024
        39.7504         35.7504
 -20069871.07847 -14569655.56645  21683104.2584                   21683103.8444
        44.0004         31.0004
  -9013542.95745  -5734230.10243  24819552.9694                   24819556.0394
        32.7504         18.2504
 -31113442.27748 -24224704.11348  19816882.6094                   19816883.1094
        48.5004         50.2504
  -4408480.10946  -3415739.85544  24652257.1804                   24652259.8794
        38.5004         29.0004
 -26281508.45747 -19307455.40645  20850721.6484                   20850720.9924
        47.2504         35.5004
 -23132979.44547 -18003430.40247  21360972.7894                   21360974.9064
        44.5004         43.2504
 -22779131.24647 -17307494.60946  21995082.1954                   21995080.7034
        46.2504         41.5004
 -15692407.11746 -11714772.40244  23158588.9844                   23158590.6844
        41.7504         26.0004
  -1136675.97346   -859999.50043  24950353.4224                   24950358.9804
        36.5004         20.0004
 25  8  9  0 11  0.0000000  0 10G09G16G28G03G06G04G26G31G01G07
  -8976411.19946  -8048245.48046  23192082.3134                   23192084.4844
        40.0004         36.0004
 -20162994.90247 -14642219.46945  21665383.0704                   21665382.5394
        44.5004         31.5004
  -8929300.08245  -5668586.34043  24835585.3054                   24835587.3484
        34.0004         18.2504
 -31118521.90248 -24228662.25848  19815916.1094                   19815916.7544
        49.5004         50.5004
  -4462071.21946  -3457499.15244  24642059.4534                   24642062.2664
        38.2504         28.5004
 -26334129.67647 -19348458.92245  20840707.7274                   20840707.5904
        47.2504         35.5004
 -23137683.78547 -18007096.09047  21360077.6334                   21360079.6374
        45.7504         43.5004
 -22704460.14547 -17249309.35546  22009291.6414                   22009289.8364
        46.7504         40.7504
 -15616761.03946 -11655827.46944  23172983.6414                   23172985.6604
        41.5004         26.0004
  -1235682.21546   -937146.68044  24931512.3364                   24931517.0274
        37.2504         25.0004
 25  8  9  0 11 30.0000000  0 10G09G16G28G03G06G04G26G31G01G07
  -9067695.68446  -8119376.12946  23174711.6094                   23174713.3954
        40.2504         36.5004
 -20255685.25847 -14714445.61345  21647744.6804                   21647744.0124
        45.0004         31.0004
  -8845062.47345  -5602946.69543  24851614.4924                   24851616.3204
        33.0004         18.5004
 -31123012.05548 -24232161.07448  19815061.4694                   19815062.1334
        50.0004         50.5004
  -4515138.81646  -3498850.51245  24631960.7584                   24631964.6524
        37.7504         30.2504
 -26386577.72347 -19389327.49645  20830727.6414                   20830726.8674
        47.2504         35.2504
 -23141749.83247 -18010264.40247  21359303.8674                   21359305.8834
        46.5004         43.2504
 -22629575.41447 -17190957.64146  22023541.9774                   22023540.0124
        46.2504         40.5004
 -15540966.10546 -11596766.55544  23187407.0234                   23187409.1994
        41.5004         24.5004
  -1334521.32446  -1014163.53143  24912703.4614                   24912708.4964
        39.0004         22.5004
 25  8  9  0 12  0.0000000  0 10G09G16G28G03G06G04G26G31G01G07
  -9158934.42646  -8190471.15246  23157349.0084                   23157351.1644
        40.2504         36.0004
 -20347939.41047 -14786331.85245  21630189.1644                   21630188.7034
        44.5004         31.0004
  -8760831.77745  -5537312.49642  24867643.8054                   24867645.8754
        33.7504         16.7504
 -31126912.72348 -24235200.54748  19814319.1644                   19814319.8054
        49.7504         50.5004
  -4567682.43046  -3539793.50044  24621961.9924                   24621965.1254
        39.0004         28.5004
 -26438852.48847 -19430061.05145  20820779.5314                   20820779.1844
        47.2504         35.7504
 -23145178.04347 -18012935.69547  21358651.4774                   21358653.4844
        45.5004         43.5004
 -22554480.04747 -17132441.79346  22037832.0944                   22037830.5744
        46.2504         40.5004
 -15465025.71946 -11537592.29344  23201858.1884                   23201860.2464
        41.5004         26.0004
  -1433192.56646  -1091049.66843  24893926.5234                   24893930.9734
        39.0004         22.5004
 25  8  9  0 12 30.0000000  0 10G09G16G28G03G06G04G26G31G01G07
  -9250131.68746  -8261533.83246  23139995.0864                   23139997.1884
        40.7504         36.0004
 -20439758.46947 -14857879.05545  21612716.5394                   21612715.6414
        44.5004         31.5004
  -8676614.16045  -5471688.46542  24883670.3674                   24883671.4064
        34.0004         16.7504
 -31130228.15248 -24237783.99648  19813688.3834                   19813689.1564
        49.0004         50.5004
  -4619705.57846  -3580331.05144  24612063.0634                   24612065.1564
        38.5004         29.0004
 -26490958.01647 -19470662.73045  20810864.4534                   20810863.7034
        47.0004         35.5004
 -23147973.28947 -18015113.77747  21358119.4694                   21358121.6294
        44.5004         43.2504
 -22479180.88347 -17073767.14846  22052160.8914                   22052159.2114
        45.5004         40.2504
 -15388947.65646 -11478310.75444  23216335.1024                   23216337.3404
        40.7504         25.2504
  -1531699.68446  -1167807.80543  24875179.6174                   24875186.0204
        37.0004         22.7504
 25  8  9  0 13  0.0000000  0 10G09G16G28G03G06G04G26G31G01G07
  -9341287.92646  -8332564.55545  23122648.3674                   23122649.8914
        40.7504         35.7504
 -20531139.90647 -14929085.25445  21595327.3594                   21595326.8244
        45.7504         31.7504
  -8592411.91045  -5406076.36742  24899691.7424                   24899694.8674
        32.5004         16.7504
 -31132958.87548 -24239911.82848  19813168.4224                   19813169.3444
        49.5004         50.5004
  -4671208.31646  -3620463.02344  24602261.1644                   24602263.6294
        39.0004         27.7504
 -26542894.67647 -19511132.82845  20800981.2114                   20800980.6214
        47.0004         35.5004
 -23150136.72747 -18016799.53147  21357707.7734                   21357709.8874
        45.7504         43.2504
 -22403681.06247 -17014936.13746  22066528.3204                   22066526.3634
        46.2504         40.2504
 -15312735.87546 -11418925.02044  23230838.2974                   23230839.7424
        41.0004         24.7504
  -1630042.82446  -1244438.27343  24856466.7504                   24856470.7074
        39.0004         22.5004
 25  8  9  0 13 30.0000000  0 10G09G16G28G03G06G04G26G31G01G07
  -7856975.24646  -7175957.16046  23405103.6954                   23405105.7154
        41.0004         36.0004
 -19046653.18747 -13772342.25445  21877815.7504                   21877815.0204
        44.5004         32.0004
  -6932804.90645  -4112876.21543  25215505.5704                   25215507.1804
        35.2504         18.5004
 -29559679.97348 -23013980.22348  20112553.6174                   20112554.3754
        49.5004         50.2504
  -3146763.49246  -2432583.94945  24892353.6174                   24892357.3914
        37.5004         30.0004
 -25019235.71947 -18323866.07445  21090923.7584                   21090923.3634
        47.5004         35.5004
 -21576244.00047 -16790389.57847  21657209.4304                   21657211.4384
        47.0004         43.2504
 -20752561.11347 -15728349.18446  22380725.7814                   22380724.4734
        46.5004         40.5004
 -13660971.50846 -10131835.98444  23545158.2344                   23545160.3134
        40.5004         25.5004
   -152793.59846    -93334.44143  25137577.0634                   25137581.5514
        39.2504         21.7504
 25  8  9  0 14  0.0000000  0 10G09G16G28G03G06G04G26G31G01G07
  -7948044.92246  -7246920.43445  23387773.5634                   23387775.6254
        41.0004         35.5004
 -19137146.84047 -13842856.66845  21860594.8134                   21860594.4384
        45.2504         31.5004
  -6848634.22745  -4047288.71942  25231522.0004                   25231524.2424
        33.7504         16.7504
 -29561236.94548 -23015193.44548  20112257.6254                   20112258.0394
        50.0004         50.5004
  -3197219.18046  -2471900.02744  24882752.2194                   24882755.4734
        37.0004         29.2504
 -25070829.61347 -18364069.08645  21081105.9694                   21081104.9064
        46.7504         35.7504
 -21577141.10547 -16791088.59447  21657038.6564                   21657040.6804
        47.0004         43.2504
 -20676664.18447 -15669208.73446  22395168.8594                   22395167.1644
        46.0004         40.7504
 -13584498.18746 -10072246.46543  23559710.9224                   23559713.0704
        40.0004         22.5004
   -250803.30546   -169705.16043  25118925.5864                   25118930.2304
        39.0004         23.5004
 25  8  9  0 14 30.0000000  0 10G09G16G28G03G06G04G26G31G01G07
  -8039070.23446  -7317849.13745  23370451.0554                   23370453.4064
        40.5004         35.2504
 -19227191.11347 -13913020.89845  21843459.8754                   21843459.5434
        45.5004         32.2504
  -6764481.12546  -3981714.93743  25247536.8674                   25247538.1564
        36.0004         19.5004
 -29562206.08248 -23015948.61348  20112072.7894                   20112073.8554
        50.0004         50.5004
  -3247149.52346  -2510806.77745  24873251.8594                   24873254.0004
        37.2504         30.0004
 -25122250.77747 -18404137.50445  21071320.6564                   21071320.0554
        46.5004         35.5004
 -21577405.06647 -16791294.24647  21656988.1954                   21656990.0434
        47.5004         43.2504
 -20600571.69947 -15609915.90646  22409648.5314                   22409647.1414
        45.7504         40.0004
 -13507898.19146 -10012558.24244  23574287.5704                   23574289.6564
        40.0004         24.0004
   -348644.28546   -245944.27043  25100305.6724                   25100311.2274
        39.0004         22.0004
 25  8  9  0 15  0.0000000  0 10G09G16G28G03G06G04G26G31G01G07
  -8130053.98846  -7388745.46946  23353138.2034                   23353139.7234
        40.7504         36.0004
 -19316786.30547 -13982835.21945  21826410.7344                   21826410.2774
        46.5004         32.0004
  -6680350.10945  -3916158.41442  25263545.1954                   25263547.8524
        33.5004         16.7504
 -29562590.50448 -23016248.16448  20111999.6884                   20112000.5274
        50.0004         50.5004
  -3296556.98846  -2549306.06644  24863849.6644                   24863852.1024
        37.5004         28.0004
 -25173501.97747 -18444073.46945  21061567.7584                   21061567.2974
        46.7504         35.2504
 -21577039.50047 -16791009.35947  21657058.4534                   21657059.9304
        47.0004         43.0004
 -20524289.13747 -15550474.96946  22424164.3914                   22424163.1254
        45.0004         40.0004
 -13431177.96546  -9952776.33244  23588886.9064                   23588888.9224
        39.5004         25.2504
   -446319.09446   -322054.03544  25081718.5004                   25081724.6844
        39.2504         25.5004
 25  8  9  0 15 30.0000000  0 10G09G16G28G03G06G04G26G31G01G07
  -8220994.30546  -7459607.94545  23335832.7664                   23335834.4574
        40.5004         35.7504
 -19405927.68447 -14052295.91845  21809447.3284                   21809446.5164
        46.0004         32.0004
  -6596240.82446  -3850618.72343  25279551.5314                   25279552.9184
        36.5004         20.5004
 -29562388.28148 -23016090.59448  20112037.8914                   20112039.2114
        49.7504         50.5004
  -3345439.06246  -2587395.99244  24854546.6484                   24854549.8014
        36.7504         29.2504
 -25224581.01248 -18483875.28945  21051847.4614                   21051847.1644
        48.0004         35.5004
 -21576043.07847 -16790232.89847  21657247.6024                   21657249.5474
        46.2504         43.2504
 -20447817.53547 -15490886.73446  22438716.5474                   22438715.2194
        45.0004         40.0004
 -13354338.93046  -9892901.85243  23603509.0784                   23603511.2464
        39.2504         22.2504
   -543825.43746   -398032.50443  25063163.2034                   25063168.7074
        40.0004         23.0004
 25  8  9  0 16  0.0000000  0 10G09G16G28G03G06G04G26G31G01G07
  -8311889.43046  -7530435.21945  23318535.6024                   23318537.5434
        40.5004         35.7504
 -19494610.70347 -14121399.46945  21792571.6174                   21792570.3444
        46.0004         32.5004
  -6512153.60245  -3785096.35242  25295553.1024                   25295554.5124
        35.7504         17.7504
 -29561598.05948 -23015474.83248  20112188.7734                   20112189.1804
        49.2504         50.5004
  -3393793.84046  -2625075.02744  24845345.4144                   24845347.9654
        37.2504         28.0004
 -25275486.12947 -18523541.58246  21042160.5704                   21042160.3834
        46.7504         36.2504
 -21574415.12547 -16788964.33247  21657557.4774                   21657559.2734
        47.0004         43.2504
 -20371157.85947 -15431151.94146  22453304.1804                   22453302.8714
        45.0004         40.0004
 -13277383.01246  -9832936.29343  23618153.4774                   23618155.1214
        38.5004         23.0004
   -641161.16846   -473878.03944  25044641.0554                   25044646.5664
        41.0004         26.7504
 25  8  9  0 16 30.0000000  0 10G09G16G28G03G06G04G26G31G01G07
  -8402740.80146  -7601228.39145  23301247.3364                   23301248.7464
        40.7504         35.5004
 -19582833.94947 -14190144.73845  21775783.1644                   21775782.3324
        46.0004         32.2504
  -6428091.62946  -3719593.55143  25311550.1884                   25311550.8714
        38.7504         19.5004
 -29560221.40248 -23014402.10548  20112450.4064                   20112451.5864
        48.0004         50.2504
  -3441622.19546  -2662343.85244  24836244.0084                   24836246.6294
        37.5004         29.2504
 -25326218.49647 -18563073.26645  21032506.8914                   21032506.1764
        47.7504         35.0004
 -21572157.78547 -16787205.34047  21657987.1724                   21657988.7734
        44.7504         43.2504
 -20294314.25047 -15371273.83246  22467926.9924                   22467926.0554
        44.7504         39.5004
 -13200314.99246  -9772883.37943  23632818.3364                   23632821.0784
        38.5004         23.0004
   -738327.41446   -549591.57844  25026149.8364                   25026155.1764
        39.5004         25.2504
 25  8  9  0 17  0.0000000  0 10G09G16G28G03G06G04G26G31G01G07
  -8493547.75846  -7671986.96545  23283967.2194                   23283969.4694
        40.7504         35.5004
 -19670594.49247 -14258529.48045  21759082.7664                   21759082.2544
        45.7504         32.5004
  -6344055.92646  -3654111.25843  25327541.4144                   25327542.1564
        36.7504         19.5004
 -29558257.98048 -23012872.16048  20112824.2274                   20112824.8874
        49.5004         50.5004
  -3488923.18046  -2699201.75445  24827243.5164                   24827246.3404
        37.7504         30.0004
 -25376777.39847 -18602469.78946  21022886.0944                   21022885.0904
        47.0004         36.0004
 -21569271.28947 -16784956.09447  21658536.1564                   21658538.0434
        45.7504         43.5004
 -20217288.90247 -15311254.10546  22482585.3284                   22482583.3134
        45.0004         39.7504
 -13123137.83646  -9712745.41844  23647505.0004                   23647507.5084
        38.7504         24.0004
   -835323.07446   -625172.14544  25007693.4384                   25007697.4804
        41.5004         28.0004
 25  8  9  0 17 30.0000000  0 10G09G16G28G03G06G04G26G31G01G07
  -8584309.48847  -7742710.28946  23266695.9224                   23266697.4344
        42.2504         36.0004
 -19757888.41847 -14326550.62145  21742470.9384                   21742470.2504
        45.0004         32.5004
  -6260047.49646  -3588650.21543  25343528.3134                   25343529.2894
        38.7504         19.7504
 -29555707.25448 -23010884.57048  20113309.5004                   20113310.6294
        49.7504         50.5004
  -3535695.68446  -2735647.87944  24818341.4384                   24818345.8794
        36.2504         28.5004
 -25427161.79747 -18641730.32846  21013298.0314                   21013297.5904
        47.5004         36.2504
 -21565755.80147 -16782216.73047  21659205.6094                   21659206.9414
        47.2504         43.2504
 -20140083.76647 -15251094.28546  22497276.9694                   22497275.1334
        45.2504         39.5004
 -13045854.16046  -9652524.46943  23662212.0164                   23662214.4654
        38.2504         22.0004
   -932147.15646   -700619.06644  24989267.5474                   24989271.4304
        40.7504         26.5004
 25  8  9  0 18  0.0000000  0 10G09G16G28G03G06G04G26G31G01G07
  -8675027.75847  -7813399.75046  23249432.1954                   23249434.1724
        42.0004         36.0004
 -19844715.11347 -14394207.68045  21725948.9304                   21725947.8094
        45.0004         31.7504
  -6176069.89545  -3523213.16442  25359508.0234                   25359509.5004
        34.7504         17.2504
 -29552571.41848 -23008441.05548  20113906.1564                   20113906.7304
        49.2504         50.5004
  -3581941.29345  -2771683.38344  24809541.3054                   24809544.9774
        35.7504         27.7504
 -25477373.42647 -18680856.24645  21003742.8524                   21003742.2814
        47.0004         35.5004
 -21561614.03147 -16778989.35947  21659993.5784                   21659995.1914
        47.2504         43.2504
 -20062703.34047 -15190797.87146  22512001.7664                   22512000.2114
        45.0004         39.7504
 -12968469.35546  -9592224.69943  23676937.8364                   23676940.4654
        38.5004         22.5004
  -1028801.07046   -775933.38744  24970873.2734                   24970878.8554
        39.5004         26.0004
 25  8  9  0 18 30.0000000  0 10G09G16G28G03G06G04G26G31G01G07
  -8765698.02047  -7884051.81646  23232178.3524                   23232180.3554
        43.5004         36.2504
 -19931067.20347 -14461494.92245  21709516.5084                   21709515.7894
        45.2504         32.0004
  -6092120.43046  -3457798.01243  25375482.4844                   25375484.4924
        37.0004         22.0004
 -29548846.14848 -23005538.24248  20114615.3054                   20114616.0004
        49.5004         50.5004
  -3627655.11746  -2807304.48844  24800843.5864                   24800845.5744
        37.5004         28.5004
 -25527407.42647 -18719843.75445  20994221.6884                   20994221.1844
        47.0004         35.7504
 -21556842.35547 -16775271.14547  21660901.4224                   21660903.0864
        47.2504         43.2504
 -19985145.62147 -15130363.31646  22526760.4694                   22526758.5704
        44.5004         39.5004
 -12890982.21146  -9531845.23843  23691682.8914                   23691685.2464
        38.2504         22.0004
  -1125279.64846   -851111.10544  24952514.7734                   24952518.6374
        41.2504         27.0004
 25  8  9  0 19  0.0000000  0 10G09G16G28G03G06G04G26G31G01G07
  -8856315.50447  -7954662.75046  23214935.0164                   23214936.2774
        43.5004         36.5004
 -20016937.37947 -14528406.65645  21693175.6414                   21693174.9224
        45.2504         32.5004
  -6008195.96545  -3392402.46142  25391452.3444                   25391455.3284
        35.5004         16.7504
 -29544527.14848 -23002172.77748  20115437.3284                   20115438.0704
        50.0004         50.5004
  -3672832.05546  -2842507.33644  24792246.8204                   24792248.6334
        38.0004         29.2504
 -25577258.98047 -18758689.10245  20984735.1174                   20984734.7814
        47.0004         35.2504
 -21551437.10547 -16771059.23847  21661929.9064                   21661931.6764
        46.5004         43.2504
 -19907408.87947 -15069789.25446  22541552.7194                   22541551.4064
        44.0004         39.0004
 -12813391.65646  -9471385.15243  23706448.2274                   23706450.1294
        38.7504         22.7504
  -1221578.18746   -926148.50844  24934188.5474                   24934192.9104
        39.7504         26.7504
 25  8  9  0 19 30.0000000  0 10G09G16G28G03G06G04G26G31G01G07
  -8946882.72747  -8025234.53146  23197700.3834                   23197701.7734
        42.7504         36.2504
 -20102325.55147 -14594942.80945  21676926.6334                   21676925.5744
        44.7504         32.7504
  -5924300.86746  -3327029.64143  25407418.2344                   25407419.6134
        39.7504         21.5004
 -29539617.40248 -22998346.99648  20116371.4064                   20116372.2544
        49.2504         50.5004
  -3717474.64846  -2877293.78545  24783751.2664                   24783754.3164
        37.5004         30.7504
 -25626930.45747 -18797394.12146  20975283.2894                   20975282.6174
        46.5004         36.5004
 -21545401.85247 -16766356.42647  21663078.7114                   21663080.0634
        46.5004         43.0004
 -19829498.45347 -15009079.85946  22556378.8284                   22556377.5234
        44.2504         39.5004
 -12735703.64846  -9410849.12943  23721231.8444                   23721234.3874
        39.0004         22.7504
  -1317698.97746  -1001047.47744  24915897.3834                   24915901.1294
        39.7504         25.5004
 25  8  9  0 20  0.0000000  0 10G09G16G28G03G06G04G26G31G01G07
  -9037402.59847  -8095769.40646  23180474.9064                   23180476.5784
        42.0004         37.2504
 -20187231.87947 -14661103.50045  21660769.5634                   21660768.6294
        45.0004         32.7504
  -5840439.78945  -3261683.41042  25423375.0634                   25423377.6564
        35.0004         16.7504
 -29534120.18748 -22994063.44948  20117417.2034                   20117417.5514
        49.5004         50.5004
  -3761585.52046  -2911665.86744  24775357.1174                   24775360.1454
        37.7504         29.7504
 -25676424.59847 -18835960.97746  20965864.7344                   20965864.0864
        47.0004         36.0004
 -21538740.52347 -16761165.76247  21664346.2034                   21664347.8674
        46.2504         43.2504
 -19751419.86347 -14948239.43746  22571236.4224                   22571235.6414
        44.5004         39.2504
 -12657924.60246  -9350242.18743  23736033.0164                   23736035.0904
        39.0004         22.2504
  -1413644.31246  -1075809.69544  24897639.5474                   24897643.6054
        40.2504         28.2504
 25  8  9  0 20 30.0000000  0 10G09G16G28G03G06G04G26G31G01G07
  -9127863.25047  -8166258.14146  23163260.4924                   23163262.2974
        42.7504         36.5004
 -20271642.03147 -14726877.55145  21644706.9304                   21644706.0984
        45.0004         33.0004
  -5756602.74646  -3196355.85543  25439329.5394                   25439331.2274
        39.5004         19.7504
 -29528024.20348 -22989313.32448  20118577.3284                   20118578.2584
        49.0004         50.2504
  -3805152.73446  -2945614.28144  24767066.1484                   24767069.8134
        37.5004         29.2504
 -25725729.39547 -18874380.27746  20956482.5944                   20956481.8134
        46.7504         36.2504
 -21531442.48047 -16755478.95347  21665735.0164                   21665736.5234
        45.7504         43.2504
 -19673164.04747 -14887260.91046  22586129.1884                   22586127.2234
        44.5004         39.2504
 -12580046.22746  -9289557.82443  23750852.8674                   23750855.4024
        39.5004         22.2504
  -1509402.46946  -1150426.04344  24879417.9224                   24879421.5164
        41.0004         28.5004
 25  8  9  0 21  0.0000000  0 10G09G16G28G03G06G04G26G31G01G07
  -9218272.39147  -8236706.73046  23146056.8134                   23146057.7854
        43.0004         37.0004
 -20355561.29347 -14792269.08645  21628737.6094                   21628736.6174
        45.5004         33.5004
  -5672798.99245  -3131054.34042  25455275.6254                   25455278.4344
        33.0004         17.2504
 -29521337.60948 -22984102.99248  20119849.5234                   20119850.9344
        49.2504         50.2504
  -3848183.79346  -2979144.97744  24758877.6254                   24758881.5314
        38.2504         29.5004
 -25774852.40647 -18912657.93746  20947134.5634                   20947133.6994
        47.0004         36.2504
 -21523516.49247 -16749302.84047  21667243.2664                   21667245.0594
        45.0004         43.0004
 -19594741.17247 -14826152.20346  22601052.5004                   22601050.5044
        44.5004         39.2504
 -12502079.77346  -9228804.84843  23765689.5784                   23765691.4924
        38.7504         23.7504
  -1604980.61746  -1224902.12944  24861228.5784                   24861233.1484
        40.2504         26.0004
 25  8  9  0 21 30.0000000  0 10G09G16G28G03G06G04G26G31G01G07
  -9308626.42247  -8307112.37946  23128862.0944                   23128863.8364
        42.7504         36.0004
 -20438983.38347 -14857273.22345  21612862.8914                   21612861.8164
        44.7504         33.0004
  -5589026.75846  -3065777.37144  25471219.5634                   25471220.1884
        41.0004         24.5004
 -29514057.37147 -22978430.08648  20121235.1024                   20121235.7304
        47.7504         50.2504
  -3890675.12946  -3012255.09844  24750792.6644                   24750793.6214
        39.2504         29.2504
 -25823789.85947 -18950790.99246  20937822.0474                   20937821.2934
        46.0004         36.0004
 -21514960.18747 -16742635.57047  21668871.3284                   21668873.1294
        44.5004         43.5004
 -19516150.24247 -14764912.54746  22616006.7974                   22616005.5354
        45.0004         39.0004
 -12424025.05946  -9167983.10243  23780542.2974                   23780545.1884
        39.7504         22.0004
  -1700374.99246  -1299235.08644  24843075.3444                   24843079.4924
        39.7504         27.0004
 25  8  9  0 22  0.0000000  0 10G09G16G28G03G06G04G26G31G01G07
  -9398929.32847  -8377478.19146  23111678.7034                   23111679.6764
        42.0004         36.5004
 -20521909.98847 -14921891.27045  21597082.2504                   21597081.0944
        45.2504         33.0004
  -5505291.91045  -3000529.41042  25487151.4384                   25487154.0984
        34.0004         16.7504
 -29506188.04748 -22972298.13348  20122732.6024                   20122733.1174
        49.0004         50.2504
  -3932630.63346  -3044947.71944  24742808.0314                   24742809.7074
        38.0004         28.0004
 -25872545.60247 -18988782.44546  20928544.4384                   20928543.5514
        46.2504         36.2504
 -21505778.81647 -16735481.23847  21670618.0634                   21670619.8204
        45.7504         42.7504
 -19437398.71547 -14703547.74646  22630992.5314                   22630991.6724
        45.5004         38.7504
 -12345889.74246  -9107098.53543  23795411.6094                   23795413.8164
        39.0004         22.5004
  -1795589.54346  -1373427.89544  24824957.7344                   24824959.9884
        40.7504         28.0004
 25  8  9  0 22 30.0000000  0 10G09G16G28G03G06G04G26G31G01G07
  -9489178.57847  -8447802.19546  23094504.1724                   23094505.9144
        42.0004         37.0004
 -20604335.93447 -14986119.18745  21581396.7974                   21581395.6254
        44.5004         32.0004
  -5421593.53147  -2935310.03944  25503080.7894                   25503082.0944
        42.0004         24.0004
 -29497727.75848 -22965705.69548  20124342.5164                   20124343.3284
        49.5004         50.5004
  -3974047.74246  -3077220.77345  24734926.7974                   24734930.8324
        38.7504         30.5004
 -25921117.00847 -19026630.27346  20919301.2584                   20919300.4264
        45.5004         36.0004
 -21495971.06247 -16727838.82447  21672484.7734                   21672486.6724
        45.0004         43.0004
 -19358486.43447 -14642057.68446  22646010.0314                   22646008.1414
        44.5004         39.0004
 -12267674.77346  -9046151.90643  23810295.1174                   23810297.3874
        39.2504         22.5004
  -1890621.49246  -1447478.37144  24806872.0634                   24806875.8914
        40.0004         27.7504
 25  8  9  0 23  0.0000000  0 10G09G16G28G03G06G04G26G31G01G07
  -9579371.95747  -8518082.67646  23077340.7814                   23077342.1724
        42.2504         37.5004
 -20686256.07847 -15049952.98445  21565808.1094                   21565806.8484
        44.0004         31.7504
  -5337931.08645  -2870118.63342  25518999.3364                   25519002.8524
        33.0004         16.7504
 -29488674.87548 -22958651.50048  20126065.4384                   20126066.0084
        48.7504         50.2504
  -4014924.25046  -3109072.53945  24727147.9844                   24727152.3874
        39.2504         31.2504
 -25969501.64547 -19064332.56245  20910094.0314                   20910093.2464
        46.2504         35.5004
 -21485536.00447 -16719707.59047  21674470.4144                   21674472.3484
        46.2504         43.0004
 -19279413.75447 -14580442.64146  22661057.1954                   22661055.3634
        45.0004         38.2504
 -12189381.51246  -8985144.27743  23825193.8444                   23825196.3094
        40.0004         22.5004
  -1985468.20746  -1521384.57044  24788823.4144                   24788827.1214
        39.5004         28.0004
 25  8  9  0 23 30.0000000  0 10G09G16G28G03G06G04G26G31G01G07
  -9669508.89847  -8588319.16846  23060188.3914                   23060189.8324
        42.5004         37.2504
 -20767668.29747 -15113390.99245  21550315.6564                   21550314.6024
        44.5004         33.0004
  -5254305.92646  -2804956.11343  25534914.1644                   25534915.2194
        40.2504         22.5004
 -29479029.58248 -22951135.69948  20127900.8134                   20127901.4884
        48.7504         50.2504
  -4055259.69146  -3140502.75445  24719472.6024                   24719475.6454
        37.7504         30.0004
 -26017698.94147 -19101888.87946  20900922.6254                   20900921.7074
        46.0004         36.0004
 -21474474.43747 -16711088.17247  21676575.3054                   21676577.1484
        46.0004         42.5004
 -19200183.22747 -14518704.58646  22676134.3364                   22676132.4804
        44.5004         39.0004
 -12111012.95346  -8924077.98443  23840107.3914                   23840109.7934
        40.5004         22.5004
  -2080129.25446  -1595146.09444  24770809.8134                   24770813.1294
        40.0004         28.5004
 25  8  9  0 24  0.0000000  0  9G09G16G03G06G04G26G31G01G07
  -9759592.33247  -8658513.97346  23043046.0084                   23043047.3204
        43.2504         37.5004
 -20848572.84447 -15176433.41845  21534920.0164                   21534918.5634
        45.0004         32.5004
 -29468795.44548 -22943161.05548  20129848.4534                   20129849.0354
        48.0004         50.2504
  -4095057.07846  -3171513.68044  24711899.8364                   24711901.7734
        38.2504         28.7504
 -26065711.53947 -19139301.27045  20891785.6414                   20891785.0984
        46.0004         35.7504
 -21462790.63747 -16701983.89847  21678798.8364                   21678800.2814
        44.5004         42.5004
 -19120800.52747 -14456847.96146  22691239.5314                   22691238.9884
        43.7504         38.5004
 -12032575.46546  -8862957.96543  23855033.6644                   23855036.2234
        41.0004         22.0004
  -2174607.33646  -1668765.05544  24752831.4844                   24752834.4694
        40.5004         29.2504
 25  8  9  0 24 30.0000000  0  9G09G16G03G06G04G26G31G01G07
  -9849617.94547  -8728663.71946  23025914.5394                   23025916.1804
        42.7504         36.7504
 -20928963.05147 -15239075.04345  21519622.4774                   21519621.1684
        44.5004         31.7504
 -29457968.95748 -22934724.83648  20131908.4224                   20131909.5204
        48.5004         50.5004
  -4134312.11746  -3202102.02745  24704429.5474                   24704432.6174
        38.7504         30.5004
 -26113535.09447 -19176566.37546  20882685.0474                   20882684.1484
        45.5004         36.0004
 -21450481.68447 -16692392.49247  21681141.4694                   21681142.2894
        44.5004         42.7504
 -19041263.57847 -14394871.14146  22706375.4844                   22706373.8164
        43.7504         38.2504
 -11954068.43446  -8801783.75443  23869972.8674                   23869975.9494
        40.2504         22.7504
  -2268898.25046  -1742238.17244  24734888.0634                   24734890.8484
        39.7504         29.2504
 25  8  9  0 25  0.0000000  0  9G09G16G03G06G04G26G31G01G07
  -9939570.18447  -8798756.28546  23008797.5864                   23008799.0514
        43.0004         37.5004
