     2.11           OBSERVATION DATA    G (GPS)             RINEX VERSION / TYPE
teqc  2019Feb25                         20250820 04:48:12UTCPGM / RUN BY / DATE
Linux 2.6.32-573.12.1.x86_64|x86_64|gcc -static|Linux 64|=+ COMMENT
BIT 2 OF LLI FLAGS DATA COLLECTED UNDER A/S CONDITION       COMMENT
35323540                                                    MARKER NAME
3540                                                        MARKER NUMBER
-Unknown-           -Unknown-                               OBSERVER / AGENCY
0220413532          TRIMBLE R7          2.32                REC # / TYPE / VERS
-Unknown-           TRM39105.00     NONE                    ANT # / TYPE
 -2414917.4538 -4545227.3882  3756114.4131                  APPROX POSITION XYZ
        0.0000        0.0000        0.0000                  ANTENNA: DELTA H/E/N
     1     1                                                WAVELENGTH FACT L1/2
     7    L1    L2    C1    P1    P2    S1    S2            # / TYPES OF OBSERV
    18                                                      LEAP SECONDS
 SNR is mapped to RINEX snr flag value [0-9]                COMMENT
  L1 & L2: min(max(int(snr_dBHz/6), 0), 9)                  COMMENT
  2025     8     5    19    56    0.0000000     GPS         TIME OF FIRST OBS
                                                            END OF HEADER
 25  8  5 19 56  0.0000000  0  8G08G02G32G10G24G23G27G28
   -422186.63757   -271929.60956  22855491.1724                   22855495.9534
        42.0004         38.5004
   -709781.50457   -455801.60255  23096615.0704                   23096614.2304
        45.0004         30.5004
   -351486.90258   -220447.66858  20648348.4694                   20648349.7734
        52.5004         51.7504
   -458798.98858   -289169.73058  21377841.7034                   21377843.1524
        50.5004         48.5004
   -295177.30956   -161983.64854  24462345.9924                   24462350.1094
        38.7504         25.5004
   -352261.75057   -228981.18054  23316540.8914                   23316543.1094
        42.2504         25.0004
   -298904.94157   -186052.67256  23122581.6644                   23122585.9344
        42.0004         39.7504
   -588104.94957   -368229.41054  23364701.3284                   23364704.8404
        43.0004         29.2504
 25  8  5 19 56 30.0000000  0  8G08G02G32G10G24G23G27G28
   -652327.88747   -451260.53146  22811696.7734                   22811701.2234
        42.2504         38.0004
  -1052506.82847   -722860.23445  23031396.8444                   23031394.6684
        45.0004         30.0004
   -608296.71948   -420559.22748  20599479.1564                   20599480.3014
        52.5004         51.2504
   -704032.25448   -480260.60948  21331174.7194                   21331177.0204
        49.7504         48.5004
   -479295.71146   -305452.60944  24427308.4064                   24427313.4924
        40.0004         28.5004
   -549154.41446   -291375.15254  23279073.3984                   23279075.5824
        41.0004         25.7504
   -481459.62947   -328303.19946  23087842.2894                   23087846.6294
        42.5004         38.7504
   -949689.30546   -649983.30944  23295894.3834                   23295897.3244
        41.5004         27.0004
 25  8  5 19 57  0.0000000  0 10G08G02G18G32G10G24G23G31G27G28
   -881970.78546   -630203.12946  22767997.3594                   22768001.7154
        40.7504         38.0004
  -1394985.99647   -989727.08244  22966224.8284                   22966223.6454
        43.7504         28.5004
   -380668.34455   -234471.32453  24760283.5554                   24760292.2584
        34.5004         18.2504
   -864641.97748   -620308.79748  20550698.4064                   20550699.7114
        52.2504         51.5004
   -949067.04748   -671196.85248  21284546.1954                   21284548.1174
        50.2504         48.5004
   -662947.60546   -448558.04344  24392360.6254                   24392365.8364
        38.0004         27.0004
   -745914.39146   -444694.75843  23241631.5234                   23241634.0474
        40.2504         23.7504
   -212443.82056   -300128.51253  25154862.7194                   25154871.0234
        36.5004         20.2504
   -663735.15647   -470336.20746  23053156.5634                   23053160.7194
        43.0004         39.2504
  -1311074.93447   -931582.34444  23227124.3754                   23227127.6174
        43.0004         28.2504
 25  8  5 19 57 30.0000000  0 10G08G02G18G32G10G24G23G31G27G28
  -1111091.57046   -808738.87146  22724396.9144                   22724401.4844
        41.5004         37.7504
  -1737191.27347  -1256380.50445  22901105.2344                   22901103.9304
        45.0004         30.7504
   -537652.92645   -356797.37143  24730410.3054                   24730419.1524
        35.7504         20.0004
  -1120498.34448   -819677.39548  20502010.4694                   20502012.1414
        51.7504         51.7504
  -1193877.54348   -861958.29348  21237960.5394                   21237962.3914
        50.2504         48.5004
   -846109.90246   -591281.96144  24357506.4384                   24357511.0744
        37.0004         28.0004
   -942515.91046   -597890.87944  23204219.5554                   23204222.1844
        40.7504         25.0004
   -587736.41446   -592563.85943  25083447.6724                   25083455.8954
        37.2504         19.0004
   -845709.02347   -612134.14546  23018527.9144                   23018532.7774
        42.0004         39.0004
  -1672233.27346  -1213004.25844  23158398.4924                   23158401.5704
        41.7504         28.5004
 25  8  5 19 58  0.0000000  0 10G08G02G18G32G10G24G23G31G27G28
  -1339678.48047   -986858.62946  22680898.4924                   22680903.2114
        43.0004         38.0004
  -2079106.71947  -1522808.09045  22836040.5314                   22836039.6414
        44.0004         30.5004
   -694423.78146   -478956.83643  24700578.6254                   24700586.8954
        36.0004         20.2504
  -1375853.19148  -1018655.21948  20453418.1954                   20453419.2154
        51.7504         51.2504
  -1438449.71148  -1052534.04748  21191419.8594                   21191421.6844
        50.5004         48.2504
  -1028771.41846   -733615.65644  24322747.7274                   24322751.4534
        38.2504         29.0004
  -1138945.16046   -750952.77344  23166840.1644                   23166843.0554
        39.2504         25.0004
                                  25012021.414
        33.000
  -1027370.53947   -753688.71546  22983959.4844                   22983963.7854
        43.5004         39.0004
  -2033147.42646  -1494235.89843  23089718.5784                   23089721.7544
        39.7504         23.2504
 25  8  5 19 58 30.0000000  0 10G08G02G18G32G10G24G23G31G27G28
  -1567719.77346  -1164553.20346  22637504.0394                   22637508.3094
        41.5004         37.2504
  -2420716.75847  -1788997.68445  22771034.7344                   22771032.9964
        43.7504         30.5004
   -850968.98446   -600940.50043  24670789.6724                   24670797.5394
        37.2504         20.5004
  -1630694.09048  -1217232.54348  20404923.5944                   20404924.6954
        52.0004         51.5004
  -1682769.58248  -1242913.18448  21144927.3444                   21144929.2734
        50.5004         48.2504
  -1210920.98846   -875550.45744  24288085.2974                   24288090.1764
        37.7504         27.7504
  -1335188.41446   -903869.73044  23129496.5944                   23129499.6094
        40.5004         26.0004
  -1338468.29756  -1042996.73453  24940587.4534                   24940595.4654
        39.2504         21.2504
  -1208709.07447   -894991.56646  22949452.0234                   22949456.4414
        43.0004         38.2504
  -2393800.57846  -1775264.19144  23021088.4694                   23021091.7774
        41.5004         27.0004
 25  8  5 19 59  0.0000000  0 10G08G02G18G32G10G24G23G31G27G28
   -219782.53547   -114212.58246  22894007.8054                   22894012.0554
        42.5004         37.0004
  -1186580.52047   -827333.06245  23005883.2504                   23005881.4454
        44.5004         30.2504
    568142.00046    504859.87943  24940837.6954                   24940845.8554
        39.0004         20.7504
   -309586.49248   -187798.06248  20656322.0004                   20656323.1484
        51.2504         51.5004
   -351401.47748   -205483.51648  21398278.1484                   21398280.2934
        50.7504         48.2504
    182872.06346    210521.99644  24553315.0704                   24553320.1644
        37.5004         28.5004
     44188.28546    170969.12544  23391983.6334                   23391986.0514
        39.0004         25.2504
   -138445.69946   -107913.79743  25168944.0084                   25168952.3834
        40.2504         22.5004
    185705.63347    191565.22746  23214800.0474                   23214804.5004
        43.0004         38.5004
  -1178750.32846   -828471.62944  23252304.2034                   23252307.4774
        41.7504         27.0004
 25  8  5 19 59 30.0000000  0 10G08G02G18G32G10G24G23G31G27G28
   -446719.19146   -291046.40646  22850823.4844                   22850827.7274
        41.2504         37.5004
  -1527553.67647  -1093026.38745  22940998.0944                   22940996.8244
        43.5004         31.0004
    412061.86346    383238.63343  24911136.2274                   24911145.1454
        38.2504         21.5004
   -563383.83648   -385562.23048  20608025.7814                   20608027.2664
        51.5004         51.2504
   -595196.65648   -395453.80948  21351885.6024                   21351887.5474
        50.5004         48.2504
      1757.77745     69393.92244  24518850.3204                   24518855.2704
        35.5004         29.2504
   -151663.27746     18357.35544  23354713.6414                   23354716.5864
        39.7504         26.7504
   -513875.60246   -400456.18744  25097501.6804                   25097510.1174
        40.5004         26.0004
      5023.14547     50773.55546  23180417.5004                   23180422.1214
        43.0004         38.2504
  -1538852.91446  -1109070.88744  23183779.2664                   23183782.4224
        41.5004         28.0004
 25  8  5 20  0  0.0000000  0 10G08G02G18G32G10G24G23G31G27G28
   -673101.86346   -467448.57446  22807743.8134                   22807748.5274
        40.7504         37.0004
  -1868200.52747  -1358465.44144  22876175.2424                   22876173.4534
        44.0004         29.7504
    256216.11746    261799.96943  24881480.3914                   24881489.4304
        38.2504         20.0004
   -816656.60548   -582917.64848  20559829.6884                   20559830.9884
        51.2504         51.2504
   -838724.34848   -585215.67248  21305543.9774                   21305545.6604
        49.2504         48.0004
   -178837.96145    -71330.10544  24484483.5944                   24484489.1484
        35.2504         28.0004
   -347314.16846   -134098.01644  23317483.4384                   23317486.5124
        38.7504         25.5004
   -889320.43446   -693010.17644  25026056.3134                   25026065.0314
        38.7504         27.5004
   -175331.26647    -89762.46946  23146097.1334                   23146101.5084
        42.2504         38.5004
  -1898670.98047  -1389448.43444  23115308.0394                   23115310.9614
        42.2504         28.2504
 25  8  5 20  0 30.0000000  0 10G08G02G18G32G10G24G23G31G27G28
   -898934.70347   -643422.28946  22764769.0474                   22764773.4534
        42.0004         37.2504
  -2208521.08647  -1623650.25045  22811414.0554                   22811412.3524
        44.0004         30.2504
    100601.15646    140541.20743  24851868.2504                   24851876.7734
        39.0004         20.2504
  -1069408.14148   -779866.89848  20511732.6174                   20511734.1134
        51.7504         51.2504
  -1081986.44148   -774770.57048  21259252.6724                   21259254.3594
        50.2504         48.0004
   -358920.01645   -211653.85944  24450216.9384                   24450220.7854
        35.0004         28.0004
   -542766.44946   -286398.60244  23280289.7194                   23280293.1844
        39.5004         26.5004
  -1264779.63346   -985575.34844  24954609.2034                   24954617.2154
        40.2504         29.7504
   -355362.78947   -230046.89146  23111838.5234                   23111843.1684
        43.0004         37.5004
  -2258203.44947  -1669603.45344  23046890.8364                   23046893.9414
        42.2504         27.2504
 25  8  5 20  1  0.0000000  0 10G08G02G18G32G10G24G23G31G27G28
  -1124221.44547   -818970.48046  22721898.7424                   22721903.4844
        42.7504         38.0004
  -2548515.10547  -1888580.62145  22746715.2194                   22746713.7664
        44.2504         31.5004
    -54786.90646     19459.18443  24822298.8284                   24822307.5474
        39.0004         20.0004
  -1321641.47348   -976412.35548  20463734.3674                   20463735.3094
        51.7504         51.0004
  -1324984.35948   -964119.62548  21213011.6564                   21213013.5474
        50.0004         48.0004
   -538492.76645   -351580.74244  24416044.4064                   24416049.4104
        35.5004         27.5004
   -738021.75446   -438545.72344  23243134.0004                   23243136.9924
        41.0004         26.2504
  -1640252.43046  -1278151.12144  24883158.0474                   24883166.8364
        39.2504         29.0004
   -535076.21947   -370083.44146  23077639.8834                   23077644.3754
        43.0004         37.5004
  -2617448.98447  -1949534.87944  22978529.2114                   22978531.8364
        43.0004         26.0004
 25  8  5 20  1 30.0000000  0 10G08G02G18G32G10G24G23G31G27G28
  -1348965.95347   -994096.14846  22679131.6254                   22679136.1994
        42.0004         37.7504
  -2888181.99247  -2153256.07845  22682078.8054                   22682077.3834
        44.5004         31.7504
   -209951.43046   -101448.61343  24792772.2274                   24792781.1174
        38.7504         19.7504
  -1573359.69148  -1172556.43448  20415833.8134                   20415835.1094
        51.0004         51.2504
  -1567719.53948  -1153263.93448  21166820.5234                   21166822.4734
        49.5004         48.0004
   -717560.59445   -491114.17644  24381968.7814                   24381973.7934
        33.5004         26.5004
   -933081.76646   -590540.67244  23206015.7274                   23206018.5904
        41.2504         27.2504
  -2015738.03946  -1570736.87945  24811705.3834                   24811714.1484
        40.2504         30.7504
   -714476.43447   -509875.93046  23043501.5394                   23043506.2464
        43.0004         38.0004
  -2976406.29347  -2229241.73044  22910221.0394                   22910224.0864
        42.7504         27.5004
 25  8  5 20  2  0.0000000  0 10G08G02G18G32G10G24G23G31G27G28
      2254.02747     58802.46146  22936260.3284                   22936264.9614
        42.0004         38.0004
  -1652091.60247  -1190068.70345  22917298.8984                   22917297.5204
        44.0004         31.0004
   1210527.62946   1005417.75843  25063081.7194                   25063089.7894
        38.7504         18.2504
   -249138.82048   -140696.02048  20667824.8284                   20667825.9384
        52.2504         51.2504
   -234766.79748   -114599.48047  21420473.1174                   21420474.8954
        50.2504         47.7504
    679296.78145    597346.02744  24647781.6954                   24647786.9024
        32.5004         25.7504
    447476.93446    485219.23044  23468727.4454                   23468730.1294
        41.0004         25.7504
   -815804.39546   -635723.22344  25040044.8444                   25040053.3284
        39.5004         29.7504
    681856.28147    578175.41846  23309215.2034                   23309219.3014
        43.2504         37.5004
  -1759643.50047  -1281114.71544  23141763.6414                   23141766.2814
        43.0004         27.5004
 25  8  5 20  2 30.0000000  0 10G08G02G18G32G10G24G23G31G27G28
   -221419.94947   -115489.03146  22893696.8284                   22893701.2034
        42.0004         37.0004
  -1991105.45347  -1454235.28545  22852786.9304                   22852784.8054
        44.5004         31.7504
   1055796.86746    884848.02042  25033637.7194                   25033646.0474
        40.0004         17.2504
   -499838.34048   -336046.30148  20620118.1484                   20620119.8284
        52.0004         51.2504
   -476983.40248   -303339.69547  21374380.5634                   21374382.7234
        50.7504         47.7504
    501223.25845    458587.37144  24613895.6804                   24613901.2194
        33.2504         27.0004
    252800.03947    333522.81344  23431681.5084                   23431684.6564
        42.0004         26.2504
  -1191315.43446   -928328.80944  24968586.8054                   24968595.3094
        38.5004         28.5004
    503065.52347    438857.83246  23275192.0394                   23275196.9414
        42.5004         37.5004
  -2118022.81247  -1560371.18044  23073566.1954                   23073568.7894
        43.0004         26.5004
 25  8  5 20  3  0.0000000  0 10G08G02G18G32G10G24G23G31G27G28
   -444563.06246   -289366.85946  22851233.6254                   22851238.3284
        41.7504         37.0004
  -2329791.02047  -1718146.08245  22788336.8674                   22788335.3794
        45.2504         32.5004
    901278.86746    764443.98842  25004233.8594                   25004242.7894
        38.0004         16.2504
   -750031.74648   -531002.21948  20572507.8754                   20572508.9734
        51.2504         51.2504
   -718941.53148   -491878.51648  21328337.7894                   21328339.4774
        50.0004         48.0004
    323641.52345    320211.91444  24580103.9144                   24580108.0594
        33.0004         27.0004
     58313.60547    181974.80544  23394671.9144                   23394674.8754
        42.7504         27.5004
  -1566836.52346  -1220942.24244  24897127.2504                   24897135.5234
        38.5004         29.0004
    324573.56347    299773.07046  23241226.1254                   23241231.1094
        43.0004         37.2504
  -2476109.77347  -1839399.85544  23005424.8914                   23005427.0044
        44.2504         27.2504
 25  8  5 20  3 30.0000000  0 10G08G02G18G32G10G24G23G31G27G28
   -667177.94946   -462833.09046  22808871.7424                   22808876.3754
        41.0004         36.7504
  -2668146.37547  -1981799.56645  22723950.5704                   22723948.3134
        45.2504         32.7504
    746971.37146    644203.96942  24974869.8524                   24974879.9654
        38.2504         16.2504
   -999720.88748   -725565.19948  20524993.7584                   20524995.1024
        52.0004         51.2504
   -960641.39848   -680216.09448  21282344.0554                   21282345.6724
        50.0004         48.0004
    146548.48055    182217.25854  24546403.2274                   24546408.4454
        32.5004         26.5004
   -135982.83647     30574.86344  23357699.2034                   23357702.0044
        42.5004         27.5004
  -1942365.41046  -1513561.76644  24825665.7584                   24825674.5984
        37.7504         29.5004
    146376.82447    160918.34446  23207316.3594                   23207321.5824
        42.2504         37.0004
  -2833901.78147  -2118198.69944  22937338.5004                   22937340.7974
        44.0004         27.5004
 25  8  5 20  4  0.0000000  0 10G08G02G18G32G10G24G23G31G27G28
   -889269.69546   -635891.67246  22766609.5634                   22766613.8094
        41.2504         37.0004
  -3006172.67247  -2245196.63345  22659625.7664                   22659624.5984
        45.7504         31.7504
    592869.62146    524124.37942  24945546.3674                   24945556.0864
        38.2504         16.2504
  -1248910.02348   -919738.55948  20477574.2814                   20477575.9384
        51.2504         51.2504
  -1202085.59848   -868354.44948  21236398.9224                   21236400.2814
        50.0004         48.0004
    -30061.55545     44598.96544  24512795.9534                   24512800.9574
        33.2504         28.0004
   -330092.09047   -120679.23444  23320760.9694                   23320763.9734
        42.5004         25.7504
  -2317902.80146  -1806187.93444  24754203.7974                   24754211.8484
        37.0004         29.2504
    -31530.69547     22288.98846  23173462.3444                   23173466.5474
        42.0004         36.7504
  -3191398.69547  -2396767.59044  22869309.1094                   22869311.5944
        43.7504         28.5004
 25  8  5 20  4 30.0000000  0 10G08G02G18G32G10G24G23G31G27G28
  -1110842.04346   -808545.52046  22724445.2894                   22724449.6804
        40.5004         37.2504
  -3343869.27747  -2508336.78545  22595364.3984                   22595362.6644
        45.7504         33.0004
    438970.21545    404202.35242  24916259.8444                   24916269.7854
        35.5004         15.5004
  -1497602.07848  -1113524.58648  20430250.1564                   20430251.4264
        51.7504         51.2504
  -1443275.37948  -1056294.55947  21190501.6254                   21190503.6684
        49.5004         47.7504
   -206192.79345    -92646.20344  24479279.5084                   24479284.2034
        33.2504         26.0004
   -524015.62147   -271788.59844  23283858.7974                   23283861.6484
        42.7504         25.7504
  -2693447.43446  -2098819.76644  24682738.6414                   24682747.7384
        36.2504         27.2504
   -209153.71146   -116118.68446  23139661.6644                   23139666.3204
        41.5004         36.5004
  -3548598.97747  -2675105.32844  22801336.3054                   22801338.6024
        44.0004         27.5004
 25  8  5 20  5  0.0000000  0 10G08G02G18G32G10G24G23G31G27G28
    243528.17646    246807.81346  22982172.7664                   22982177.7234
        41.5004         36.7504
  -2105804.66447  -1543611.06645  22830960.3674                   22830958.5004
        46.0004         32.5004
   1860694.31645   1512038.87942  25186805.4384                   25186816.0204
        34.5004         13.7504
   -170372.21148    -79319.50848  20682813.6334                   20682814.8204
        52.2504         51.2504
   -108784.52048    -16431.57847  21444446.8204                   21444448.5944
        50.2504         47.7504
   1193575.77045    998082.47344  24745646.1024                   24745650.7974
        32.2504         27.2504
    857671.04346    804850.23444  23546785.7034                   23546788.2384
        41.7504         25.5004
  -1493565.91045  -1163846.83244  24911070.0004                   24911077.2894
        35.2504         27.2504
   1188928.55547    973295.94546  23405708.4844                   23405713.1764
        42.2504         37.0004
  -2330069.78547  -1725601.92244  23033214.2894                   23033216.4384
        43.2504         27.0004
 25  8  5 20  5 30.0000000  0 10G08G02G18G32G10G24G23G31G27G28
     22980.99646     74952.79346  22940204.7114                   22940209.2234
        41.7504         36.7504
  -2442842.14547  -1806237.63345  22766824.1334                   22766822.2624
        46.2504         31.7504
   1707186.83645   1392422.28542  25157593.0634                   25157606.2194
        31.7504         13.7504
   -418081.34448   -272339.62148  20635675.9844                   20635677.0984
        53.0004         51.2504
   -349471.67248   -203980.03147  21398645.5784                   21398647.6994
        50.7504         47.7504
   1018386.80945    861571.52744  24712308.2344                   24712313.3014
        32.2504         27.2504
    664112.08647    654024.94544  23509952.1484                   23509955.0004
        42.2504         24.5004
  -1869123.80945  -1456489.03944  24839602.4384                   24839610.3054
        34.5004         24.2504
   1011858.15646    835318.88746  23372012.8134                   23372017.4614
        41.7504         36.7504
  -2686674.75047  -2003475.78144  22965354.6254                   22965356.9694
        44.5004         28.2504
 25  8  5 20  6  0.0000000  0 10G08G02G18G32G10G24G23G31G27G28
   -197059.83247    -96507.68046  22898332.3444                   22898337.3134
        42.2504         36.7504
  -2779550.02347  -2068607.34845  22702750.3134                   22702748.7774
        46.0004         31.7504
   1553869.59045   1272953.88342  25128418.3134                   25128431.3914
        33.5004         15.5004
   -665304.01648   -464980.68448  20588631.1954                   20588632.4384
        52.5004         51.2504
   -589909.95348   -391334.55547  21352891.6804                   21352893.7624
        50.7504         47.7504
    843661.86745    725422.15644  24679059.8834                   24679064.7734
        35.2504         27.0004
    470732.53146    503339.45743  23473153.8444                   23473156.1334
        41.2504         22.7504
  -2244687.36345  -1749135.63744  24768135.4774                   24768143.1604
        33.2504         24.5004
    835056.50846    697551.24246  23338368.8524                   23338373.1684
        41.0004         36.5004
  -3042980.42247  -2281116.43044  22897551.6954                   22897553.8244
        43.7504         28.5004
 25  8  5 20  6 30.0000000  0 10G08G02G18G32G10G24G23G31G27G28
   -416600.44546   -267578.37146  22856555.3754                   22856560.0274
        41.5004         37.2504
  -3115929.82847  -2330721.43745  22638739.5634                   22638737.9694
        46.0004         32.7504
   1400736.840 5                  25099279.352
        30.000
   -912045.48448   -657246.77048  20541677.8364                   20541679.2894
        51.7504         51.2504
   -830102.84848   -578497.87148  21307184.5864                   21307186.3054
        50.5004         48.0004
    669394.46145    589629.30544  24645897.6884                   24645902.9924
        35.0004         29.7504
    277528.68446    352790.86343  23436388.3594                   23436390.9844
        40.5004         22.5004
  -2620257.73045  -2041787.54344  24696666.7034                   24696673.9304
        32.2504         24.2504
    658516.64546    559987.59046  23304773.9454                   23304779.0124
        40.7504         36.2504
  -3398987.50847  -2558524.40244  22829805.7114                   22829807.7114
        42.7504         28.2504
 25  8  5 20  7  0.0000000  0 11G08G02G18G32G10G24G23G31G01G27G28
   -635640.24646   -438258.80946  22814873.8444                   22814877.7664
        40.5004         37.2504
  -3451976.62547  -2592576.02745  22574791.9694                   22574789.6524
        46.5004         32.2504
   1247789.648 5                  25070176.453
        33.500
  -1158304.32448   -849136.78548  20494816.2034                   20494817.6134
        51.7504         51.2504
  -1070047.30948   -765467.60247  21261524.9144                   21261526.2544
        49.7504         47.7504
    495584.60546    454193.00844  24612823.0234                   24612827.6024
        36.7504         29.2504
     84503.46546    202381.50843  23399656.8984                   23399659.8134
        40.7504         22.5004
  -2995829.21945  -2334440.33644  24625197.3444                   24625205.1644
        34.5004         26.0004
   3978829.36356   3307890.71553  24757204.8754                   24757207.7034
        36.7504         20.0004
    482238.30946    422627.71546  23271229.4774                   23271234.6294
        41.5004         36.5004
  -3754690.22747  -2835695.21544  22762117.7034                   22762119.8914
        42.5004         29.0004
 25  8  5 20  7 30.0000000  0 10G08G02G32G10G24G23G31G01G27G28
   -854180.78546   -608550.22346  22773286.8754                   22773291.4064
        41.5004         36.0004
  -3787687.61347  -2854168.96545  22510908.0394                   22510906.0664
        46.0004         33.0004
  -1404081.25848  -1040651.28148  20448046.6564                   20448047.8364
        52.5004         51.2504
  -1309742.25048   -952242.90647  21215912.0314                   21215913.9654
        50.5004         47.7504
    322230.33645    319111.68844  24579834.9924                   24579839.9884
        35.5004         29.0004
   -108342.41446     52111.86743  23362959.1484                   23362962.4104
        41.0004         22.2504
  -3371398.71946  -2627091.60544  24553729.4534                   24553735.5704
        36.7504         27.5004
   3612581.33646   3022502.69343  24687509.6564                   24687513.2424
        38.5004         21.2504
    306218.98446    285469.67646  23237733.8284                   23237739.6024
        40.7504         36.0004
  -4110084.74247  -3112625.85544  22694488.0164                   22694490.3324
        42.5004         28.5004
 25  8  5 20  8  0.0000000  0 11G08G02G18G32G10G24G23G31G01G27G28
    503197.10547    449146.75046  23031587.0004                   23031591.6644
        42.0004         36.5004
  -2547635.23847  -1887894.32845  22746882.4384                   22746880.6134
        45.5004         31.0004
                                  25311864.203
        31.250
    -73955.43048     -4189.60548  20701161.3204                   20701162.4144
        52.2504         51.2504
     26234.82048     88778.16447  21470140.6884                   21470142.1884
        50.7504         47.7504
   1724748.73846   1411983.12144  24846725.5944                   24846729.9144
        36.7504         29.0004
   1274411.75046   1129582.52343  23626088.6954                   23626091.8714
        40.7504         22.7504
  -2171536.84046  -1692134.00444  24782054.2894                   24782062.0234
        38.0004         28.5004
   4821859.07446   3964797.09843  24917627.3444                   24917630.7114
        39.0004         20.0004
   1705875.72746   1376111.16046  23504080.7344                   23504085.3984
        41.2504         36.5004
  -2889742.02747  -2161709.31244  22926711.6724                   22926714.0234
        43.0004         28.5004
 25  8  5 20  8 30.0000000  0 11G08G02G18G32G10G24G23G31G01G27G28
    285632.19546    279615.56346  22990185.5704                   22990190.8444
        41.5004         36.7504
  -2882684.20347  -2148971.38345  22683124.3914                   22683123.0594
        45.7504         31.5004
   2365448.629 4                  25282856.984
        25.750
   -318788.94948   -194968.97748  20654570.9694                   20654572.1054
        52.0004         51.0004
   -212976.12148    -97619.98447  21424620.0314                   21424621.5704
        50.5004         47.5004
   1552281.12546   1277592.72344  24813905.3984                   24813910.5124
        37.5004         28.5004
   1081908.86346    979580.12543  23589456.3834                   23589459.9964
        39.7504         22.5004
  -2547109.93046  -1984788.09044  24710585.3054                   24710592.6884
        40.5004         29.5004
   4455795.90646   3679553.09443  24847967.3594                   24847971.1374
        39.0004         20.5004
   1530349.22746   1239337.14146  23470679.1484                   23470683.9304
        41.5004         37.2504
  -3244527.04747  -2438165.03144  22859197.7664                   22859200.3484
        42.0004         28.0004
 25  8  5 20  9  0.0000000  0 11G08G02G18G32G10G24G23G31G01G27G28
     68548.66047    110459.49246  22948876.8364                   22948880.7304
        42.2504         37.0004
  -3217401.90247  -2409790.33245  22619429.6954                   22619427.8914
        46.0004         31.5004
   2213200.19545   2334855.10553  25253888.6024                   25253898.3284
        33.0004         18.5004
   -563155.92248   -385384.81248  20608069.2344                   20608070.5234
        52.0004         51.0004
   -451947.54348   -283831.51247  21379145.2274                   21379146.9384
        49.7504         47.5004
   1380249.71146   1143542.20344  24781169.7344                   24781174.0514
        37.0004         27.5004
    889574.51646    829709.06643  23552856.9844                   23552859.8054
        39.5004         22.0004
  -2922684.00046  -2277442.93744  24639116.0164                   24639122.8954
        40.5004         29.2504
   4089825.04346   3394381.03143  24778325.7194                   24778329.2154
        38.5004         18.5004
   1355061.44546   1102749.12146  23437323.1644                   23437327.4654
        41.2504         37.0004
  -3599005.74647  -2714382.05544  22791743.2664                   22791745.1524
        42.0004         28.2504
 25  8  5 20  9 30.0000000  0 10G08G02G32G10G24G23G31G01G27G28
   -148060.55147    -58326.99246  22907657.6724                   22907661.7704
        42.2504         37.0004
  -3551791.19947  -2670353.37145  22555797.8204                   22555795.4104
        45.7504         31.5004
   -807062.55948   -575441.93748  20561655.3914                   20561656.7934
        52.0004         51.2504
   -690683.89548   -469859.85547  21333715.4614                   21333717.0314
        50.5004         47.5004
   1208646.95746   1009825.70744  24748514.4614                   24748519.5164
        37.5004         27.5004
    697404.14546    679965.80143  23516287.8204                   23516290.8914
        40.0004         21.2504
  -3298260.83646  -2570099.93044  24567645.9384                   24567652.4304
        40.7504         28.2504
   3723943.66046   3109278.66842  24708701.1644                   24708704.4614
        38.7504         17.7504
   1180004.49646    966340.98846  23404010.6174                   23404015.9024
        40.5004         36.7504
  -3953179.82047  -2990361.71944  22724345.4614                   22724347.6684
        42.5004         29.5004
 25  8  5 20 10  0.0000000  0 10G08G02G32G10G24G23G31G01G27G28
   -364199.52346   -226747.04746  22866527.4844                   22866532.0594
        41.5004         37.2504
  -3885851.33247  -2930659.91845  22492227.7974                   22492225.9654
        45.5004         32.7504
  -1050511.98848   -765142.79748  20515328.4384                   20515329.5434
        51.5004         51.0004
   -929186.43748   -655706.01247  21288329.6024                   21288331.3444
        50.0004         47.5004
   1037468.35446    876439.74744  24715940.2034                   24715945.1174
        38.2504         26.5004
    505396.07046    530348.99243  23479750.1254                   23479753.3484
        40.2504         22.7504
  -3673839.36346  -2862758.25044  24496174.1724                   24496181.8874
        40.5004         26.0004
   3358152.09046   2824246.30143  24639092.7034                   24639096.4924
        37.7504         18.2504
   1005173.68046    830109.06346  23370741.5554                   23370746.8404
        41.5004         37.2504
  -4307047.86347  -3266102.90244  22657006.8204                   22657008.9924
        43.0004         28.7504
 25  8  5 20 10 30.0000000  0 10G08G02G32G10G24G23G31G01G27G28
   -579872.22747   -394803.77746  22825486.4064                   22825491.2034
        42.7504         37.7504
  -4219582.07447  -3190709.78545  22428721.0234                   22428719.6414
        44.5004         32.2504
  -1293507.36748   -954489.84848  20469088.0944                   20469089.3324
        52.5004         51.0004
  -1167456.57848   -841371.07847  21242988.4304                   21242989.9844
        50.2504         47.5004
    866709.48046    743380.85544  24683446.4224                   24683450.5784
        38.0004         25.0004
    313548.68446    380857.39143  23443243.0394                   23443246.0594
        40.0004         22.5004
  -4049418.68046  -3155417.15244  24424704.1094                   24424711.4224
        41.0004         26.5004
   2992450.53546   2539284.08642  24569502.1174                   24569505.5234
        38.0004         16.7504
    830564.16046    694049.56346  23337514.6954                   23337519.5864
        41.0004         37.0004
  -4660608.53947  -3541604.59445  22589726.4774                   22589728.9574
        43.2504         30.5004
 25  8  5 20 11  0.0000000  0 10G08G02G32G10G24G23G31G01G27G28
    780350.21947    665109.73046  23084328.3204                   23084333.2194
        43.0004         37.0004
  -2977546.17247  -2222889.55545  22665072.6484                   22665070.5784
        45.2504         32.0004
     39381.97748     84125.22348  20722728.4224                   20722729.7544
        52.0004         51.0004
    169938.12948    200754.65247  21497486.4384                   21497488.1604
        50.0004         47.2504
   2271797.27746   1838254.41844  24950826.0234                   24950830.2234
        36.7504         25.5004
   1697292.60546   1459099.28543  23706561.0784                   23706563.8284
        40.5004         22.5004
  -2849559.38746  -2220461.59844  24653029.8054                   24653036.1134
        41.0004         25.0004
   4202277.31646   3482006.32842  24799724.7114                   24799727.3674
        38.5004         17.2504
   2231602.74246   1785767.80546  23604123.3054                   23604128.4024
        41.2504         37.2504
  -3438422.96147  -2589252.06644  22822300.7114                   22822302.6884
        43.0004         29.5004
 25  8  5 20 11 30.0000000  0 10G08G02G32G10G24G23G31G01G27G28
    565609.19546    497778.98446  23043464.7504                   23043468.7624
        41.7504         37.2504
  -3310605.26647  -2482416.08645  22601693.7344                   22601691.2304
        45.5004         31.7504
   -202703.47348   -104512.80148  20676661.1804                   20676662.2344
        51.5004         51.0004
    -67859.75048     15457.57847  21452234.6334                   21452236.4144
        49.7504         47.2504
   2101875.63746   1705847.92244  24918490.6644                   24918495.4384
        37.5004         24.7504
   1505773.21946   1309863.26643  23670115.4454                   23670119.0084
        41.2504         22.5004
  -3225125.54346  -2513110.29344  24581561.4454                   24581568.0274
        40.5004         25.5004
   3836768.13346   3197194.05543  24730170.3914                   24730173.1954
        38.0004         18.5004
   2057432.83646   1650050.86346  23570980.1564                   23570985.7624
        41.0004         36.7504
  -3791353.52047  -2864262.75844  22755139.5234                   22755141.7464
        43.7504         29.0004
 25  8  5 20 12  0.0000000  0 10G08G02G32G10G24G23G31G01G27G28
    351326.20346    330805.14146  23002688.0784                   23002692.2194
        41.7504         36.7504
  -3643329.10247  -2741681.37945  22538378.7664                   22538376.2854
        45.0004         32.2504
   -444340.50448   -292801.39848  20630679.0554                   20630680.2934
        51.2504         51.0004
   -305425.19148   -169658.37147  21407027.3594                   21407029.1954
        49.5004         47.2504
   1932364.23446   1573761.10943  24886233.5394                   24886238.3674
        37.5004         22.7504
   1314413.71546   1160751.84043  23633701.7274                   23633704.9224
        41.2504         22.7504
  -3600685.34846  -2805753.99644  24510094.9924                   24510101.0904
        40.5004         26.5004
   3471353.80946   2912455.73443  24660634.0864                   24660637.2814
        38.5004         19.2504
   1883473.81646   1514498.24246  23537876.2894                   23537882.1214
        41.0004         36.5004
  -4143968.71547  -3139027.72344  22688039.1414                   22688040.9414
        44.5004         29.5004
 25  8  5 20 12 30.0000000  0 10G08G02G32G10G24G23G31G01G27G28
    137492.77047    164181.60946  22961996.5634                   22962001.3134
        42.2504         36.5004
  -3975722.58247  -3000689.23445  22475126.0234                   22475124.0664
        46.0004         32.5004
   -685536.59848   -480746.41048  20584781.0234                   20584782.1804
        51.0004         51.0004
   -542763.89548   -354597.63347  21361863.3834                   21361865.2974
        48.2504         47.0004
   1763254.03145   1441986.87143  24854053.2194                   24854057.3714
        35.5004         21.5004
   1123208.03546   1011760.28543  23597316.5704                   23597319.8674
        41.5004         22.7504
  -3976241.93746  -3098395.18444  24438628.6414                   24438635.0044
        39.7504         26.7504
   3106030.27046   2627788.15243  24591115.4454                   24591118.3874
        39.0004         19.5004
   1709716.55546   1379102.84446  23504811.9844                   23504817.2274
        40.7504         36.2504
  -4496271.56247  -3413549.31644  22620998.4384                   22621000.4344
        43.7504         29.2504
 25  8  5 20 13  0.0000000  0 10G08G02G32G10G24G23G31G01G27G28
    -75895.35246     -2094.93045  22921390.1954                   22921394.4654
        41.0004         35.7504
  -4307784.92647  -3259439.05945  22411936.5474                   22411934.6644
        44.7504         32.5004
   -926295.16848   -668350.50048  20538966.1334                   20538967.1254
        49.5004         51.0004
   -779877.29747   -539361.34447  21316742.1954                   21316744.0904
        47.2504         47.0004
   1594540.49645   1310521.75443  24821947.8754                   24821952.6174
        34.2504         20.2504
    932154.50847    862887.29344  23560960.1174                   23560963.6994
        42.0004         24.0004
  -4351794.40246  -3391033.14844  24367162.9454                   24367169.5824
        39.0004         26.7504
   2740797.80146   2343191.52343  24521613.3364                   24521616.6414
        40.7504         20.2504
   1536156.10946   1243860.79746  23471784.7194                   23471789.8094
        41.2504         36.5004
  -4848260.87547  -3687826.58244  22554017.0164                   22554018.7114
        44.7504         29.2504
 25  8  5 20 13 30.0000000  0 10G08G02G32G10G24G23G31G01G27G28
   -288841.17646   -168026.82045  22880867.9614                   22880872.7194
        40.7504         35.5004
  -4639514.21947  -3517929.36745  22348810.4304                   22348808.6564
        44.5004         33.0004
  -1166618.30948   -855615.30148  20493234.2584                   20493235.3054
        51.5004         51.0004
  -1016765.67248   -723949.70747  21271664.0474                   21271666.1374
        49.2504         47.0004
   1426220.14545   1179362.98843  24789917.8594                   24789922.0274
        34.7504         20.2504
    741252.56347    714132.39543  23524632.5004                   23524636.7504
        42.0004         22.5004
  -4727340.60946  -3683666.21544  24295698.1954                   24295705.3794
        38.2504         26.0004
   2375657.67246   2058666.87143  24452130.0864                   24452133.1564
        40.5004         21.0004
   1362788.74646   1108769.21946  23438793.8444                   23438799.1334
        39.7504         36.2504
  -5199934.19147  -3961857.62145  22487095.3204                   22487097.2274
        43.7504         30.0004
 25  8  5 20 14  0.0000000  0 10G08G02G32G10G24G23G31G01G27G28
   1074077.78546    893987.86345  23140222.8594                   23140227.8484
        40.7504         35.5004
  -3395479.93047  -2548551.94945  22585542.3204                   22585540.3674
        44.5004         31.7504
    168918.30948    185062.57048  20747378.3594                   20747379.4384
        51.5004         50.7504
    321997.15248    319242.08247  21526422.0864                   21526423.8164
        49.5004         47.2504
   2833713.62945   2276111.05943  25057755.6334                   25057760.2704
        34.5004         20.7504
   2125926.50046   1793098.98443  23788128.0084                   23788131.0044
        41.7504         22.5004
  -3527447.21946  -2748683.98444  24524030.4144                   24524037.2114
        39.0004         27.2504
   3586042.00446   3001823.54343  24682458.2274                   24682461.3244
        41.0004         20.5004
   2765035.12146   2201428.59046  23705633.1724                   23705638.1254
        40.7504         36.2504
  -3975858.94147  -3008032.65645  22720029.2424                   22720030.9694
        44.0004         30.0004
 25  8  5 20 14 30.0000000  0  9G08G02G32G10G23G31G01G27G28
    862002.46946    728734.28545  23099866.5164                   23099870.7734
        40.5004         35.2504
  -3726544.43447  -2806524.25445  22522542.3524                   22522540.6564
        45.5004         32.2504
    -70545.34448     -1532.49648  20701809.8594                   20701811.5084
        51.5004         51.0004
     85553.26648    135000.07447  21481428.2504                   21481430.0664
        49.7504         47.0004
   1935321.21546   1644575.26243  23751857.3134                   23751860.8984
        41.5004         22.7504
  -3902979.18046  -3041305.95744  24452568.9064                   24452575.6294
        39.0004         27.2504
   3221085.93846   2717442.27043  24613009.3834                   24613012.5784
        40.5004         19.5004
   2592037.98446   2066625.50046  23672712.6954                   23672718.2854
        41.5004         36.0004
  -4326897.98847  -3281569.47345  22653229.0634                   22653230.1484
        44.0004         30.0004
 25  8  5 20 15  0.0000000  0  9G08G02G32G10G23G31G01G27G28
    650357.02746    563815.66445  23059591.7194                   23059595.7854
        41.2504         35.5004
  -4057275.00047  -3064236.34045  22459606.9844                   22459604.6054
        44.5004         33.0004
   -309583.20348   -187795.77748  20656322.5234                   20656323.7734
        51.5004         51.0004
   -150669.43748    -49069.58247  21436476.7664                   21436478.4964
        50.5004         46.7504
   1744862.75047   1496165.95343  23715614.1254                   23715617.7624
        42.2504         22.5004
  -4278501.38346  -3333920.30945  24381109.3134                   24381115.3014
        40.5004         30.0004
   2856223.30146   2433133.77342  24543578.4534                   24543581.1094
        39.0004         17.7504
   2419219.67646   1931961.74646  23639826.5234                   23639831.7624
        40.7504         36.2504
  -4677617.04347  -3554856.94945  22586488.9304                   22586490.8594
        43.7504         30.0004
 25  8  5 20 15 30.0000000  0  9G08G02G32G10G23G31G01G27G28
    439140.13346    399230.98446  23019398.8444                   23019403.1604
        41.7504         36.2504
  -4387668.27347  -3321685.60245  22396735.1804                   22396733.1294
        44.5004         32.5004
   -548195.73448   -373727.62948  20610916.2034                   20610917.5204
        51.5004         51.0004
   -386669.52048   -232965.77347  21391567.4064                   21391569.0314
        49.0004         47.0004
   1554552.31346   1347871.97743  23679399.2274                   23679402.4694
        41.0004         22.5004
  -4654010.04746  -3626524.12945  24309651.6254                   24309657.9144
        41.2504         30.5004
   2491457.30546   2148900.57043  24474165.4694                   24474168.3794
        37.2504         18.5004
   2246578.20746   1797435.78546  23606973.8204                   23606979.5664
        40.5004         36.2504
  -5028011.93447  -3827891.84044  22519810.4614                   22519812.5354
        43.7504         29.7504
 25  8  5 20 16  0.0000000  0  9G08G02G32G10G23G31G01G27G28
    228348.89546    234977.98446  22979286.9774                   22979291.2814
        41.7504         36.0004
  -4717722.41447  -3578870.60245  22333927.7894                   22333925.6254
        45.5004         33.0004
   -786384.85548   -559329.55948  20565590.0474                   20565591.4774
        51.2504         51.0004
   -622446.89848   -416688.43447  21346700.4534                   21346702.3284
        50.0004         47.0004
   1364389.52047   1199693.04743  23643212.3594                   23643216.0004
        42.0004         23.2504
  -5029502.66046  -3919115.43045  24238197.5084                   24238203.8014
        41.2504         30.5004
   2126789.58645   1864744.01642  24404771.3444                   24404774.9144
        34.5004         17.2504
   2074110.10246   1663044.91846  23574154.4384                   23574160.0234
        40.7504         36.2504
  -5378080.09447  -4100672.12545  22453195.3054                   22453196.7464
        44.7504         30.5004
 25  8  5 20 16 30.0000000  0  9G08G02G32G10G23G31G01G27G28
     17982.99647     71056.41446  22939255.3204                   22939259.4774
        43.2504         36.0004
  -5047433.19547  -3835788.05545  22271185.9534                   22271183.9804
        45.0004         33.0004
  -1024149.93048   -744601.06248  20520345.2034                   20520346.2464
        51.5004         51.0004
   -857998.99248   -600235.53947  21301876.5474                   21301878.1804
        49.2504         47.0004
   1174376.72746   1051630.99244  23607054.6334                   23607057.7814
        41.5004         24.5004
  -5404974.05946  -4211690.19544  24166747.8284                   24166753.5314
        39.5004         29.7504
   1762224.32045   1580667.39542  24335396.1884                   24335400.0984
        31.2504         15.5004
   1901814.54746   1528788.50445  23541368.2734                   23541373.5904
        39.5004         35.2504
  -5727816.23847  -4373193.70745  22386642.5004                   22386644.3674
        44.2504         30.7504
 25  8  5 20 17  0.0000000  0  9G08G02G32G10G23G31G01G27G28
   1383463.87547   1135067.40646  23199097.7274                   23199102.4144
        42.0004         36.0004
  -3801370.62147  -2864830.16045  22508303.9844                   22508301.4804
        45.2504         32.5004
    313932.22748    298060.34848  20774973.5394                   20774975.0124
        51.7504         51.0004
    482099.30548    443996.87147  21556888.8834                   21556890.8484
        49.0004         47.0004
   2559937.14546   2131288.34843  23870718.0164                   23870721.4454
        41.5004         22.2504
  -4204992.20746  -3276639.03544  24395096.2504                   24395102.1054
        39.5004         29.0004
   2973192.64845   2524279.15642  24565835.2814                   24565839.8094
        34.7504         16.2504
   3305110.92646   2622266.05545  23808406.5004                   23808411.6094
        41.0004         34.5004
  -4501788.94147  -3417847.67245  22619947.4144                   22619949.0354
        43.2504         30.5004
 25  8  5 20 17 30.0000000  0  9G08G02G32G10G23G31G01G27G28
   1173930.86746    971794.85246  23159224.8364                   23159230.0784
        40.7504         36.5004
  -4130398.78147  -3121215.69945  22445691.1644                   22445689.4734
        45.0004         33.2504
     77000.17648    113437.96148  20729886.9144                   20729888.1684
        49.5004         51.0004
    246988.62547    260793.72347  21512149.0164                   21512150.6374
        47.5004         47.0004
   2370214.19946   1983452.16843  23834614.5004                   23834618.2344
        40.7504         22.0004
  -4580423.52746  -3569182.57444  24323653.9534                   24323659.6414
        38.5004         27.0004
   2608828.42646   2240359.08243  24496500.1484                   24496503.7894
        37.7504         20.0004
   3133140.72746   2488263.15245  23775681.6954                   23775687.1724
        40.0004         34.5004
  -4850862.52747  -3689852.97745  22553521.1484                   22553522.4964
        44.5004         30.0004
 25  8  5 20 18  0.0000000  0  9G08G02G32G10G23G31G01G27G28
    964808.51646    808842.27346  23119430.3674                   23119435.2504
        40.2504         36.5004
  -4459084.46947  -3377334.37545  22383145.1174                   22383142.9804
        45.2504         33.2504
   -159519.78148    -70863.31248  20684878.7974                   20684880.1094
        51.5004         51.0004
     12097.28548     77761.49247  21467450.4614                   21467452.0864
        49.7504         47.0004
   2180634.21146   1835727.37144  23798538.7194                   23798542.8094
        41.5004         24.0004
  -4955832.50846  -3861708.73044  24252215.5554                   24252221.1844
        37.2504         26.2504
   2244565.74246   1956518.14143  24427183.0314                   24427186.1644
        38.7504         22.5004
   2961326.59446   2354381.85945  23742986.4384                   23742991.9574
        40.0004         34.0004
  -5199602.37947  -3961598.22345  22487157.9144                   22487159.8134
        44.2504         30.5004
 25  8  5 20 18 30.0000000  0  9G08G02G32G10G23G31G01G27G28
    756090.73046    646204.95346  23079712.2274                   23079717.8674
        41.2504         36.0004
  -4787429.07447  -3633187.27345  22320662.7814                   22320660.6994
        44.7504         34.2504
   -395632.65248   -254847.37548  20639947.8754                   20639949.0744
        50.7504         51.0004
   -222577.81248   -105102.25047  21422792.8914                   21422794.7304
        49.0004         47.0004
   1991193.85546   1688111.39143  23762489.8204                   23762493.7034
        41.0004         23.5004
  -5331219.59046  -4154217.82444  24180781.4844                   24180786.7504
        38.5004         27.0004
   1880403.37546   1672755.35244  24357885.4534                   24357888.3404
        40.0004         24.2504
   2789661.98446   2220617.09045  23710320.8364                   23710325.6484
        39.5004         33.2504
  -5548008.91847  -4233083.75445  22420858.5234                   22420860.1374
        44.5004         30.5004
 25  8  5 20 19  0.0000000  0  9G08G02G32G10G23G31G01G27G28
    547775.23846    483881.10246  23040070.9454                   23040076.6764
        40.0004         36.2504
  -5115430.14847  -3888772.48845  22258246.1564                   22258244.4144
        44.5004         33.2504
   -631339.89848   -438515.36748  20595094.7274                   20595095.3674
        51.0004         50.7504
   -457036.04748   -287797.00447  21378177.0864                   21378179.0864
        49.0004         47.0004
   1801893.38746   1540604.41843  23726466.9694                   23726470.5664
        41.2504         23.7504
  -5706582.02346  -4446707.70344  24109351.5234                   24109357.7304
        38.2504         28.5004
   1516343.55146   1389072.46943  24288607.0234                   24288610.2424
        40.0004         23.7504
   2618144.11346   2086966.64545  23677681.6484                   23677687.3444
        40.0004         34.2504
  -5896078.96147  -4504307.08245  22354622.8594                   22354624.2504
        44.0004         30.2504
 25  8  5 20 19 30.0000000  0  9G08G02G32G10G23G31G01G27G28
    339858.43046    321867.89845  23000506.0394                   23000511.4384
        39.5004         35.2504
  -5443086.69547  -4144089.24245  22195895.3204                   22195893.2074
        45.2504         33.5004
   -866644.03548   -621869.25048  20550317.5394                   20550318.5904
        51.5004         50.7504
   -691277.96948   -470323.20347  21333602.3984                   21333604.2344
        49.2504         47.0004
   1612731.91446   1393205.74243  23690471.9064                   23690475.4654
        40.2504         22.5004
  -6081917.33246  -4739176.42244  24037927.8284                   24037933.7624
        39.7504         29.7504
   1152387.38346   1105470.35543  24219348.4454                   24219351.6564
        39.5004         22.7504
   2446768.82846   1953427.31345  23645069.9304                   23645075.3484
        40.0004         34.2504
  -6243810.53947  -4775266.65644  22288451.4694                   22288453.4964
        44.5004         29.7504
 25  8  5 20 20  0.0000000  0  9G08G02G32G10G23G31G01G27G28
   1707763.01246   1387767.47345  23260809.6334                   23260814.6054
        40.7504         35.0004
  -4194967.18047  -3171528.54345  22433404.5944                   22433402.6484
        44.7504         33.5004
    473879.45348    422694.49648  20805410.5394                   20805411.7114
        51.5004         50.7504
    650122.94948    574924.24647  21588862.7584                   21588864.2384
        49.2504         47.0004
   2999134.12546   2473519.04343  23954295.0394                   23954299.0204
        41.0004         22.5004
  -4881792.07446  -3804013.53145  24266303.8284                   24266309.7624
        39.0004         31.2504
   2363967.49646   2049558.87143  24449904.4064                   24449907.3444
        38.7504         22.2504
   3850957.19546   3047599.91445  23912278.4924                   23912283.9924
        38.7504         34.0004
  -5015770.79747  -3818352.47745  22522139.8054                   22522141.3634
        44.5004         30.7504
 25  8  5 20 20 30.0000000  0  9G08G02G32G10G23G31G01G27G28
   1500632.42646   1226366.91445  23221394.6954                   23221399.2544
        39.5004         35.7504
  -4521931.48847  -3426305.89145  22371185.2664                   22371183.2664
        44.7504         33.5004
    239373.15248    239962.30548  20760785.6804                   20760786.8164
        49.7504         50.7504
    416311.44947    392733.44147  21544369.8134                   21544371.5434
        47.5004         46.7504
   2810247.36746   2326334.43843  23918351.1174                   23918355.3834
        40.5004         22.7504
  -5257068.62146  -4096436.48045  24194890.8594                   24194896.5554
        40.5004         32.5004
   2000221.56346   1766120.58643  24380684.9694                   24380688.8794
        39.2504         21.5004
   3679854.58246   2914273.04745  23879718.5314                   23879724.0474
        38.7504         33.5004
  -5362819.97347  -4088780.32445  22456097.8914                   22456099.9384
        45.0004         30.2504
 25  8  5 20 21  0.0000000  0  9G08G02G32G10G23G31G01G27G28
   1293888.32846   1065267.52045  23182053.0704                   23182057.3834
        40.5004         35.0004
  -4848549.39147  -3680813.30145  22309031.9844                   22309030.1724
        45.5004         34.7504
      5260.65648     57536.96948  20716235.3284                   20716236.4924
        49.5004         50.5004
    182713.10947    210708.73047  21499917.5314                   21499919.2384
        47.2504         46.7504
   2621495.32846   2179254.79743  23882433.2034                   23882437.0234
        41.5004         22.7504
  -5632314.18046  -4388835.30145  24123484.4064                   24123489.8554
        40.2504         32.5004
   1636581.29746   1482764.63743  24311487.5314                   24311490.1134
        40.5004         22.0004
   3508880.97746   2781046.70345  23847183.6484                   23847189.1804
        38.2504         33.2504
  -5709526.26647  -4358940.97745  22390122.2664                   22390123.9534
        45.0004         30.5004
 25  8  5 20 21 30.0000000  0  9G08G02G32G10G23G31G01G27G28
   1087528.57846    904467.62545  23142783.4844                   23142788.6994
